[{"origin":{"lat":2.378585199806733,"lng":48.88286183718734},"taff":{"geocoded_waypoints":[{"geocoder_status":"OK","place_id":"ChIJmwkfG9tt5kcRxhrvtGwZNGM","types":["street_address"]},{"geocoder_status":"OK","place_id":"ChIJc5sm28pv5kcR0cpsawDOfSg","types":["street_address"]}],"routes":[{"bounds":{"northeast":{"lat":48.8827989,"lng":2.3786229},"southwest":{"lat":48.8748221,"lng":2.3228933}},"copyrights":"Données cartographiques ©2016 Google","legs":[{"arrival_time":{"text":"10:42","time_zone":"Europe/Paris","value":1472719356},"departure_time":{"text":"10:07","time_zone":"Europe/Paris","value":1472717274},"distance":{"text":"4,6 km","value":4618},"duration":{"text":"35 minutes","value":2082},"end_address":"73 Rue d'Anjou, 75008 Paris, France","end_location":{"lat":48.8748221,"lng":2.3228933},"start_address":"26 Rue Armand Carrel, 75019 Paris, France","start_location":{"lat":48.8827989,"lng":2.3786229},"steps":[{"distance":{"text":"0,6 km","value":572},"duration":{"text":"7 minutes","value":426},"end_location":{"lat":48.880586,"lng":2.374147},"html_instructions":"Marcher jusqu'à Marche Secretan","polyline":{"points":"oljiHkqoM?@@F?j@?@?@@?P@CvBAZMhKv@fBRd@d@jAN^DJJRPVNRV\\TVlAxAT[JUJOx@aABARQJGEQ"},"start_location":{"lat":48.8827989,"lng":2.3786229},"steps":[{"distance":{"text":"32 m","value":32},"duration":{"text":"1 minute","value":25},"end_location":{"lat":48.8826922,"lng":2.3783185},"html_instructions":"Prendre la direction <b>ouest</b> vers <b>Rue Armand Carrel</b><div style=\"font-size:0.9em\">Voie à accès limité</div>","polyline":{"points":"oljiHkqoM?@@F?j@?@?@@?P@"},"start_location":{"lat":48.8827989,"lng":2.3786229},"travel_mode":"WALKING"},{"distance":{"text":"0,2 km","value":198},"duration":{"text":"2 minutes","value":137},"end_location":{"lat":48.8827855,"lng":2.3756094},"html_instructions":"Prendre <b>à droite</b> sur <b>Rue Armand Carrel</b>","maneuver":"turn-right","polyline":{"points":"ykjiHoooMCvBAZMhK"},"start_location":{"lat":48.8826922,"lng":2.3783185},"travel_mode":"WALKING"},{"distance":{"text":"0,2 km","value":244},"duration":{"text":"3 minutes","value":182},"end_location":{"lat":48.88125609999999,"lng":2.3732553},"html_instructions":"Prendre légèrement <b>à gauche</b> sur <b>Rue de Meaux</b>","maneuver":"turn-slight-left","polyline":{"points":"mljiHq~nMv@fBRd@d@jAN^DJJRPVNRV\\TVlAxA"},"start_location":{"lat":48.8827855,"lng":2.3756094},"travel_mode":"WALKING"},{"distance":{"text":"0,1 km","value":98},"duration":{"text":"1 minute","value":82},"end_location":{"lat":48.880586,"lng":2.374147},"html_instructions":"Prendre <b>à gauche</b> sur <b>Avenue Simon Bolivar</b><div style=\"font-size:0.9em\">Votre destination se trouvera sur la gauche.</div>","maneuver":"turn-left","polyline":{"points":"{bjiH{onMT[JUJOx@aABARQJGEQ"},"start_location":{"lat":48.88125609999999,"lng":2.3732553},"travel_mode":"WALKING"}],"travel_mode":"WALKING"},{"distance":{"text":"3,7 km","value":3699},"duration":{"text":"23 minutes","value":1380},"end_location":{"lat":48.875721,"lng":2.327204},"html_instructions":"Bus vers Gare Saint-Lazare","polyline":{"points":"u~iiHmunMwInR|Cxc@|C~Q`FxY{AlPaAtTrExTvEvTtH`SdCvKe@jQe@v\\hCtZ"},"start_location":{"lat":48.880586,"lng":2.374147},"transit_details":{"arrival_stop":{"location":{"lat":48.875721,"lng":2.327204},"name":"Gare Saint-Lazare - Budapest"},"arrival_time":{"text":"10:38","time_zone":"Europe/Paris","value":1472719080},"departure_stop":{"location":{"lat":48.880586,"lng":2.374147},"name":"Marche Secretan"},"departure_time":{"text":"10:15","time_zone":"Europe/Paris","value":1472717700},"headsign":"Gare Saint-Lazare","line":{"agencies":[{"name":"STIF","url":"http://www.vianavigo.com/"}],"color":"#e65100","short_name":"26","text_color":"#000000","vehicle":{"icon":"//maps.gstatic.com/mapfiles/transit/iw2/6/bus2.png","name":"Bus","type":"BUS"}},"num_stops":13},"travel_mode":"TRANSIT"},{"distance":{"text":"0,3 km","value":347},"duration":{"text":"5 minutes","value":276},"end_location":{"lat":48.8748221,"lng":2.3228933},"html_instructions":"Marcher jusqu'à 73 Rue d'Anjou, 75008 Paris, France","polyline":{"points":"g`iiH_peMTHF|ABxALtAX`EPpBLzAHjDRAf@HB@"},"start_location":{"lat":48.875721,"lng":2.327204},"steps":[{"distance":{"text":"67 m","value":67},"duration":{"text":"1 minute","value":58},"end_location":{"lat":48.8755459,"lng":2.3262331},"html_instructions":"Prendre la direction <b>ouest</b> sur <b>Place du Havre</b> vers <b>Rue du Havre</b>","polyline":{"points":"g`iiH_peMTHF|ABxA"},"start_location":{"lat":48.875721,"lng":2.327204},"travel_mode":"WALKING"},{"distance":{"text":"0,1 km","value":105},"duration":{"text":"1 minute","value":75},"end_location":{"lat":48.875347,"lng":2.3248275},"html_instructions":"Continuer sur <b>Rue Saint-Lazare</b>","polyline":{"points":"e_iiH}ieMLtAX`E"},"start_location":{"lat":48.8755459,"lng":2.3262331},"travel_mode":"WALKING"},{"distance":{"text":"0,1 km","value":140},"duration":{"text":"2 minutes","value":111},"end_location":{"lat":48.8751359,"lng":2.3229397},"html_instructions":"Continuer tout droit sur <b>Rue de la Pépinière</b>/<b>Place Gabriel Péri</b><div style=\"font-size:0.9em\">Continuer de suivre Rue de la Pépinière</div>","maneuver":"straight","polyline":{"points":"}}hiHeaeMPpBLzAHjD"},"start_location":{"lat":48.875347,"lng":2.3248275},"travel_mode":"WALKING"},{"distance":{"text":"35 m","value":35},"duration":{"text":"1 minute","value":32},"end_location":{"lat":48.8748221,"lng":2.3228933},"html_instructions":"Prendre <b>à gauche</b> sur <b>Rue d'Anjou</b><div style=\"font-size:0.9em\">Votre destination se trouvera sur la droite.</div>","maneuver":"turn-left","polyline":{"points":"s|hiHkudMRAf@HB@"},"start_location":{"lat":48.8751359,"lng":2.3229397},"travel_mode":"WALKING"}],"travel_mode":"WALKING"}],"traffic_speed_entry":[],"via_waypoint":[]}],"overview_polyline":{"points":"oljiHkqoM@v@@@P@CvBOdLjAlCfAjC`@j@l@t@lAxAT[Ve@|@cA^YEQwInR|Cxc@|C~Q`FxY{AlPaAtTrExTvEvTtH`SdCvKe@jQe@v\\hCtZTHF|ABxALtAj@rHLzAHjDRAf@HB@"},"summary":"","warnings":["Le calcul d'itinéraires piétons est en bêta. Faites attention – Cet itinéraire n'est peut-être pas complètement aménagé pour les piétons."],"waypoint_order":[]},{"bounds":{"northeast":{"lat":48.884589,"lng":2.3786229},"southwest":{"lat":48.87419449999999,"lng":2.3227511}},"copyrights":"Données cartographiques ©2016 Google","legs":[{"arrival_time":{"text":"10:37","time_zone":"Europe/Paris","value":1472719058},"departure_time":{"text":"10:01","time_zone":"Europe/Paris","value":1472716877},"distance":{"text":"4,9 km","value":4856},"duration":{"text":"36 minutes","value":2181},"end_address":"73 Rue d'Anjou, 75008 Paris, France","end_location":{"lat":48.8748221,"lng":2.3228933},"start_address":"26 Rue Armand Carrel, 75019 Paris, France","start_location":{"lat":48.8827989,"lng":2.3786229},"steps":[{"distance":{"text":"0,3 km","value":300},"duration":{"text":"4 minutes","value":223},"end_location":{"lat":48.88290500000001,"lng":2.374666},"html_instructions":"Marcher jusqu'à Rue de Meaux","polyline":{"points":"oljiHkqoM?@@F?j@?@?@@?P@CvBAZMhKGbDAXMA"},"start_location":{"lat":48.8827989,"lng":2.3786229},"steps":[{"distance":{"text":"32 m","value":32},"duration":{"text":"1 minute","value":25},"end_location":{"lat":48.8826922,"lng":2.3783185},"html_instructions":"Prendre la direction <b>ouest</b> vers <b>Rue Armand Carrel</b><div style=\"font-size:0.9em\">Voie à accès limité</div>","polyline":{"points":"oljiHkqoM?@@F?j@?@?@@?P@"},"start_location":{"lat":48.8827989,"lng":2.3786229},"travel_mode":"WALKING"},{"distance":{"text":"0,3 km","value":268},"duration":{"text":"3 minutes","value":198},"end_location":{"lat":48.88290500000001,"lng":2.374666},"html_instructions":"Prendre <b>à droite</b> sur <b>Rue Armand Carrel</b><div style=\"font-size:0.9em\">Votre destination se trouvera sur la droite.</div>","maneuver":"turn-right","polyline":{"points":"ykjiHoooMCvBAZMhKGbDAXMA"},"start_location":{"lat":48.8826922,"lng":2.3783185},"travel_mode":"WALKING"}],"travel_mode":"WALKING"},{"distance":{"text":"1,5 km","value":1541},"duration":{"text":"8 minutes","value":480},"end_location":{"lat":48.88068,"lng":2.357672},"html_instructions":"Bus vers Palais Royal - Musée du Louvre","polyline":{"points":"emjiHuxnMcBlNiEx]]|RCvTfLdKdJbE"},"start_location":{"lat":48.88290500000001,"lng":2.374666},"transit_details":{"arrival_stop":{"location":{"lat":48.88068,"lng":2.357672},"name":"Gare du Nord"},"arrival_time":{"text":"10:13","time_zone":"Europe/Paris","value":1472717580},"departure_stop":{"location":{"lat":48.88290500000001,"lng":2.374666},"name":"Rue de Meaux"},"departure_time":{"text":"10:05","time_zone":"Europe/Paris","value":1472717100},"headsign":"Palais Royal - Musée du Louvre","line":{"agencies":[{"name":"STIF","url":"http://www.vianavigo.com/"}],"color":"#1565c0","short_name":"48","text_color":"#ffffff","vehicle":{"icon":"//maps.gstatic.com/mapfiles/transit/iw2/6/bus2.png","name":"Bus","type":"BUS"}},"num_stops":6},"travel_mode":"TRANSIT"},{"distance":{"text":"0,1 km","value":118},"duration":{"text":"2 minutes","value":118},"end_location":{"lat":48.881741,"lng":2.357782},"html_instructions":"Marcher jusqu'à Gare du Nord","polyline":{"points":"g_jiHmnkMsEU"},"start_location":{"lat":48.88068,"lng":2.357672},"steps":[{"distance":{"text":"0,1 km","value":118},"duration":{"text":"2 minutes","value":118},"end_location":{"lat":48.881741,"lng":2.357782},"polyline":{"points":"g_jiHmnkMsEU"},"start_location":{"lat":48.88068,"lng":2.357672},"travel_mode":"WALKING"}],"travel_mode":"WALKING"},{"distance":{"text":"2,7 km","value":2744},"duration":{"text":"18 minutes","value":1080},"end_location":{"lat":48.874264,"lng":2.324166},"html_instructions":"Bus vers Bagatelle","polyline":{"points":"{ejiHcokMnIfPaAtTrExTvEvTtH`SdCvKe@jQe@v\\hCtZvDjCjBpM"},"start_location":{"lat":48.881741,"lng":2.357782},"transit_details":{"arrival_stop":{"location":{"lat":48.874264,"lng":2.324166},"name":"Pasquier - Anjou"},"arrival_time":{"text":"10:36","time_zone":"Europe/Paris","value":1472718960},"departure_stop":{"location":{"lat":48.881741,"lng":2.357782},"name":"Gare du Nord"},"departure_time":{"text":"10:18","time_zone":"Europe/Paris","value":1472717880},"headsign":"Bagatelle","line":{"agencies":[{"name":"STIF","url":"http://www.vianavigo.com/"}],"color":"#f21300","short_name":"43","text_color":"#ffffff","vehicle":{"icon":"//maps.gstatic.com/mapfiles/transit/iw2/6/bus2.png","name":"Bus","type":"BUS"}},"num_stops":11},"travel_mode":"TRANSIT"},{"distance":{"text":"0,2 km","value":153},"duration":{"text":"2 minutes","value":117},"end_location":{"lat":48.8748221,"lng":2.3228933},"html_instructions":"Marcher jusqu'à 73 Rue d'Anjou, 75008 Paris, France","polyline":{"points":"cwhiHa}dMLDGd@_@nFuA["},"start_location":{"lat":48.874264,"lng":2.324166},"steps":[{"distance":{"text":"0,1 km","value":104},"duration":{"text":"1 minute","value":76},"end_location":{"lat":48.8743906,"lng":2.3227511},"html_instructions":"Prendre la direction <b>ouest</b> sur <b>Boulevard Haussmann</b> vers <b>Rue Pasquier</b>","polyline":{"points":"cwhiHa}dMLDGd@_@nF"},"start_location":{"lat":48.874264,"lng":2.324166},"travel_mode":"WALKING"},{"distance":{"text":"49 m","value":49},"duration":{"text":"1 minute","value":41},"end_location":{"lat":48.8748221,"lng":2.3228933},"html_instructions":"Prendre <b>à droite</b> sur <b>Rue d'Anjou</b><div style=\"font-size:0.9em\">Votre destination se trouvera sur la gauche.</div>","maneuver":"turn-right","polyline":{"points":"}whiHetdMuA["},"start_location":{"lat":48.8743906,"lng":2.3227511},"travel_mode":"WALKING"}],"travel_mode":"WALKING"}],"traffic_speed_entry":[],"via_waypoint":[]}],"overview_polyline":{"points":"oljiHkqoM@v@@@P@CvBOdLI|DMAcBlNiEx]]|RCvTfLdKdJbEsEUnIfPaAtTjLpj@tH`SdCvKe@jQe@v\\hCtZvDjCjBpMLDg@tGuA["},"summary":"","warnings":["Le calcul d'itinéraires piétons est en bêta. Faites attention – Cet itinéraire n'est peut-être pas complètement aménagé pour les piétons."],"waypoint_order":[]},{"bounds":{"northeast":{"lat":48.8827989,"lng":2.3786229},"southwest":{"lat":48.8748221,"lng":2.3228933}},"copyrights":"Données cartographiques ©2016 Google","legs":[{"arrival_time":{"text":"10:53","time_zone":"Europe/Paris","value":1472720016},"departure_time":{"text":"10:18","time_zone":"Europe/Paris","value":1472717934},"distance":{"text":"4,6 km","value":4618},"duration":{"text":"35 minutes","value":2082},"end_address":"73 Rue d'Anjou, 75008 Paris, France","end_location":{"lat":48.8748221,"lng":2.3228933},"start_address":"26 Rue Armand Carrel, 75019 Paris, France","start_location":{"lat":48.8827989,"lng":2.3786229},"steps":[{"distance":{"text":"0,6 km","value":572},"duration":{"text":"7 minutes","value":426},"end_location":{"lat":48.880586,"lng":2.374147},"html_instructions":"Marcher jusqu'à Marche Secretan","polyline":{"points":"oljiHkqoM?@@F?j@?@?@@?P@CvBAZMhKv@fBRd@d@jAN^DJJRPVNRV\\TVlAxAT[JUJOx@aABARQJGEQ"},"start_location":{"lat":48.8827989,"lng":2.3786229},"steps":[{"distance":{"text":"32 m","value":32},"duration":{"text":"1 minute","value":25},"end_location":{"lat":48.8826922,"lng":2.3783185},"html_instructions":"Prendre la direction <b>ouest</b> vers <b>Rue Armand Carrel</b><div style=\"font-size:0.9em\">Voie à accès limité</div>","polyline":{"points":"oljiHkqoM?@@F?j@?@?@@?P@"},"start_location":{"lat":48.8827989,"lng":2.3786229},"travel_mode":"WALKING"},{"distance":{"text":"0,2 km","value":198},"duration":{"text":"2 minutes","value":137},"end_location":{"lat":48.8827855,"lng":2.3756094},"html_instructions":"Prendre <b>à droite</b> sur <b>Rue Armand Carrel</b>","maneuver":"turn-right","polyline":{"points":"ykjiHoooMCvBAZMhK"},"start_location":{"lat":48.8826922,"lng":2.3783185},"travel_mode":"WALKING"},{"distance":{"text":"0,2 km","value":244},"duration":{"text":"3 minutes","value":182},"end_location":{"lat":48.88125609999999,"lng":2.3732553},"html_instructions":"Prendre légèrement <b>à gauche</b> sur <b>Rue de Meaux</b>","maneuver":"turn-slight-left","polyline":{"points":"mljiHq~nMv@fBRd@d@jAN^DJJRPVNRV\\TVlAxA"},"start_location":{"lat":48.8827855,"lng":2.3756094},"travel_mode":"WALKING"},{"distance":{"text":"0,1 km","value":98},"duration":{"text":"1 minute","value":82},"end_location":{"lat":48.880586,"lng":2.374147},"html_instructions":"Prendre <b>à gauche</b> sur <b>Avenue Simon Bolivar</b><div style=\"font-size:0.9em\">Votre destination se trouvera sur la gauche.</div>","maneuver":"turn-left","polyline":{"points":"{bjiH{onMT[JUJOx@aABARQJGEQ"},"start_location":{"lat":48.88125609999999,"lng":2.3732553},"travel_mode":"WALKING"}],"travel_mode":"WALKING"},{"distance":{"text":"3,7 km","value":3699},"duration":{"text":"23 minutes","value":1380},"end_location":{"lat":48.875721,"lng":2.327204},"html_instructions":"Bus vers Gare Saint-Lazare","polyline":{"points":"u~iiHmunMwInR|Cxc@|C~Q`FxY{AlPaAtTrExTvEvTtH`SdCvKe@jQe@v\\hCtZ"},"start_location":{"lat":48.880586,"lng":2.374147},"transit_details":{"arrival_stop":{"location":{"lat":48.875721,"lng":2.327204},"name":"Gare Saint-Lazare - Budapest"},"arrival_time":{"text":"10:49","time_zone":"Europe/Paris","value":1472719740},"departure_stop":{"location":{"lat":48.880586,"lng":2.374147},"name":"Marche Secretan"},"departure_time":{"text":"10:26","time_zone":"Europe/Paris","value":1472718360},"headsign":"Gare Saint-Lazare","line":{"agencies":[{"name":"STIF","url":"http://www.vianavigo.com/"}],"color":"#e65100","short_name":"26","text_color":"#000000","vehicle":{"icon":"//maps.gstatic.com/mapfiles/transit/iw2/6/bus2.png","name":"Bus","type":"BUS"}},"num_stops":13},"travel_mode":"TRANSIT"},{"distance":{"text":"0,3 km","value":347},"duration":{"text":"5 minutes","value":276},"end_location":{"lat":48.8748221,"lng":2.3228933},"html_instructions":"Marcher jusqu'à 73 Rue d'Anjou, 75008 Paris, France","polyline":{"points":"g`iiH_peMTHF|ABxALtAX`EPpBLzAHjDRAf@HB@"},"start_location":{"lat":48.875721,"lng":2.327204},"steps":[{"distance":{"text":"67 m","value":67},"duration":{"text":"1 minute","value":58},"end_location":{"lat":48.8755459,"lng":2.3262331},"html_instructions":"Prendre la direction <b>ouest</b> sur <b>Place du Havre</b> vers <b>Rue du Havre</b>","polyline":{"points":"g`iiH_peMTHF|ABxA"},"start_location":{"lat":48.875721,"lng":2.327204},"travel_mode":"WALKING"},{"distance":{"text":"0,1 km","value":105},"duration":{"text":"1 minute","value":75},"end_location":{"lat":48.875347,"lng":2.3248275},"html_instructions":"Continuer sur <b>Rue Saint-Lazare</b>","polyline":{"points":"e_iiH}ieMLtAX`E"},"start_location":{"lat":48.8755459,"lng":2.3262331},"travel_mode":"WALKING"},{"distance":{"text":"0,1 km","value":140},"duration":{"text":"2 minutes","value":111},"end_location":{"lat":48.8751359,"lng":2.3229397},"html_instructions":"Continuer tout droit sur <b>Rue de la Pépinière</b>/<b>Place Gabriel Péri</b><div style=\"font-size:0.9em\">Continuer de suivre Rue de la Pépinière</div>","maneuver":"straight","polyline":{"points":"}}hiHeaeMPpBLzAHjD"},"start_location":{"lat":48.875347,"lng":2.3248275},"travel_mode":"WALKING"},{"distance":{"text":"35 m","value":35},"duration":{"text":"1 minute","value":32},"end_location":{"lat":48.8748221,"lng":2.3228933},"html_instructions":"Prendre <b>à gauche</b> sur <b>Rue d'Anjou</b><div style=\"font-size:0.9em\">Votre destination se trouvera sur la droite.</div>","maneuver":"turn-left","polyline":{"points":"s|hiHkudMRAf@HB@"},"start_location":{"lat":48.8751359,"lng":2.3229397},"travel_mode":"WALKING"}],"travel_mode":"WALKING"}],"traffic_speed_entry":[],"via_waypoint":[]}],"overview_polyline":{"points":"oljiHkqoM@v@@@P@CvBOdLjAlCfAjC`@j@l@t@lAxAT[Ve@|@cA^YEQwInR|Cxc@|C~Q`FxY{AlPaAtTrExTvEvTtH`SdCvKe@jQe@v\\hCtZTHF|ABxALtAj@rHLzAHjDRAf@HB@"},"summary":"","warnings":["Le calcul d'itinéraires piétons est en bêta. Faites attention – Cet itinéraire n'est peut-être pas complètement aménagé pour les piétons."],"waypoint_order":[]},{"bounds":{"northeast":{"lat":48.884589,"lng":2.3786229},"southwest":{"lat":48.8748221,"lng":2.3228933}},"copyrights":"Données cartographiques ©2016 Google","legs":[{"arrival_time":{"text":"10:40","time_zone":"Europe/Paris","value":1472719236},"departure_time":{"text":"10:01","time_zone":"Europe/Paris","value":1472716877},"distance":{"text":"4,8 km","value":4780},"duration":{"text":"39 minutes","value":2359},"end_address":"73 Rue d'Anjou, 75008 Paris, France","end_location":{"lat":48.8748221,"lng":2.3228933},"start_address":"26 Rue Armand Carrel, 75019 Paris, France","start_location":{"lat":48.8827989,"lng":2.3786229},"steps":[{"distance":{"text":"0,3 km","value":300},"duration":{"text":"4 minutes","value":223},"end_location":{"lat":48.88290500000001,"lng":2.374666},"html_instructions":"Marcher jusqu'à Rue de Meaux","polyline":{"points":"oljiHkqoM?@@F?j@?@?@@?P@CvBAZMhKGbDAXMA"},"start_location":{"lat":48.8827989,"lng":2.3786229},"steps":[{"distance":{"text":"32 m","value":32},"duration":{"text":"1 minute","value":25},"end_location":{"lat":48.8826922,"lng":2.3783185},"html_instructions":"Prendre la direction <b>ouest</b> vers <b>Rue Armand Carrel</b><div style=\"font-size:0.9em\">Voie à accès limité</div>","polyline":{"points":"oljiHkqoM?@@F?j@?@?@@?P@"},"start_location":{"lat":48.8827989,"lng":2.3786229},"travel_mode":"WALKING"},{"distance":{"text":"0,3 km","value":268},"duration":{"text":"3 minutes","value":198},"end_location":{"lat":48.88290500000001,"lng":2.374666},"html_instructions":"Prendre <b>à droite</b> sur <b>Rue Armand Carrel</b><div style=\"font-size:0.9em\">Votre destination se trouvera sur la droite.</div>","maneuver":"turn-right","polyline":{"points":"ykjiHoooMCvBAZMhKGbDAXMA"},"start_location":{"lat":48.8826922,"lng":2.3783185},"travel_mode":"WALKING"}],"travel_mode":"WALKING"},{"distance":{"text":"2,6 km","value":2572},"duration":{"text":"16 minutes","value":960},"end_location":{"lat":48.875891,"lng":2.348173},"html_instructions":"Bus vers Palais Royal - Musée du Louvre","polyline":{"points":"emjiHuxnMcBlNiEx]]|RCvTfLdKdJbEzBpOaAtTzLrNfMnD"},"start_location":{"lat":48.88290500000001,"lng":2.374666},"transit_details":{"arrival_stop":{"location":{"lat":48.875891,"lng":2.348173},"name":"Paradis"},"arrival_time":{"text":"10:21","time_zone":"Europe/Paris","value":1472718060},"departure_stop":{"location":{"lat":48.88290500000001,"lng":2.374666},"name":"Rue de Meaux"},"departure_time":{"text":"10:05","time_zone":"Europe/Paris","value":1472717100},"headsign":"Palais Royal - Musée du Louvre","line":{"agencies":[{"name":"STIF","url":"http://www.vianavigo.com/"}],"color":"#1565c0","short_name":"48","text_color":"#ffffff","vehicle":{"icon":"//maps.gstatic.com/mapfiles/transit/iw2/6/bus2.png","name":"Bus","type":"BUS"}},"num_stops":10},"travel_mode":"TRANSIT"},{"distance":{"text":"67 m","value":67},"duration":{"text":"1 minute","value":67},"end_location":{"lat":48.876206,"lng":2.347383},"html_instructions":"Marcher jusqu'à Square Montholon","polyline":{"points":"iaiiHasiM_A|C"},"start_location":{"lat":48.875891,"lng":2.348173},"steps":[{"distance":{"text":"67 m","value":67},"duration":{"text":"1 minute","value":67},"end_location":{"lat":48.876206,"lng":2.347383},"polyline":{"points":"iaiiHasiM_A|C"},"start_location":{"lat":48.875891,"lng":2.348173},"travel_mode":"WALKING"}],"travel_mode":"WALKING"},{"distance":{"text":"1,5 km","value":1494},"duration":{"text":"10 minutes","value":600},"end_location":{"lat":48.875721,"lng":2.327204},"html_instructions":"Bus vers Porte d'Auteuil","polyline":{"points":"iciiHcniMmAnSpBx\\e@jQYn^|B|X"},"start_location":{"lat":48.876206,"lng":2.347383},"transit_details":{"arrival_stop":{"location":{"lat":48.875721,"lng":2.327204},"name":"Gare Saint-Lazare - Budapest"},"arrival_time":{"text":"10:36","time_zone":"Europe/Paris","value":1472718960},"departure_stop":{"location":{"lat":48.876206,"lng":2.347383},"name":"Square Montholon"},"departure_time":{"text":"10:26","time_zone":"Europe/Paris","value":1472718360},"headsign":"Porte d'Auteuil","line":{"agencies":[{"name":"STIF","url":"http://www.vianavigo.com/"}],"color":"#6e6e00","short_name":"32","text_color":"#ffffff","vehicle":{"icon":"//maps.gstatic.com/mapfiles/transit/iw2/6/bus2.png","name":"Bus","type":"BUS"}},"num_stops":5},"travel_mode":"TRANSIT"},{"distance":{"text":"0,3 km","value":347},"duration":{"text":"5 minutes","value":276},"end_location":{"lat":48.8748221,"lng":2.3228933},"html_instructions":"Marcher jusqu'à 73 Rue d'Anjou, 75008 Paris, France","polyline":{"points":"g`iiH_peMTHF|ABxALtAX`EPpBLzAHjDRAf@HB@"},"start_location":{"lat":48.875721,"lng":2.327204},"steps":[{"distance":{"text":"67 m","value":67},"duration":{"text":"1 minute","value":58},"end_location":{"lat":48.8755459,"lng":2.3262331},"html_instructions":"Prendre la direction <b>ouest</b> sur <b>Place du Havre</b> vers <b>Rue du Havre</b>","polyline":{"points":"g`iiH_peMTHF|ABxA"},"start_location":{"lat":48.875721,"lng":2.327204},"travel_mode":"WALKING"},{"distance":{"text":"0,1 km","value":105},"duration":{"text":"1 minute","value":75},"end_location":{"lat":48.875347,"lng":2.3248275},"html_instructions":"Continuer sur <b>Rue Saint-Lazare</b>","polyline":{"points":"e_iiH}ieMLtAX`E"},"start_location":{"lat":48.8755459,"lng":2.3262331},"travel_mode":"WALKING"},{"distance":{"text":"0,1 km","value":140},"duration":{"text":"2 minutes","value":111},"end_location":{"lat":48.8751359,"lng":2.3229397},"html_instructions":"Continuer tout droit sur <b>Rue de la Pépinière</b>/<b>Place Gabriel Péri</b><div style=\"font-size:0.9em\">Continuer de suivre Rue de la Pépinière</div>","maneuver":"straight","polyline":{"points":"}}hiHeaeMPpBLzAHjD"},"start_location":{"lat":48.875347,"lng":2.3248275},"travel_mode":"WALKING"},{"distance":{"text":"35 m","value":35},"duration":{"text":"1 minute","value":32},"end_location":{"lat":48.8748221,"lng":2.3228933},"html_instructions":"Prendre <b>à gauche</b> sur <b>Rue d'Anjou</b><div style=\"font-size:0.9em\">Votre destination se trouvera sur la droite.</div>","maneuver":"turn-left","polyline":{"points":"s|hiHkudMRAf@HB@"},"start_location":{"lat":48.8751359,"lng":2.3229397},"travel_mode":"WALKING"}],"travel_mode":"WALKING"}],"traffic_speed_entry":[],"via_waypoint":[]}],"overview_polyline":{"points":"oljiHkqoM@v@@@P@CvBOdLI|DMAcBlNiEx]]|RCvTfLdKdJbEzBpOaAtTzLrNfMnD_A|CmAnSpBx\\e@jQYn^|B|XTHJvDfAdNHjDRAj@J"},"summary":"","warnings":["Le calcul d'itinéraires piétons est en bêta. Faites attention – Cet itinéraire n'est peut-être pas complètement aménagé pour les piétons."],"waypoint_order":[]}],"status":"OK"},"gobs":{"geocoded_waypoints":[{"geocoder_status":"OK","place_id":"ChIJmwkfG9tt5kcRxhrvtGwZNGM","types":["street_address"]},{"geocoder_status":"OK","place_id":"ChIJS8pekPJx5kcRxS0S3NXQsW4","types":["street_address"]}],"routes":[{"bounds":{"northeast":{"lat":48.884589,"lng":2.3786229},"southwest":{"lat":48.836921,"lng":2.33708}},"copyrights":"Données cartographiques ©2016 Google","legs":[{"arrival_time":{"text":"10:42","time_zone":"Europe/Paris","value":1472719344},"departure_time":{"text":"10:01","time_zone":"Europe/Paris","value":1472716877},"distance":{"text":"8,4 km","value":8417},"duration":{"text":"41 minutes","value":2467},"end_address":"73 Boulevard Saint-Marcel, 75005 Paris, France","end_location":{"lat":48.8377748,"lng":2.3548511},"start_address":"26 Rue Armand Carrel, 75019 Paris, France","start_location":{"lat":48.8827989,"lng":2.3786229},"steps":[{"distance":{"text":"0,3 km","value":300},"duration":{"text":"4 minutes","value":223},"end_location":{"lat":48.88290500000001,"lng":2.374666},"html_instructions":"Marcher jusqu'à Rue de Meaux","polyline":{"points":"oljiHkqoM?@@F?j@?@?@@?P@CvBAZMhKGbDAXMA"},"start_location":{"lat":48.8827989,"lng":2.3786229},"steps":[{"distance":{"text":"32 m","value":32},"duration":{"text":"1 minute","value":25},"end_location":{"lat":48.8826922,"lng":2.3783185},"html_instructions":"Prendre la direction <b>ouest</b> vers <b>Rue Armand Carrel</b><div style=\"font-size:0.9em\">Voie à accès limité</div>","polyline":{"points":"oljiHkqoM?@@F?j@?@?@@?P@"},"start_location":{"lat":48.8827989,"lng":2.3786229},"travel_mode":"WALKING"},{"distance":{"text":"0,3 km","value":268},"duration":{"text":"3 minutes","value":198},"end_location":{"lat":48.88290500000001,"lng":2.374666},"html_instructions":"Prendre <b>à droite</b> sur <b>Rue Armand Carrel</b><div style=\"font-size:0.9em\">Votre destination se trouvera sur la droite.</div>","maneuver":"turn-right","polyline":{"points":"ykjiHoooMCvBAZMhKGbDAXMA"},"start_location":{"lat":48.8826922,"lng":2.3783185},"travel_mode":"WALKING"}],"travel_mode":"WALKING"},{"distance":{"text":"1,5 km","value":1541},"duration":{"text":"8 minutes","value":480},"end_location":{"lat":48.88068,"lng":2.357672},"html_instructions":"Bus vers Palais Royal - Musée du Louvre","polyline":{"points":"emjiHuxnMcBlNiEx]]|RCvTfLdKdJbE"},"start_location":{"lat":48.88290500000001,"lng":2.374666},"transit_details":{"arrival_stop":{"location":{"lat":48.88068,"lng":2.357672},"name":"Gare du Nord"},"arrival_time":{"text":"10:13","time_zone":"Europe/Paris","value":1472717580},"departure_stop":{"location":{"lat":48.88290500000001,"lng":2.374666},"name":"Rue de Meaux"},"departure_time":{"text":"10:05","time_zone":"Europe/Paris","value":1472717100},"headsign":"Palais Royal - Musée du Louvre","line":{"agencies":[{"name":"STIF","url":"http://www.vianavigo.com/"}],"color":"#1565c0","short_name":"48","text_color":"#ffffff","vehicle":{"icon":"//maps.gstatic.com/mapfiles/transit/iw2/6/bus2.png","name":"Bus","type":"BUS"}},"num_stops":6},"travel_mode":"TRANSIT"},{"distance":{"text":"85 m","value":85},"duration":{"text":"1 minute","value":41},"end_location":{"lat":48.880769,"lng":2.357115},"html_instructions":"Marcher jusqu'à Gare du Nord","polyline":{"points":"g_jiHmnkMkA|@x@p@"},"start_location":{"lat":48.88068,"lng":2.357672},"steps":[{"distance":{"text":"48 m","value":48},"duration":{"text":"1 minute","value":24},"end_location":{"lat":48.881063,"lng":2.357358},"polyline":{"points":"g_jiHmnkMkA|@"},"start_location":{"lat":48.88068,"lng":2.357672},"travel_mode":"WALKING"},{"distance":{"text":"37 m","value":37},"duration":{"text":"1 minute","value":17},"end_location":{"lat":48.880769,"lng":2.357115},"polyline":{"points":"sajiHolkMx@p@"},"start_location":{"lat":48.881063,"lng":2.357358},"travel_mode":"WALKING"}],"travel_mode":"WALKING"},{"distance":{"text":"5,1 km","value":5051},"duration":{"text":"9 minutes","value":540},"end_location":{"lat":48.840034,"lng":2.337096},"html_instructions":"RER vers Gare de Massy Palaiseau","polyline":{"points":"y_jiH}jkM?ARHz@d@n@f@p@j@VZzC|D|AvBdB~BzAbCz@zAvArCR\\JRJTVd@JPJTb@v@NVLPPXf@n@Z^RTRP^\\^Z^VhAr@d@Zb@Vb@X`@Vx@h@`@V`Aj@b@X^TZT^Rb@XZRTNv@d@XP^Vb@Vh@Zn@`@h@\\hAt@f@ZfAp@z@b@t@`@^Nd@Pd@L^Fd@Fb@Bf@B`@Bf@?l@@n@A`@?b@Az@Ev@G~@GfAObHcBvKmDnHaCtB}@hCsAtB}@jA[|AQhAA`BPlAZ~@`@hAh@nAp@t@b@dAr@pAjAt@`A^f@`@n@t@xA?@rAjChBpDlAtBp@`AhAdAv@h@fAd@bA\\t@VpBx@rAp@~BnAnAr@~Az@nCtAxAr@lCjA|EtBjClApBz@hD|AvCpAtAp@PFVJRFxAZhBZ"},"start_location":{"lat":48.880769,"lng":2.357115},"transit_details":{"arrival_stop":{"location":{"lat":48.840034,"lng":2.337096},"name":"Port-Royal"},"arrival_time":{"text":"10:29","time_zone":"Europe/Paris","value":1472718540},"departure_stop":{"location":{"lat":48.880769,"lng":2.357115},"name":"Gare du Nord"},"departure_time":{"text":"10:20","time_zone":"Europe/Paris","value":1472718000},"headsign":"Gare de Massy Palaiseau","line":{"agencies":[{"name":"STIF","url":"http://www.vianavigo.com/"}],"color":"#5092c9","short_name":"RER B","text_color":"#ffffff","vehicle":{"icon":"//maps.gstatic.com/mapfiles/transit/iw2/6/rail2.png","local_icon":"//maps.gstatic.com/mapfiles/transit/iw2/6/fr-paris-rail.png","name":"RER","type":"COMMUTER_TRAIN"}},"num_stops":4},"travel_mode":"TRANSIT"},{"distance":{"text":"66 m","value":66},"duration":{"text":"1 minute","value":65},"end_location":{"lat":48.839439,"lng":2.337123},"html_instructions":"Marcher jusqu'à Observatoire - Port Royal","polyline":{"points":"eabiH{mgMx@Bz@G"},"start_location":{"lat":48.840034,"lng":2.337096},"steps":[{"distance":{"text":"32 m","value":32},"duration":{"text":"1 minute","value":31},"end_location":{"lat":48.839744,"lng":2.33708},"polyline":{"points":"eabiH{mgMx@B"},"start_location":{"lat":48.840034,"lng":2.337096},"travel_mode":"WALKING"},{"distance":{"text":"34 m","value":34},"duration":{"text":"1 minute","value":34},"end_location":{"lat":48.839439,"lng":2.337123},"polyline":{"points":"k_biHwmgMz@G"},"start_location":{"lat":48.839744,"lng":2.33708},"travel_mode":"WALKING"}],"travel_mode":"WALKING"},{"distance":{"text":"1,2 km","value":1175},"duration":{"text":"5 minutes","value":300},"end_location":{"lat":48.836921,"lng":2.352631},"html_instructions":"Bus vers Bastille","polyline":{"points":"o}aiH_ngMvDyUvDmZfCum@"},"start_location":{"lat":48.839439,"lng":2.337123},"transit_details":{"arrival_stop":{"location":{"lat":48.836921,"lng":2.352631},"name":"Les Gobelins"},"arrival_time":{"text":"10:40","time_zone":"Europe/Paris","value":1472719200},"departure_stop":{"location":{"lat":48.839439,"lng":2.337123},"name":"Observatoire - Port Royal"},"departure_time":{"text":"10:35","time_zone":"Europe/Paris","value":1472718900},"headsign":"Bastille","line":{"agencies":[{"name":"STIF","url":"http://www.vianavigo.com/"}],"color":"#dc9600","short_name":"91","text_color":"#000000","vehicle":{"icon":"//maps.gstatic.com/mapfiles/transit/iw2/6/bus2.png","name":"Bus","type":"BUS"}},"num_stops":3},"travel_mode":"TRANSIT"},{"distance":{"text":"0,2 km","value":199},"duration":{"text":"2 minutes","value":144},"end_location":{"lat":48.8377748,"lng":2.3548511},"html_instructions":"Marcher jusqu'à 73 Boulevard Saint-Marcel, 75005 Paris, France","polyline":{"points":"wmaiH}njMEBQ_AK[SJEWGWGYS}@WmAQ}@]{A"},"start_location":{"lat":48.836921,"lng":2.352631},"steps":[{"distance":{"text":"38 m","value":38},"duration":{"text":"1 minute","value":27},"end_location":{"lat":48.8371013,"lng":2.3530677},"html_instructions":"Prendre la direction <b>nord-est</b> vers <b>Rue Michel Peter</b>","polyline":{"points":"wmaiH}njMEBQ_AK["},"start_location":{"lat":48.836921,"lng":2.352631},"travel_mode":"WALKING"},{"distance":{"text":"11 m","value":11},"duration":{"text":"1 minute","value":8},"end_location":{"lat":48.8371962,"lng":2.3530073},"html_instructions":"Prendre <b>à gauche</b> sur <b>Rue Michel Peter</b>","maneuver":"turn-left","polyline":{"points":"{naiHuqjMSJ"},"start_location":{"lat":48.8371013,"lng":2.3530677},"travel_mode":"WALKING"},{"distance":{"text":"0,2 km","value":150},"duration":{"text":"2 minutes","value":109},"end_location":{"lat":48.8377748,"lng":2.3548511},"html_instructions":"Prendre <b>à droite</b> sur <b>Boulevard Saint-Marcel</b><div style=\"font-size:0.9em\">Votre destination se trouvera sur la droite.</div>","maneuver":"turn-right","polyline":{"points":"ooaiHiqjMEWGWGYS}@WmAQ}@]{A"},"start_location":{"lat":48.8371962,"lng":2.3530073},"travel_mode":"WALKING"}],"travel_mode":"WALKING"}],"traffic_speed_entry":[],"via_waypoint":[]}],"overview_polyline":{"points":"oljiHkqoM@v@@@P@CvBOdLI|DMAcBlNiEx]]|RCvTfLdKdJbEkA|@x@n@RHz@d@n@f@hAfAxFtHdB~BzAbCrCnF^p@z@bBrAzBbAnAf@f@~@x@hBjAnCdB`I`FpFfDjEpCfAp@z@b@tAp@jA^dANjAFhAB|A?dAArBM~@GfAObHcBvKmDnHaCtB}@hCsAtB}@jA[|AQhAA`BPlAZ~@`@xCzAzBvApAjAt@`A`AvAt@xArAlChBpDlAtBp@`AhAdAv@h@fAd@xBt@pBx@rAp@nEbCnFpCxAr@lCjA|EtB~PxHfBx@j@RbEv@x@Bz@GvDyUvDmZfCum@EB]{ASJEWOq@{AeH"},"summary":"","warnings":["Le calcul d'itinéraires piétons est en bêta. Faites attention – Cet itinéraire n'est peut-être pas complètement aménagé pour les piétons."],"waypoint_order":[]},{"bounds":{"northeast":{"lat":48.884589,"lng":2.3786229},"southwest":{"lat":48.836391,"lng":2.346003}},"copyrights":"Données cartographiques ©2016 Google","legs":[{"arrival_time":{"text":"10:51","time_zone":"Europe/Paris","value":1472719896},"departure_time":{"text":"10:01","time_zone":"Europe/Paris","value":1472716877},"distance":{"text":"7,5 km","value":7463},"duration":{"text":"50 minutes","value":3019},"end_address":"73 Boulevard Saint-Marcel, 75005 Paris, France","end_location":{"lat":48.8377748,"lng":2.3548511},"start_address":"26 Rue Armand Carrel, 75019 Paris, France","start_location":{"lat":48.8827989,"lng":2.3786229},"steps":[{"distance":{"text":"0,3 km","value":300},"duration":{"text":"4 minutes","value":223},"end_location":{"lat":48.88290500000001,"lng":2.374666},"html_instructions":"Marcher jusqu'à Rue de Meaux","polyline":{"points":"oljiHkqoM?@@F?j@?@?@@?P@CvBAZMhKGbDAXMA"},"start_location":{"lat":48.8827989,"lng":2.3786229},"steps":[{"distance":{"text":"32 m","value":32},"duration":{"text":"1 minute","value":25},"end_location":{"lat":48.8826922,"lng":2.3783185},"html_instructions":"Prendre la direction <b>ouest</b> vers <b>Rue Armand Carrel</b><div style=\"font-size:0.9em\">Voie à accès limité</div>","polyline":{"points":"oljiHkqoM?@@F?j@?@?@@?P@"},"start_location":{"lat":48.8827989,"lng":2.3786229},"travel_mode":"WALKING"},{"distance":{"text":"0,3 km","value":268},"duration":{"text":"3 minutes","value":198},"end_location":{"lat":48.88290500000001,"lng":2.374666},"html_instructions":"Prendre <b>à droite</b> sur <b>Rue Armand Carrel</b><div style=\"font-size:0.9em\">Votre destination se trouvera sur la droite.</div>","maneuver":"turn-right","polyline":{"points":"ykjiHoooMCvBAZMhKGbDAXMA"},"start_location":{"lat":48.8826922,"lng":2.3783185},"travel_mode":"WALKING"}],"travel_mode":"WALKING"},{"distance":{"text":"1,5 km","value":1541},"duration":{"text":"8 minutes","value":480},"end_location":{"lat":48.88068,"lng":2.357672},"html_instructions":"Bus vers Palais Royal - Musée du Louvre","polyline":{"points":"emjiHuxnMcBlNiEx]]|RCvTfLdKdJbE"},"start_location":{"lat":48.88290500000001,"lng":2.374666},"transit_details":{"arrival_stop":{"location":{"lat":48.88068,"lng":2.357672},"name":"Gare du Nord"},"arrival_time":{"text":"10:13","time_zone":"Europe/Paris","value":1472717580},"departure_stop":{"location":{"lat":48.88290500000001,"lng":2.374666},"name":"Rue de Meaux"},"departure_time":{"text":"10:05","time_zone":"Europe/Paris","value":1472717100},"headsign":"Palais Royal - Musée du Louvre","line":{"agencies":[{"name":"STIF","url":"http://www.vianavigo.com/"}],"color":"#1565c0","short_name":"48","text_color":"#ffffff","vehicle":{"icon":"//maps.gstatic.com/mapfiles/transit/iw2/6/bus2.png","name":"Bus","type":"BUS"}},"num_stops":6},"travel_mode":"TRANSIT"},{"distance":{"text":"0,5 km","value":529},"duration":{"text":"9 minutes","value":518},"end_location":{"lat":48.875935,"lng":2.358297},"html_instructions":"Marcher jusqu'à Gare de l'Est","polyline":{"points":"g_jiHmnkMr\\}B"},"start_location":{"lat":48.88068,"lng":2.357672},"steps":[{"distance":{"text":"0,5 km","value":529},"duration":{"text":"9 minutes","value":518},"end_location":{"lat":48.875935,"lng":2.358297},"polyline":{"points":"g_jiHmnkMr\\}B"},"start_location":{"lat":48.88068,"lng":2.357672},"travel_mode":"WALKING"}],"travel_mode":"WALKING"},{"distance":{"text":"4,8 km","value":4807},"duration":{"text":"25 minutes","value":1500},"end_location":{"lat":48.836391,"lng":2.351936},"html_instructions":"Bus vers Fort du Kremlin Bicêtre","polyline":{"points":"saiiHkrkMvJCbIrDzU|KnQvGjQw@pRtIdM`MfVzRjGvCjJ`AlFoS~RyMtOyA`O`AxKtExNwF"},"start_location":{"lat":48.875935,"lng":2.358297},"transit_details":{"arrival_stop":{"location":{"lat":48.836391,"lng":2.351936},"name":"Les Gobelins"},"arrival_time":{"text":"10:48","time_zone":"Europe/Paris","value":1472719680},"departure_stop":{"location":{"lat":48.875935,"lng":2.358297},"name":"Gare de l'Est"},"departure_time":{"text":"10:23","time_zone":"Europe/Paris","value":1472718180},"headsign":"Fort du Kremlin Bicêtre","line":{"agencies":[{"name":"STIF","url":"http://www.vianavigo.com/"}],"color":"#ff80ab","short_name":"47","text_color":"#000000","vehicle":{"icon":"//maps.gstatic.com/mapfiles/transit/iw2/6/bus2.png","name":"Bus","type":"BUS"}},"num_stops":16},"travel_mode":"TRANSIT"},{"distance":{"text":"0,3 km","value":286},"duration":{"text":"4 minutes","value":215},"end_location":{"lat":48.8377748,"lng":2.3548511},"html_instructions":"Marcher jusqu'à 73 Boulevard Saint-Marcel, 75005 Paris, France","polyline":{"points":"mjaiHsjjMI_@c@X[Ra@uAOUQw@S_AEWGWGYS}@WmAQ}@]{A"},"start_location":{"lat":48.836391,"lng":2.351936},"steps":[{"distance":{"text":"40 m","value":40},"duration":{"text":"1 minute","value":27},"end_location":{"lat":48.8367623,"lng":2.3518696},"html_instructions":"Prendre la direction <b>nord-ouest</b> sur <b>Avenue des Gobelins</b> vers <b>Boulevard Arago</b>","polyline":{"points":"mjaiHsjjMI_@c@X[R"},"start_location":{"lat":48.836391,"lng":2.351936},"travel_mode":"WALKING"},{"distance":{"text":"0,2 km","value":246},"duration":{"text":"3 minutes","value":188},"end_location":{"lat":48.8377748,"lng":2.3548511},"html_instructions":"Prendre <b>à droite</b> sur <b>Boulevard Saint-Marcel</b><div style=\"font-size:0.9em\">Votre destination se trouvera sur la droite.</div>","maneuver":"turn-right","polyline":{"points":"wlaiHejjMa@uAOUQw@S_AEWGWGYS}@WmAQ}@]{A"},"start_location":{"lat":48.8367623,"lng":2.3518696},"travel_mode":"WALKING"}],"travel_mode":"WALKING"}],"traffic_speed_entry":[],"via_waypoint":[]}],"overview_polyline":{"points":"oljiHkqoM@v@@@P@CvBOdLI|DMAcBlNiEx]]|RCvTfLdKdJbEr\\}BvJCbIrDzU|KnQvGjQw@pRtIdM`MfVzRjGvCjJ`AlFoS~RyMtOyA`O`AxKtExNwFI_@c@X[Ra@uAOUQw@YwA{@}Do@yC"},"summary":"","warnings":["Le calcul d'itinéraires piétons est en bêta. Faites attention – Cet itinéraire n'est peut-être pas complètement aménagé pour les piétons."],"waypoint_order":[]},{"bounds":{"northeast":{"lat":48.884589,"lng":2.3786229},"southwest":{"lat":48.836391,"lng":2.333868}},"copyrights":"Données cartographiques ©2016 Google","legs":[{"arrival_time":{"text":"10:59","time_zone":"Europe/Paris","value":1472720376},"departure_time":{"text":"10:01","time_zone":"Europe/Paris","value":1472716877},"distance":{"text":"9,2 km","value":9233},"duration":{"text":"58 minutes","value":3499},"end_address":"73 Boulevard Saint-Marcel, 75005 Paris, France","end_location":{"lat":48.8377748,"lng":2.3548511},"start_address":"26 Rue Armand Carrel, 75019 Paris, France","start_location":{"lat":48.8827989,"lng":2.3786229},"steps":[{"distance":{"text":"0,3 km","value":300},"duration":{"text":"4 minutes","value":223},"end_location":{"lat":48.88290500000001,"lng":2.374666},"html_instructions":"Marcher jusqu'à Rue de Meaux","polyline":{"points":"oljiHkqoM?@@F?j@?@?@@?P@CvBAZMhKGbDAXMA"},"start_location":{"lat":48.8827989,"lng":2.3786229},"steps":[{"distance":{"text":"32 m","value":32},"duration":{"text":"1 minute","value":25},"end_location":{"lat":48.8826922,"lng":2.3783185},"html_instructions":"Prendre la direction <b>ouest</b> vers <b>Rue Armand Carrel</b><div style=\"font-size:0.9em\">Voie à accès limité</div>","polyline":{"points":"oljiHkqoM?@@F?j@?@?@@?P@"},"start_location":{"lat":48.8827989,"lng":2.3786229},"travel_mode":"WALKING"},{"distance":{"text":"0,3 km","value":268},"duration":{"text":"3 minutes","value":198},"end_location":{"lat":48.88290500000001,"lng":2.374666},"html_instructions":"Prendre <b>à droite</b> sur <b>Rue Armand Carrel</b><div style=\"font-size:0.9em\">Votre destination se trouvera sur la droite.</div>","maneuver":"turn-right","polyline":{"points":"ykjiHoooMCvBAZMhKGbDAXMA"},"start_location":{"lat":48.8826922,"lng":2.3783185},"travel_mode":"WALKING"}],"travel_mode":"WALKING"},{"distance":{"text":"4,7 km","value":4658},"duration":{"text":"30 minutes","value":1800},"end_location":{"lat":48.863507,"lng":2.33557},"html_instructions":"Bus vers Palais Royal - Musée du Louvre","polyline":{"points":"emjiHuxnMcBlNiEx]]|RCvTfLdKdJbEzBpOaAtTzLrNfMnD`LdAlQ|@iCxXGnUfHlCjLzExZ~M"},"start_location":{"lat":48.88290500000001,"lng":2.374666},"transit_details":{"arrival_stop":{"location":{"lat":48.863507,"lng":2.33557},"name":"Palais Royal - Comedie Francaise"},"arrival_time":{"text":"10:35","time_zone":"Europe/Paris","value":1472718900},"departure_stop":{"location":{"lat":48.88290500000001,"lng":2.374666},"name":"Rue de Meaux"},"departure_time":{"text":"10:05","time_zone":"Europe/Paris","value":1472717100},"headsign":"Palais Royal - Musée du Louvre","line":{"agencies":[{"name":"STIF","url":"http://www.vianavigo.com/"}],"color":"#1565c0","short_name":"48","text_color":"#ffffff","vehicle":{"icon":"//maps.gstatic.com/mapfiles/transit/iw2/6/bus2.png","name":"Bus","type":"BUS"}},"num_stops":17},"travel_mode":"TRANSIT"},{"distance":{"text":"71 m","value":71},"duration":{"text":"1 minute","value":71},"end_location":{"lat":48.864037,"lng":2.335012},"html_instructions":"Marcher jusqu'à Palais Royal - Comedie Francaise","polyline":{"points":"}sfiHidgMiBnB"},"start_location":{"lat":48.863507,"lng":2.33557},"steps":[{"distance":{"text":"71 m","value":71},"duration":{"text":"1 minute","value":71},"end_location":{"lat":48.864037,"lng":2.335012},"polyline":{"points":"}sfiHidgMiBnB"},"start_location":{"lat":48.863507,"lng":2.33557},"travel_mode":"WALKING"}],"travel_mode":"WALKING"},{"distance":{"text":"3,9 km","value":3918},"duration":{"text":"19 minutes","value":1140},"end_location":{"lat":48.836391,"lng":2.351936},"html_instructions":"Bus vers Porte d'Ivry","polyline":{"points":"gwfiHy`gM~XbFdD_\\nAuN|KkAbKaOnLtAxOzGrTxFnN{FnLyEjIwR~GmVvLiJ"},"start_location":{"lat":48.864037,"lng":2.335012},"transit_details":{"arrival_stop":{"location":{"lat":48.836391,"lng":2.351936},"name":"Les Gobelins"},"arrival_time":{"text":"10:56","time_zone":"Europe/Paris","value":1472720160},"departure_stop":{"location":{"lat":48.864037,"lng":2.335012},"name":"Palais Royal - Comedie Francaise"},"departure_time":{"text":"10:37","time_zone":"Europe/Paris","value":1472719020},"headsign":"Porte d'Ivry","line":{"agencies":[{"name":"STIF","url":"http://www.vianavigo.com/"}],"color":"#e65100","short_name":"27","text_color":"#000000","vehicle":{"icon":"//maps.gstatic.com/mapfiles/transit/iw2/6/bus2.png","name":"Bus","type":"BUS"}},"num_stops":13},"travel_mode":"TRANSIT"},{"distance":{"text":"0,3 km","value":286},"duration":{"text":"4 minutes","value":215},"end_location":{"lat":48.8377748,"lng":2.3548511},"html_instructions":"Marcher jusqu'à 73 Boulevard Saint-Marcel, 75005 Paris, France","polyline":{"points":"mjaiHsjjMI_@c@X[Ra@uAOUQw@S_AEWGWGYS}@WmAQ}@]{A"},"start_location":{"lat":48.836391,"lng":2.351936},"steps":[{"distance":{"text":"40 m","value":40},"duration":{"text":"1 minute","value":27},"end_location":{"lat":48.8367623,"lng":2.3518696},"html_instructions":"Prendre la direction <b>nord-ouest</b> sur <b>Avenue des Gobelins</b> vers <b>Boulevard Arago</b>","polyline":{"points":"mjaiHsjjMI_@c@X[R"},"start_location":{"lat":48.836391,"lng":2.351936},"travel_mode":"WALKING"},{"distance":{"text":"0,2 km","value":246},"duration":{"text":"3 minutes","value":188},"end_location":{"lat":48.8377748,"lng":2.3548511},"html_instructions":"Prendre <b>à droite</b> sur <b>Boulevard Saint-Marcel</b><div style=\"font-size:0.9em\">Votre destination se trouvera sur la droite.</div>","maneuver":"turn-right","polyline":{"points":"wlaiHejjMa@uAOUQw@S_AEWGWGYS}@WmAQ}@]{A"},"start_location":{"lat":48.8367623,"lng":2.3518696},"travel_mode":"WALKING"}],"travel_mode":"WALKING"}],"traffic_speed_entry":[],"via_waypoint":[]}],"overview_polyline":{"points":"oljiHkqoM@v@@@P@CvBOdLI|DMAcBlNiEx]]|RCvTfLdKdJbEzBpOaAtTzLrNfMnD`LdAlQ|@iCxXGnUfHlCjLzExZ~MiBnB~XbFdD_\\nAuN|KkAbKaOnLtAxOzGrTxFnN{FnLyEjIwR~GmVvLiJI_@c@X[Ra@uAOUQw@YwA{@}Do@yC"},"summary":"","warnings":["Le calcul d'itinéraires piétons est en bêta. Faites attention – Cet itinéraire n'est peut-être pas complètement aménagé pour les piétons."],"waypoint_order":[]},{"bounds":{"northeast":{"lat":48.8827989,"lng":2.3822923},"southwest":{"lat":48.836391,"lng":2.346003}},"copyrights":"Données cartographiques ©2016 Google","legs":[{"arrival_time":{"text":"11:03","time_zone":"Europe/Paris","value":1472720616},"departure_time":{"text":"10:10","time_zone":"Europe/Paris","value":1472717424},"distance":{"text":"7,4 km","value":7398},"duration":{"text":"53 minutes","value":3192},"end_address":"73 Boulevard Saint-Marcel, 75005 Paris, France","end_location":{"lat":48.8377748,"lng":2.3548511},"start_address":"26 Rue Armand Carrel, 75019 Paris, France","start_location":{"lat":48.8827989,"lng":2.3786229},"steps":[{"distance":{"text":"0,3 km","value":346},"duration":{"text":"5 minutes","value":276},"end_location":{"lat":48.882408,"lng":2.382242},"html_instructions":"Marcher jusqu'à Armand Carrel - Mairie du 19e","polyline":{"points":"oljiHkqoM?@@F?j@?@?@@?P@@}ADmBHcENuGv@o@[cAEH"},"start_location":{"lat":48.8827989,"lng":2.3786229},"steps":[{"distance":{"text":"32 m","value":32},"duration":{"text":"1 minute","value":25},"end_location":{"lat":48.8826922,"lng":2.3783185},"html_instructions":"Prendre la direction <b>ouest</b> vers <b>Rue Armand Carrel</b><div style=\"font-size:0.9em\">Voie à accès limité</div>","polyline":{"points":"oljiHkqoM?@@F?j@?@?@@?P@"},"start_location":{"lat":48.8827989,"lng":2.3786229},"travel_mode":"WALKING"},{"distance":{"text":"0,2 km","value":249},"duration":{"text":"3 minutes","value":197},"end_location":{"lat":48.8825242,"lng":2.3817087},"html_instructions":"Prendre <b>à gauche</b> sur <b>Rue Armand Carrel</b>","maneuver":"turn-left","polyline":{"points":"ykjiHoooM@}ADmBHcENuG"},"start_location":{"lat":48.8826922,"lng":2.3783185},"travel_mode":"WALKING"},{"distance":{"text":"36 m","value":36},"duration":{"text":"1 minute","value":28},"end_location":{"lat":48.8822419,"lng":2.3819503},"html_instructions":"Prendre <b>à droite</b> sur <b>Place Armand Carrel</b>","maneuver":"turn-right","polyline":{"points":"wjjiHudpMv@o@"},"start_location":{"lat":48.8825242,"lng":2.3817087},"travel_mode":"WALKING"},{"distance":{"text":"29 m","value":29},"duration":{"text":"1 minute","value":26},"end_location":{"lat":48.882408,"lng":2.382242},"html_instructions":"Prendre <b>à gauche</b> sur <b>Rue Manin</b><div style=\"font-size:0.9em\">Votre destination se trouvera sur la gauche.</div>","maneuver":"turn-left","polyline":{"points":"_ijiHefpM[cAEH"},"start_location":{"lat":48.8822419,"lng":2.3819503},"travel_mode":"WALKING"}],"travel_mode":"WALKING"},{"distance":{"text":"3,5 km","value":3466},"duration":{"text":"23 minutes","value":1380},"end_location":{"lat":48.862877,"lng":2.354232},"html_instructions":"Bus vers Pont Neuf","polyline":{"points":"ajjiH_hpMrL~PlGdH~AlX\\lQfP|JpMaE~ILjHmBvDhOzDzVtFfMdE|ZjQvQ"},"start_location":{"lat":48.882408,"lng":2.382242},"transit_details":{"arrival_stop":{"location":{"lat":48.862877,"lng":2.354232},"name":"Grenier Saint-Lazare - Quartier de l'Horloge"},"arrival_time":{"text":"10:38","time_zone":"Europe/Paris","value":1472719080},"departure_stop":{"location":{"lat":48.882408,"lng":2.382242},"name":"Armand Carrel - Mairie du 19e"},"departure_time":{"text":"10:15","time_zone":"Europe/Paris","value":1472717700},"headsign":"Pont Neuf","line":{"agencies":[{"name":"STIF","url":"http://www.vianavigo.com/"}],"color":"#ffb300","short_name":"75","text_color":"#000000","vehicle":{"icon":"//maps.gstatic.com/mapfiles/transit/iw2/6/bus2.png","name":"Bus","type":"BUS"}},"num_stops":13},"travel_mode":"TRANSIT"},{"distance":{"text":"3,3 km","value":3300},"duration":{"text":"17 minutes","value":1020},"end_location":{"lat":48.836391,"lng":2.351936},"html_instructions":"Bus vers Fort du Kremlin Bicêtre","polyline":{"points":"_pfiH}xjMpRtIdM`MfVzRjGvCjJ`AlFoS~RyMtOyA`O`AxKtExNwF"},"start_location":{"lat":48.862877,"lng":2.354232},"transit_details":{"arrival_stop":{"location":{"lat":48.836391,"lng":2.351936},"name":"Les Gobelins"},"arrival_time":{"text":"11:00","time_zone":"Europe/Paris","value":1472720400},"departure_stop":{"location":{"lat":48.862877,"lng":2.354232},"name":"Grenier Saint-Lazare - Quartier de l'Horloge"},"departure_time":{"text":"10:43","time_zone":"Europe/Paris","value":1472719380},"headsign":"Fort du Kremlin Bicêtre","line":{"agencies":[{"name":"STIF","url":"http://www.vianavigo.com/"}],"color":"#ff80ab","short_name":"47","text_color":"#000000","vehicle":{"icon":"//maps.gstatic.com/mapfiles/transit/iw2/6/bus2.png","name":"Bus","type":"BUS"}},"num_stops":11},"travel_mode":"TRANSIT"},{"distance":{"text":"0,3 km","value":286},"duration":{"text":"4 minutes","value":215},"end_location":{"lat":48.8377748,"lng":2.3548511},"html_instructions":"Marcher jusqu'à 73 Boulevard Saint-Marcel, 75005 Paris, France","polyline":{"points":"mjaiHsjjMI_@c@X[Ra@uAOUQw@S_AEWGWGYS}@WmAQ}@]{A"},"start_location":{"lat":48.836391,"lng":2.351936},"steps":[{"distance":{"text":"40 m","value":40},"duration":{"text":"1 minute","value":27},"end_location":{"lat":48.8367623,"lng":2.3518696},"html_instructions":"Prendre la direction <b>nord-ouest</b> sur <b>Avenue des Gobelins</b> vers <b>Boulevard Arago</b>","polyline":{"points":"mjaiHsjjMI_@c@X[R"},"start_location":{"lat":48.836391,"lng":2.351936},"travel_mode":"WALKING"},{"distance":{"text":"0,2 km","value":246},"duration":{"text":"3 minutes","value":188},"end_location":{"lat":48.8377748,"lng":2.3548511},"html_instructions":"Prendre <b>à droite</b> sur <b>Boulevard Saint-Marcel</b><div style=\"font-size:0.9em\">Votre destination se trouvera sur la droite.</div>","maneuver":"turn-right","polyline":{"points":"wlaiHejjMa@uAOUQw@S_AEWGWGYS}@WmAQ}@]{A"},"start_location":{"lat":48.8367623,"lng":2.3518696},"travel_mode":"WALKING"}],"travel_mode":"WALKING"}],"traffic_speed_entry":[],"via_waypoint":[]}],"overview_polyline":{"points":"oljiHkqoM@v@@@P@@}ANqHNuGv@o@[cAEHrL~PlGdH~AlX\\lQfP|JpMaE~ILjHmBvDhOzDzVtFfMdE|ZjQvQpRtIdM`MfVzRjGvCjJ`AlFoS~RyMtOyA`O`AxKtExNwFI_@c@X[Ra@uAOUQw@YwAOq@{AeH"},"summary":"","warnings":["Le calcul d'itinéraires piétons est en bêta. Faites attention – Cet itinéraire n'est peut-être pas complètement aménagé pour les piétons."],"waypoint_order":[]}],"status":"OK"}},null,{"origin":{"lat":2.3886670815280517,"lng":48.85773756817457},"taff":{"geocoded_waypoints":[{"geocoder_status":"OK","place_id":"EiczLTUgSW1wYXNzZSBMYW1pZXIsIDc1MDExIFBhcmlzLCBGcmFuY2U","types":["route","street_address"]},{"geocoder_status":"OK","place_id":"ChIJc5sm28pv5kcR0cpsawDOfSg","types":["street_address"]}],"routes":[{"bounds":{"northeast":{"lat":48.8752566,"lng":2.388925},"southwest":{"lat":48.8561923,"lng":2.3228933}},"copyrights":"Données cartographiques ©2016 Google","legs":[{"arrival_time":{"text":"10:43","time_zone":"Europe/Paris","value":1472719380},"departure_time":{"text":"10:00","time_zone":"Europe/Paris","value":1472716836},"distance":{"text":"5,8 km","value":5763},"duration":{"text":"42 minutes","value":2544},"end_address":"73 Rue d'Anjou, 75008 Paris, France","end_location":{"lat":48.8748221,"lng":2.3228933},"start_address":"3-5 Impasse Lamier, 75011 Paris, France","start_location":{"lat":48.8577971,"lng":2.388925},"steps":[{"distance":{"text":"0,6 km","value":584},"duration":{"text":"6 minutes","value":384},"end_location":{"lat":48.856344,"lng":2.382792},"html_instructions":"Marcher jusqu'à Gymnase Japy","polyline":{"points":"gpeiHwqqM{An@RlBVjBd@S@AB?@A@?B?@?B@@@@@?B@@@B`@`CBP\\~B`@`CT|AFXFTpCzJPb@OVMS"},"start_location":{"lat":48.8577971,"lng":2.388925},"steps":[{"distance":{"text":"55 m","value":55},"duration":{"text":"1 minute","value":40},"end_location":{"lat":48.858263,"lng":2.3886768},"html_instructions":"Prendre la direction <b>nord</b> sur <b>Impasse Lamier</b> vers <b>Rue de Mont-Louis</b>","polyline":{"points":"gpeiHwqqM{An@"},"start_location":{"lat":48.8577971,"lng":2.388925},"travel_mode":"WALKING"},{"distance":{"text":"83 m","value":83},"duration":{"text":"1 minute","value":53},"end_location":{"lat":48.8580437,"lng":2.3875914},"html_instructions":"Prendre <b>à gauche</b> sur <b>Rue de Mont-Louis</b>","maneuver":"turn-left","polyline":{"points":"cseiHgpqMRlBVjB"},"start_location":{"lat":48.858263,"lng":2.3886768},"travel_mode":"WALKING"},{"distance":{"text":"0,2 km","value":236},"duration":{"text":"3 minutes","value":153},"end_location":{"lat":48.8570859,"lng":2.3851291},"html_instructions":"Prendre <b>à gauche</b> sur <b>Rue de la Folie-Regnault</b>","maneuver":"turn-left","polyline":{"points":"wqeiHmiqMd@S@AB?@A@?B?@?B@@@@@?B@@@B`@`CBP\\~B`@`CT|A"},"start_location":{"lat":48.8580437,"lng":2.3875914},"travel_mode":"WALKING"},{"distance":{"text":"0,2 km","value":197},"duration":{"text":"2 minutes","value":129},"end_location":{"lat":48.8561923,"lng":2.3828144},"html_instructions":"Continuer sur <b>Rue de Belfort</b>","polyline":{"points":"ykeiHazpMFXFTpCzJPb@"},"start_location":{"lat":48.8570859,"lng":2.3851291},"travel_mode":"WALKING"},{"distance":{"text":"13 m","value":13},"duration":{"text":"1 minute","value":9},"end_location":{"lat":48.856344,"lng":2.382792},"html_instructions":"Prendre <b>à droite</b> sur <b>Boulevard Voltaire</b><div style=\"font-size:0.9em\">Votre destination se trouvera sur la droite.</div>","maneuver":"turn-right","polyline":{"points":"efeiHqkpMOVMS"},"start_location":{"lat":48.8561923,"lng":2.3828144},"travel_mode":"WALKING"}],"travel_mode":"WALKING"},{"distance":{"text":"1,7 km","value":1670},"duration":{"text":"10 minutes","value":600},"end_location":{"lat":48.866433,"lng":2.365867},"html_instructions":"Bus vers Porte de Clignancourt","polyline":{"points":"cgeiHmkpMwIrPaKpSeGtLsMrWuIzPwEjJ"},"start_location":{"lat":48.856344,"lng":2.382792},"transit_details":{"arrival_stop":{"location":{"lat":48.866433,"lng":2.365867},"name":"République - Voltaire"},"arrival_time":{"text":"10:17","time_zone":"Europe/Paris","value":1472717820},"departure_stop":{"location":{"lat":48.856344,"lng":2.382792},"name":"Gymnase Japy"},"departure_time":{"text":"10:07","time_zone":"Europe/Paris","value":1472717220},"headsign":"Porte de Clignancourt","line":{"agencies":[{"name":"STIF","url":"http://www.vianavigo.com/"}],"color":"#a0006e","short_name":"56","text_color":"#ffffff","vehicle":{"icon":"//maps.gstatic.com/mapfiles/transit/iw2/6/bus2.png","name":"Bus","type":"BUS"}},"num_stops":6},"travel_mode":"TRANSIT"},{"distance":{"text":"66 m","value":66},"duration":{"text":"1 minute","value":66},"end_location":{"lat":48.866128,"lng":2.365091},"html_instructions":"Marcher jusqu'à République - Temple","polyline":{"points":"efgiHuamMz@zC"},"start_location":{"lat":48.866433,"lng":2.365867},"steps":[{"distance":{"text":"66 m","value":66},"duration":{"text":"1 minute","value":66},"end_location":{"lat":48.866128,"lng":2.365091},"polyline":{"points":"efgiHuamMz@zC"},"start_location":{"lat":48.866433,"lng":2.365867},"travel_mode":"WALKING"}],"travel_mode":"WALKING"},{"distance":{"text":"3,2 km","value":3209},"duration":{"text":"21 minutes","value":1260},"end_location":{"lat":48.874624,"lng":2.325256},"html_instructions":"Bus vers Gare Saint-Lazare","polyline":{"points":"idgiHy|lMwKjTgDja@_BlNoGte@iCxXsAvXhBzQjB|ReGvQgGtM{EfN"},"start_location":{"lat":48.866128,"lng":2.365091},"transit_details":{"arrival_stop":{"location":{"lat":48.874624,"lng":2.325256},"name":"Gare Saint-Lazare"},"arrival_time":{"text":"10:40","time_zone":"Europe/Paris","value":1472719200},"departure_stop":{"location":{"lat":48.866128,"lng":2.365091},"name":"République - Temple"},"departure_time":{"text":"10:19","time_zone":"Europe/Paris","value":1472717940},"headsign":"Gare Saint-Lazare","line":{"agencies":[{"name":"STIF","url":"http://www.vianavigo.com/"}],"color":"#e65100","short_name":"20","text_color":"#000000","vehicle":{"icon":"//maps.gstatic.com/mapfiles/transit/iw2/6/bus2.png","name":"Bus","type":"BUS"}},"num_stops":11},"travel_mode":"TRANSIT"},{"distance":{"text":"0,2 km","value":234},"duration":{"text":"3 minutes","value":180},"end_location":{"lat":48.8748221,"lng":2.3228933},"html_instructions":"Marcher jusqu'à 73 Rue d'Anjou, 75008 Paris, France","polyline":{"points":"kyhiH{ceMFNi@x@g@|@MNg@n@LzAHjDRAf@HB@"},"start_location":{"lat":48.874624,"lng":2.325256},"steps":[{"distance":{"text":"0,1 km","value":101},"duration":{"text":"1 minute","value":73},"end_location":{"lat":48.8752566,"lng":2.3242588},"html_instructions":"Prendre la direction <b>nord-ouest</b> sur <b>Rue de Rome</b> vers <b>Rue de l'Isly</b>","polyline":{"points":"kyhiH{ceMFNi@x@g@|@MNg@n@"},"start_location":{"lat":48.874624,"lng":2.325256},"travel_mode":"WALKING"},{"distance":{"text":"0,1 km","value":98},"duration":{"text":"1 minute","value":75},"end_location":{"lat":48.8751359,"lng":2.3229397},"html_instructions":"Prendre <b>à gauche</b> sur <b>Rue de la Pépinière</b>/<b>Place Gabriel Péri</b><div style=\"font-size:0.9em\">Continuer de suivre Rue de la Pépinière</div>","maneuver":"turn-left","polyline":{"points":"k}hiHs}dMLzAHjD"},"start_location":{"lat":48.8752566,"lng":2.3242588},"travel_mode":"WALKING"},{"distance":{"text":"35 m","value":35},"duration":{"text":"1 minute","value":32},"end_location":{"lat":48.8748221,"lng":2.3228933},"html_instructions":"Prendre <b>à gauche</b> sur <b>Rue d'Anjou</b><div style=\"font-size:0.9em\">Votre destination se trouvera sur la droite.</div>","maneuver":"turn-left","polyline":{"points":"s|hiHkudMRAf@HB@"},"start_location":{"lat":48.8751359,"lng":2.3229397},"travel_mode":"WALKING"}],"travel_mode":"WALKING"}],"traffic_speed_entry":[],"via_waypoint":[]}],"overview_polyline":{"points":"gpeiHwqqM{An@RlBVjBd@SDABAJBDJdBtK\\vBxCpKPb@OVMSwIrPaKpSeGtLiXni@wEjJz@zCwKjTgDja@_BlNoGte@iCxXsAvXtExe@eGvQgGtM{EfNFNqAvBu@~@LzAHjDRAf@HB@"},"summary":"","warnings":["Le calcul d'itinéraires piétons est en bêta. Faites attention – Cet itinéraire n'est peut-être pas complètement aménagé pour les piétons."],"waypoint_order":[]},{"bounds":{"northeast":{"lat":48.875442,"lng":2.388925},"southwest":{"lat":48.853374,"lng":2.32026}},"copyrights":"Données cartographiques ©2016 Google","legs":[{"arrival_time":{"text":"10:52","time_zone":"Europe/Paris","value":1472719979},"departure_time":{"text":"10:08","time_zone":"Europe/Paris","value":1472717338},"distance":{"text":"8,1 km","value":8063},"duration":{"text":"44 minutes","value":2641},"end_address":"73 Rue d'Anjou, 75008 Paris, France","end_location":{"lat":48.8748221,"lng":2.3228933},"start_address":"3-5 Impasse Lamier, 75011 Paris, France","start_location":{"lat":48.8577971,"lng":2.388925},"steps":[{"distance":{"text":"0,3 km","value":332},"duration":{"text":"4 minutes","value":242},"end_location":{"lat":48.859659,"lng":2.386568},"html_instructions":"Marcher jusqu'à Roquette - Père Lachaise","polyline":{"points":"gpeiHwqqM{An@RlBVjBwAp@oAl@}At@aAb@BP"},"start_location":{"lat":48.8577971,"lng":2.388925},"steps":[{"distance":{"text":"55 m","value":55},"duration":{"text":"1 minute","value":40},"end_location":{"lat":48.858263,"lng":2.3886768},"html_instructions":"Prendre la direction <b>nord</b> sur <b>Impasse Lamier</b> vers <b>Rue de Mont-Louis</b>","polyline":{"points":"gpeiHwqqM{An@"},"start_location":{"lat":48.8577971,"lng":2.388925},"travel_mode":"WALKING"},{"distance":{"text":"83 m","value":83},"duration":{"text":"1 minute","value":53},"end_location":{"lat":48.8580437,"lng":2.3875914},"html_instructions":"Prendre <b>à gauche</b> sur <b>Rue de Mont-Louis</b>","maneuver":"turn-left","polyline":{"points":"cseiHgpqMRlBVjB"},"start_location":{"lat":48.858263,"lng":2.3886768},"travel_mode":"WALKING"},{"distance":{"text":"0,2 km","value":194},"duration":{"text":"2 minutes","value":149},"end_location":{"lat":48.859659,"lng":2.386568},"html_instructions":"Prendre <b>à droite</b> sur <b>Rue de la Folie-Regnault</b><div style=\"font-size:0.9em\">Votre destination se trouvera sur la gauche.</div>","maneuver":"turn-right","polyline":{"points":"wqeiHmiqMwAp@oAl@}At@aAb@BP"},"start_location":{"lat":48.8580437,"lng":2.3875914},"travel_mode":"WALKING"}],"travel_mode":"WALKING"},{"distance":{"text":"5,3 km","value":5301},"duration":{"text":"23 minutes","value":1380},"end_location":{"lat":48.85991199999999,"lng":2.32861},"html_instructions":"Bus vers Champ de Mars","polyline":{"points":"{{eiHacqMnCnIhDbXgKnSxDhQ`FvSxDxPpIJnKUcBzRqGzWoFv^eDxTcFtWsGtYiGlXcH|ZfIdNvKtKiErQ"},"start_location":{"lat":48.859659,"lng":2.386568},"transit_details":{"arrival_stop":{"location":{"lat":48.85991199999999,"lng":2.32861},"name":"Pont Royal - Quai Voltaire"},"arrival_time":{"text":"10:36","time_zone":"Europe/Paris","value":1472718960},"departure_stop":{"location":{"lat":48.859659,"lng":2.386568},"name":"Roquette - Père Lachaise"},"departure_time":{"text":"10:13","time_zone":"Europe/Paris","value":1472717580},"headsign":"Champ de Mars","line":{"agencies":[{"name":"STIF","url":"http://www.vianavigo.com/"}],"color":"#80deea","short_name":"69","text_color":"#000000","vehicle":{"icon":"//maps.gstatic.com/mapfiles/transit/iw2/6/bus2.png","name":"Bus","type":"BUS"}},"num_stops":19},"travel_mode":"TRANSIT"},{"distance":{"text":"2,3 km","value":2286},"duration":{"text":"10 minutes","value":600},"end_location":{"lat":48.875442,"lng":2.324207},"html_instructions":"Bus vers Gare Saint-Lazare","polyline":{"points":"m}eiHyxeMuIb_@wD`SgZ_LcR}QkSqH{LxO"},"start_location":{"lat":48.85991199999999,"lng":2.32861},"transit_details":{"arrival_stop":{"location":{"lat":48.875442,"lng":2.324207},"name":"Gare Saint-Lazare"},"arrival_time":{"text":"10:51","time_zone":"Europe/Paris","value":1472719860},"departure_stop":{"location":{"lat":48.85991199999999,"lng":2.32861},"name":"Pont Royal - Quai Voltaire"},"departure_time":{"text":"10:41","time_zone":"Europe/Paris","value":1472719260},"headsign":"Gare Saint-Lazare","line":{"agencies":[{"name":"STIF","url":"http://www.vianavigo.com/"}],"color":"#a0006e","short_name":"24","text_color":"#ffffff","vehicle":{"icon":"//maps.gstatic.com/mapfiles/transit/iw2/6/bus2.png","name":"Bus","type":"BUS"}},"num_stops":6},"travel_mode":"TRANSIT"},{"distance":{"text":"0,1 km","value":144},"duration":{"text":"2 minutes","value":118},"end_location":{"lat":48.8748221,"lng":2.3228933},"html_instructions":"Marcher jusqu'à 73 Rue d'Anjou, 75008 Paris, France","polyline":{"points":"o~hiHi}dMFRLMHbAPFHjDRAf@HB@"},"start_location":{"lat":48.875442,"lng":2.324207},"steps":[{"distance":{"text":"10 m","value":10},"duration":{"text":"1 minute","value":6},"end_location":{"lat":48.8753272,"lng":2.3241783},"html_instructions":"Prendre la direction <b>sud-est</b> sur <b>Rue de Rome</b>","polyline":{"points":"o~hiHi}dMFRLM"},"start_location":{"lat":48.875442,"lng":2.324207},"travel_mode":"WALKING"},{"distance":{"text":"25 m","value":25},"duration":{"text":"1 minute","value":23},"end_location":{"lat":48.8752837,"lng":2.3238394},"html_instructions":"Tourner à <b>droite</b> vers <b>Rue de la Pépinière</b>","maneuver":"turn-right","polyline":{"points":"y}hiHc}dMHbA"},"start_location":{"lat":48.8753272,"lng":2.3241783},"travel_mode":"WALKING"},{"distance":{"text":"11 m","value":11},"duration":{"text":"1 minute","value":7},"end_location":{"lat":48.875186,"lng":2.3238002},"html_instructions":"Tourner à <b>gauche</b> vers <b>Rue de la Pépinière</b>","maneuver":"turn-left","polyline":{"points":"o}hiH_{dMPF"},"start_location":{"lat":48.8752837,"lng":2.3238394},"travel_mode":"WALKING"},{"distance":{"text":"63 m","value":63},"duration":{"text":"1 minute","value":50},"end_location":{"lat":48.8751359,"lng":2.3229397},"html_instructions":"Prendre <b>à droite</b> sur <b>Rue de la Pépinière</b>","maneuver":"turn-right","polyline":{"points":"}|hiHwzdMHjD"},"start_location":{"lat":48.875186,"lng":2.3238002},"travel_mode":"WALKING"},{"distance":{"text":"35 m","value":35},"duration":{"text":"1 minute","value":32},"end_location":{"lat":48.8748221,"lng":2.3228933},"html_instructions":"Prendre <b>à gauche</b> sur <b>Rue d'Anjou</b><div style=\"font-size:0.9em\">Votre destination se trouvera sur la droite.</div>","maneuver":"turn-left","polyline":{"points":"s|hiHkudMRAf@HB@"},"start_location":{"lat":48.8751359,"lng":2.3229397},"travel_mode":"WALKING"}],"travel_mode":"WALKING"}],"traffic_speed_entry":[],"via_waypoint":[]}],"overview_polyline":{"points":"gpeiHwqqM{An@RlBVjBwAp@mDbBaAb@BPnCnIhDbXgKnSxDhQ`FvSxDxPpIJnKUcBzRqGzWuKpt@cFtWsGtYmPjt@fIdNvKtK_Pvq@wD`SgZ_LcR}QkSqH{LxOFRLMHbAPFHjDRAf@HB@"},"summary":"","warnings":["Le calcul d'itinéraires piétons est en bêta. Faites attention – Cet itinéraire n'est peut-être pas complètement aménagé pour les piétons."],"waypoint_order":[]},{"bounds":{"northeast":{"lat":48.875442,"lng":2.388925},"southwest":{"lat":48.8449,"lng":2.32026}},"copyrights":"Données cartographiques ©2016 Google","legs":[{"arrival_time":{"text":"10:52","time_zone":"Europe/Paris","value":1472719979},"departure_time":{"text":"10:04","time_zone":"Europe/Paris","value":1472717098},"distance":{"text":"8,4 km","value":8438},"duration":{"text":"48 minutes","value":2881},"end_address":"73 Rue d'Anjou, 75008 Paris, France","end_location":{"lat":48.8748221,"lng":2.3228933},"start_address":"3-5 Impasse Lamier, 75011 Paris, France","start_location":{"lat":48.8577971,"lng":2.388925},"steps":[{"distance":{"text":"0,3 km","value":332},"duration":{"text":"4 minutes","value":242},"end_location":{"lat":48.859659,"lng":2.386568},"html_instructions":"Marcher jusqu'à Roquette - Père Lachaise","polyline":{"points":"gpeiHwqqM{An@RlBVjBwAp@oAl@}At@aAb@BP"},"start_location":{"lat":48.8577971,"lng":2.388925},"steps":[{"distance":{"text":"55 m","value":55},"duration":{"text":"1 minute","value":40},"end_location":{"lat":48.858263,"lng":2.3886768},"html_instructions":"Prendre la direction <b>nord</b> sur <b>Impasse Lamier</b> vers <b>Rue de Mont-Louis</b>","polyline":{"points":"gpeiHwqqM{An@"},"start_location":{"lat":48.8577971,"lng":2.388925},"travel_mode":"WALKING"},{"distance":{"text":"83 m","value":83},"duration":{"text":"1 minute","value":53},"end_location":{"lat":48.8580437,"lng":2.3875914},"html_instructions":"Prendre <b>à gauche</b> sur <b>Rue de Mont-Louis</b>","maneuver":"turn-left","polyline":{"points":"cseiHgpqMRlBVjB"},"start_location":{"lat":48.858263,"lng":2.3886768},"travel_mode":"WALKING"},{"distance":{"text":"0,2 km","value":194},"duration":{"text":"2 minutes","value":149},"end_location":{"lat":48.859659,"lng":2.386568},"html_instructions":"Prendre <b>à droite</b> sur <b>Rue de la Folie-Regnault</b><div style=\"font-size:0.9em\">Votre destination se trouvera sur la gauche.</div>","maneuver":"turn-right","polyline":{"points":"wqeiHmiqMwAp@oAl@}At@aAb@BP"},"start_location":{"lat":48.8580437,"lng":2.3875914},"travel_mode":"WALKING"}],"travel_mode":"WALKING"},{"distance":{"text":"2,2 km","value":2214},"duration":{"text":"12 minutes","value":720},"end_location":{"lat":48.845402,"lng":2.368661},"html_instructions":"Bus vers Gare d'Austerlitz","polyline":{"points":"{{eiHacqMnCnIhDbXxMhMfK`FjPhJfLzPzRpHv@dO"},"start_location":{"lat":48.859659,"lng":2.386568},"transit_details":{"arrival_stop":{"location":{"lat":48.845402,"lng":2.368661},"name":"Pont d'Austerlitz - Quai de la Rapee"},"arrival_time":{"text":"10:21","time_zone":"Europe/Paris","value":1472718060},"departure_stop":{"location":{"lat":48.859659,"lng":2.386568},"name":"Roquette - Père Lachaise"},"departure_time":{"text":"10:09","time_zone":"Europe/Paris","value":1472717340},"headsign":"Gare d'Austerlitz","line":{"agencies":[{"name":"STIF","url":"http://www.vianavigo.com/"}],"color":"#004d40","short_name":"61","text_color":"#ffffff","vehicle":{"icon":"//maps.gstatic.com/mapfiles/transit/iw2/6/bus2.png","name":"Bus","type":"BUS"}},"num_stops":8},"travel_mode":"TRANSIT"},{"distance":{"text":"5,7 km","value":5748},"duration":{"text":"25 minutes","value":1500},"end_location":{"lat":48.875442,"lng":2.324207},"html_instructions":"Bus vers Gare Saint-Lazare","polyline":{"points":"wbciHcsmMbBlXaLlUuK|QaDrL}FxXiHvUyHfZoI|OqJxTsBhVgI~^uIb_@wD`SgZ_LcR}QkSqH{LxO"},"start_location":{"lat":48.845402,"lng":2.368661},"transit_details":{"arrival_stop":{"location":{"lat":48.875442,"lng":2.324207},"name":"Gare Saint-Lazare"},"arrival_time":{"text":"10:51","time_zone":"Europe/Paris","value":1472719860},"departure_stop":{"location":{"lat":48.845402,"lng":2.368661},"name":"Pont d'Austerlitz - Quai de la Rapee"},"departure_time":{"text":"10:26","time_zone":"Europe/Paris","value":1472718360},"headsign":"Gare Saint-Lazare","line":{"agencies":[{"name":"STIF","url":"http://www.vianavigo.com/"}],"color":"#a0006e","short_name":"24","text_color":"#ffffff","vehicle":{"icon":"//maps.gstatic.com/mapfiles/transit/iw2/6/bus2.png","name":"Bus","type":"BUS"}},"num_stops":17},"travel_mode":"TRANSIT"},{"distance":{"text":"0,1 km","value":144},"duration":{"text":"2 minutes","value":118},"end_location":{"lat":48.8748221,"lng":2.3228933},"html_instructions":"Marcher jusqu'à 73 Rue d'Anjou, 75008 Paris, France","polyline":{"points":"o~hiHi}dMFRLMHbAPFHjDRAf@HB@"},"start_location":{"lat":48.875442,"lng":2.324207},"steps":[{"distance":{"text":"10 m","value":10},"duration":{"text":"1 minute","value":6},"end_location":{"lat":48.8753272,"lng":2.3241783},"html_instructions":"Prendre la direction <b>sud-est</b> sur <b>Rue de Rome</b>","polyline":{"points":"o~hiHi}dMFRLM"},"start_location":{"lat":48.875442,"lng":2.324207},"travel_mode":"WALKING"},{"distance":{"text":"25 m","value":25},"duration":{"text":"1 minute","value":23},"end_location":{"lat":48.8752837,"lng":2.3238394},"html_instructions":"Tourner à <b>droite</b> vers <b>Rue de la Pépinière</b>","maneuver":"turn-right","polyline":{"points":"y}hiHc}dMHbA"},"start_location":{"lat":48.8753272,"lng":2.3241783},"travel_mode":"WALKING"},{"distance":{"text":"11 m","value":11},"duration":{"text":"1 minute","value":7},"end_location":{"lat":48.875186,"lng":2.3238002},"html_instructions":"Tourner à <b>gauche</b> vers <b>Rue de la Pépinière</b>","maneuver":"turn-left","polyline":{"points":"o}hiH_{dMPF"},"start_location":{"lat":48.8752837,"lng":2.3238394},"travel_mode":"WALKING"},{"distance":{"text":"63 m","value":63},"duration":{"text":"1 minute","value":50},"end_location":{"lat":48.8751359,"lng":2.3229397},"html_instructions":"Prendre <b>à droite</b> sur <b>Rue de la Pépinière</b>","maneuver":"turn-right","polyline":{"points":"}|hiHwzdMHjD"},"start_location":{"lat":48.875186,"lng":2.3238002},"travel_mode":"WALKING"},{"distance":{"text":"35 m","value":35},"duration":{"text":"1 minute","value":32},"end_location":{"lat":48.8748221,"lng":2.3228933},"html_instructions":"Prendre <b>à gauche</b> sur <b>Rue d'Anjou</b><div style=\"font-size:0.9em\">Votre destination se trouvera sur la droite.</div>","maneuver":"turn-left","polyline":{"points":"s|hiHkudMRAf@HB@"},"start_location":{"lat":48.8751359,"lng":2.3229397},"travel_mode":"WALKING"}],"travel_mode":"WALKING"}],"traffic_speed_entry":[],"via_waypoint":[]}],"overview_polyline":{"points":"gpeiHwqqM{An@RlBVjBwAp@mDbBaAb@BPnCnIhDbXxMhMfK`FjPhJfLzPzRpHv@dObBlXaLlUuK|QaDrL}FxXiHvUyHfZoI|OqJxTsBhVgI~^uIb_@wD`SgZ_LcR}QkSqH{LxOFRLMHbAPFHjDRAf@HB@"},"summary":"","warnings":["Le calcul d'itinéraires piétons est en bêta. Faites attention – Cet itinéraire n'est peut-être pas complètement aménagé pour les piétons."],"waypoint_order":[]},{"bounds":{"northeast":{"lat":48.875639,"lng":2.388925},"southwest":{"lat":48.853374,"lng":2.3228933}},"copyrights":"Données cartographiques ©2016 Google","legs":[{"arrival_time":{"text":"10:53","time_zone":"Europe/Paris","value":1472720033},"departure_time":{"text":"10:08","time_zone":"Europe/Paris","value":1472717338},"distance":{"text":"6,8 km","value":6766},"duration":{"text":"45 minutes","value":2695},"end_address":"73 Rue d'Anjou, 75008 Paris, France","end_location":{"lat":48.8748221,"lng":2.3228933},"start_address":"3-5 Impasse Lamier, 75011 Paris, France","start_location":{"lat":48.8577971,"lng":2.388925},"steps":[{"distance":{"text":"0,3 km","value":332},"duration":{"text":"4 minutes","value":242},"end_location":{"lat":48.859659,"lng":2.386568},"html_instructions":"Marcher jusqu'à Roquette - Père Lachaise","polyline":{"points":"gpeiHwqqM{An@RlBVjBwAp@oAl@}At@aAb@BP"},"start_location":{"lat":48.8577971,"lng":2.388925},"steps":[{"distance":{"text":"55 m","value":55},"duration":{"text":"1 minute","value":40},"end_location":{"lat":48.858263,"lng":2.3886768},"html_instructions":"Prendre la direction <b>nord</b> sur <b>Impasse Lamier</b> vers <b>Rue de Mont-Louis</b>","polyline":{"points":"gpeiHwqqM{An@"},"start_location":{"lat":48.8577971,"lng":2.388925},"travel_mode":"WALKING"},{"distance":{"text":"83 m","value":83},"duration":{"text":"1 minute","value":53},"end_location":{"lat":48.8580437,"lng":2.3875914},"html_instructions":"Prendre <b>à gauche</b> sur <b>Rue de Mont-Louis</b>","maneuver":"turn-left","polyline":{"points":"cseiHgpqMRlBVjB"},"start_location":{"lat":48.858263,"lng":2.3886768},"travel_mode":"WALKING"},{"distance":{"text":"0,2 km","value":194},"duration":{"text":"2 minutes","value":149},"end_location":{"lat":48.859659,"lng":2.386568},"html_instructions":"Prendre <b>à droite</b> sur <b>Rue de la Folie-Regnault</b><div style=\"font-size:0.9em\">Votre destination se trouvera sur la gauche.</div>","maneuver":"turn-right","polyline":{"points":"wqeiHmiqMwAp@oAl@}At@aAb@BP"},"start_location":{"lat":48.8580437,"lng":2.3875914},"travel_mode":"WALKING"}],"travel_mode":"WALKING"},{"distance":{"text":"4,5 km","value":4529},"duration":{"text":"19 minutes","value":1140},"end_location":{"lat":48.862581,"lng":2.336047},"html_instructions":"Bus vers Champ de Mars","polyline":{"points":"{{eiHacqMnCnIhDbXgKnSxDhQ`FvSxDxPpIJnKUcBzRqGzWoFv^eDxTcFtWsGtYiGlXcH|Z"},"start_location":{"lat":48.859659,"lng":2.386568},"transit_details":{"arrival_stop":{"location":{"lat":48.862581,"lng":2.336047},"name":"Palais Royal - Musée du Louvre"},"arrival_time":{"text":"10:32","time_zone":"Europe/Paris","value":1472718720},"departure_stop":{"location":{"lat":48.859659,"lng":2.386568},"name":"Roquette - Père Lachaise"},"departure_time":{"text":"10:13","time_zone":"Europe/Paris","value":1472717580},"headsign":"Champ de Mars","line":{"agencies":[{"name":"STIF","url":"http://www.vianavigo.com/"}],"color":"#80deea","short_name":"69","text_color":"#000000","vehicle":{"icon":"//maps.gstatic.com/mapfiles/transit/iw2/6/bus2.png","name":"Bus","type":"BUS"}},"num_stops":16},"travel_mode":"TRANSIT"},{"distance":{"text":"1,8 km","value":1759},"duration":{"text":"12 minutes","value":720},"end_location":{"lat":48.875639,"lng":2.324098},"html_instructions":"Bus vers Gare Saint-Lazare","polyline":{"points":"cnfiHiggM{UnIcKdD_IhCmH~EuDnIgGtMgLnU"},"start_location":{"lat":48.862581,"lng":2.336047},"transit_details":{"arrival_stop":{"location":{"lat":48.875639,"lng":2.324098},"name":"Gare Saint-Lazare"},"arrival_time":{"text":"10:52","time_zone":"Europe/Paris","value":1472719920},"departure_stop":{"location":{"lat":48.862581,"lng":2.336047},"name":"Palais Royal - Musée du Louvre"},"departure_time":{"text":"10:40","time_zone":"Europe/Paris","value":1472719200},"headsign":"Gare Saint-Lazare","line":{"agencies":[{"name":"STIF","url":"http://www.vianavigo.com/"}],"color":"#81c784","short_name":"21","text_color":"#000000","vehicle":{"icon":"//maps.gstatic.com/mapfiles/transit/iw2/6/bus2.png","name":"Bus","type":"BUS"}},"num_stops":7},"travel_mode":"TRANSIT"},{"distance":{"text":"0,1 km","value":146},"duration":{"text":"2 minutes","value":113},"end_location":{"lat":48.8748221,"lng":2.3228933},"html_instructions":"Marcher jusqu'à 73 Rue d'Anjou, 75008 Paris, France","polyline":{"points":"w_iiHs|dMDb@b@H\\DPFHjDRAf@HB@"},"start_location":{"lat":48.875639,"lng":2.324098},"steps":[{"distance":{"text":"48 m","value":48},"duration":{"text":"1 minute","value":31},"end_location":{"lat":48.875186,"lng":2.3238002},"html_instructions":"Prendre la direction <b>sud</b> vers <b>Rue du Rocher</b>","polyline":{"points":"w_iiHs|dMDb@b@H\\DPF"},"start_location":{"lat":48.875639,"lng":2.324098},"travel_mode":"WALKING"},{"distance":{"text":"63 m","value":63},"duration":{"text":"1 minute","value":50},"end_location":{"lat":48.8751359,"lng":2.3229397},"html_instructions":"Prendre <b>à droite</b> sur <b>Rue de la Pépinière</b>","maneuver":"turn-right","polyline":{"points":"}|hiHwzdMHjD"},"start_location":{"lat":48.875186,"lng":2.3238002},"travel_mode":"WALKING"},{"distance":{"text":"35 m","value":35},"duration":{"text":"1 minute","value":32},"end_location":{"lat":48.8748221,"lng":2.3228933},"html_instructions":"Prendre <b>à gauche</b> sur <b>Rue d'Anjou</b><div style=\"font-size:0.9em\">Votre destination se trouvera sur la droite.</div>","maneuver":"turn-left","polyline":{"points":"s|hiHkudMRAf@HB@"},"start_location":{"lat":48.8751359,"lng":2.3229397},"travel_mode":"WALKING"}],"travel_mode":"WALKING"}],"traffic_speed_entry":[],"via_waypoint":[]}],"overview_polyline":{"points":"gpeiHwqqM{An@RlBVjBwAp@mDbBaAb@BPnCnIhDbXgKnSxDhQ`FvSxDxPpIJnKUcBzRqGzWuKpt@cFtWsGtYmPjt@{UnIcKdD_IhCmH~EuDnIgGtMgLnUDb@`ANPFHjDRAf@HB@"},"summary":"","warnings":["Le calcul d'itinéraires piétons est en bêta. Faites attention – Cet itinéraire n'est peut-être pas complètement aménagé pour les piétons."],"waypoint_order":[]}],"status":"OK"},"gobs":{"geocoded_waypoints":[{"geocoder_status":"OK","place_id":"EiczLTUgSW1wYXNzZSBMYW1pZXIsIDc1MDExIFBhcmlzLCBGcmFuY2U","types":["route","street_address"]},{"geocoder_status":"OK","place_id":"ChIJS8pekPJx5kcRxS0S3NXQsW4","types":["street_address"]}],"routes":[{"bounds":{"northeast":{"lat":48.8596809,"lng":2.388925},"southwest":{"lat":48.8377748,"lng":2.3548511}},"copyrights":"Données cartographiques ©2016 Google","legs":[{"arrival_time":{"text":"10:34","time_zone":"Europe/Paris","value":1472718871},"departure_time":{"text":"10:04","time_zone":"Europe/Paris","value":1472717098},"distance":{"text":"3,9 km","value":3908},"duration":{"text":"30 minutes","value":1773},"end_address":"73 Boulevard Saint-Marcel, 75005 Paris, France","end_location":{"lat":48.8377748,"lng":2.3548511},"start_address":"3-5 Impasse Lamier, 75011 Paris, France","start_location":{"lat":48.8577971,"lng":2.388925},"steps":[{"distance":{"text":"0,3 km","value":332},"duration":{"text":"4 minutes","value":242},"end_location":{"lat":48.859659,"lng":2.386568},"html_instructions":"Marcher jusqu'à Roquette - Père Lachaise","polyline":{"points":"gpeiHwqqM{An@RlBVjBwAp@oAl@}At@aAb@BP"},"start_location":{"lat":48.8577971,"lng":2.388925},"steps":[{"distance":{"text":"55 m","value":55},"duration":{"text":"1 minute","value":40},"end_location":{"lat":48.858263,"lng":2.3886768},"html_instructions":"Prendre la direction <b>nord</b> sur <b>Impasse Lamier</b> vers <b>Rue de Mont-Louis</b>","polyline":{"points":"gpeiHwqqM{An@"},"start_location":{"lat":48.8577971,"lng":2.388925},"travel_mode":"WALKING"},{"distance":{"text":"83 m","value":83},"duration":{"text":"1 minute","value":53},"end_location":{"lat":48.8580437,"lng":2.3875914},"html_instructions":"Prendre <b>à gauche</b> sur <b>Rue de Mont-Louis</b>","maneuver":"turn-left","polyline":{"points":"cseiHgpqMRlBVjB"},"start_location":{"lat":48.858263,"lng":2.3886768},"travel_mode":"WALKING"},{"distance":{"text":"0,2 km","value":194},"duration":{"text":"2 minutes","value":149},"end_location":{"lat":48.859659,"lng":2.386568},"html_instructions":"Prendre <b>à droite</b> sur <b>Rue de la Folie-Regnault</b><div style=\"font-size:0.9em\">Votre destination se trouvera sur la gauche.</div>","maneuver":"turn-right","polyline":{"points":"wqeiHmiqMwAp@oAl@}At@aAb@BP"},"start_location":{"lat":48.8580437,"lng":2.3875914},"travel_mode":"WALKING"}],"travel_mode":"WALKING"},{"distance":{"text":"2,2 km","value":2214},"duration":{"text":"12 minutes","value":720},"end_location":{"lat":48.845402,"lng":2.368661},"html_instructions":"Bus vers Gare d'Austerlitz","polyline":{"points":"{{eiHacqMnCnIhDbXxMhMfK`FjPhJfLzPzRpHv@dO"},"start_location":{"lat":48.859659,"lng":2.386568},"transit_details":{"arrival_stop":{"location":{"lat":48.845402,"lng":2.368661},"name":"Pont d'Austerlitz - Quai de la Rapee"},"arrival_time":{"text":"10:21","time_zone":"Europe/Paris","value":1472718060},"departure_stop":{"location":{"lat":48.859659,"lng":2.386568},"name":"Roquette - Père Lachaise"},"departure_time":{"text":"10:09","time_zone":"Europe/Paris","value":1472717340},"headsign":"Gare d'Austerlitz","line":{"agencies":[{"name":"STIF","url":"http://www.vianavigo.com/"}],"color":"#004d40","short_name":"61","text_color":"#ffffff","vehicle":{"icon":"//maps.gstatic.com/mapfiles/transit/iw2/6/bus2.png","name":"Bus","type":"BUS"}},"num_stops":8},"travel_mode":"TRANSIT"},{"distance":{"text":"1,2 km","value":1243},"duration":{"text":"8 minutes","value":480},"end_location":{"lat":48.838269,"lng":2.356185},"html_instructions":"Bus vers Montparnasse 2 - Gare TGV","polyline":{"points":"wbciHcsmMfM~[xSrRnHj\\"},"start_location":{"lat":48.845402,"lng":2.368661},"transit_details":{"arrival_stop":{"location":{"lat":48.838269,"lng":2.356185},"name":"Saint-Marcel - Jeanne d'Arc"},"arrival_time":{"text":"10:33","time_zone":"Europe/Paris","value":1472718780},"departure_stop":{"location":{"lat":48.845402,"lng":2.368661},"name":"Pont d'Austerlitz - Quai de la Rapee"},"departure_time":{"text":"10:25","time_zone":"Europe/Paris","value":1472718300},"headsign":"Montparnasse 2 - Gare TGV","line":{"agencies":[{"name":"STIF","url":"http://www.vianavigo.com/"}],"color":"#dc9600","short_name":"91","text_color":"#000000","vehicle":{"icon":"//maps.gstatic.com/mapfiles/transit/iw2/6/bus2.png","name":"Bus","type":"BUS"}},"num_stops":3},"travel_mode":"TRANSIT"},{"distance":{"text":"0,1 km","value":119},"duration":{"text":"2 minutes","value":90},"end_location":{"lat":48.8377748,"lng":2.3548511},"html_instructions":"Marcher jusqu'à 73 Boulevard Saint-Marcel, 75005 Paris, France","polyline":{"points":"evaiHcekMC@BLDNBRPCh@~B\\xA"},"start_location":{"lat":48.838269,"lng":2.356185},"steps":[{"distance":{"text":"20 m","value":20},"duration":{"text":"1 minute","value":14},"end_location":{"lat":48.8382172,"lng":2.3559241},"html_instructions":"Prendre la direction <b>sud-ouest</b> vers <b>Rue des Fossés Saint-Marcel</b>","polyline":{"points":"evaiHcekMC@BLDNBR"},"start_location":{"lat":48.838269,"lng":2.356185},"travel_mode":"WALKING"},{"distance":{"text":"10 m","value":10},"duration":{"text":"1 minute","value":8},"end_location":{"lat":48.8381275,"lng":2.3559398},"html_instructions":"Prendre <b>à gauche</b> sur <b>Rue des Fossés Saint-Marcel</b>","maneuver":"turn-left","polyline":{"points":"{uaiHockMPC"},"start_location":{"lat":48.8382172,"lng":2.3559241},"travel_mode":"WALKING"},{"distance":{"text":"89 m","value":89},"duration":{"text":"1 minute","value":68},"end_location":{"lat":48.8377748,"lng":2.3548511},"html_instructions":"Prendre <b>à droite</b> sur <b>Boulevard Saint-Marcel</b><div style=\"font-size:0.9em\">Votre destination se trouvera sur la gauche.</div>","maneuver":"turn-right","polyline":{"points":"iuaiHsckMh@~B\\xA"},"start_location":{"lat":48.8381275,"lng":2.3559398},"travel_mode":"WALKING"}],"travel_mode":"WALKING"}],"traffic_speed_entry":[],"via_waypoint":[]}],"overview_polyline":{"points":"gpeiHwqqM{An@RlBVjBwAp@mDbBaAb@BPnCnIhDbXxMhMfK`FjPhJfLzPzRpHv@dOfM~[xSrRnHj\\C@H\\BRPCfAxE"},"summary":"","warnings":["Le calcul d'itinéraires piétons est en bêta. Faites attention – Cet itinéraire n'est peut-être pas complètement aménagé pour les piétons."],"waypoint_order":[]},{"bounds":{"northeast":{"lat":48.8596809,"lng":2.388925},"southwest":{"lat":48.8377748,"lng":2.3548511}},"copyrights":"Données cartographiques ©2016 Google","legs":[{"arrival_time":{"text":"10:37","time_zone":"Europe/Paris","value":1472719042},"departure_time":{"text":"10:04","time_zone":"Europe/Paris","value":1472717098},"distance":{"text":"4,1 km","value":4122},"duration":{"text":"32 minutes","value":1944},"end_address":"73 Boulevard Saint-Marcel, 75005 Paris, France","end_location":{"lat":48.8377748,"lng":2.3548511},"start_address":"3-5 Impasse Lamier, 75011 Paris, France","start_location":{"lat":48.8577971,"lng":2.388925},"steps":[{"distance":{"text":"0,3 km","value":332},"duration":{"text":"4 minutes","value":242},"end_location":{"lat":48.859659,"lng":2.386568},"html_instructions":"Marcher jusqu'à Roquette - Père Lachaise","polyline":{"points":"gpeiHwqqM{An@RlBVjBwAp@oAl@}At@aAb@BP"},"start_location":{"lat":48.8577971,"lng":2.388925},"steps":[{"distance":{"text":"55 m","value":55},"duration":{"text":"1 minute","value":40},"end_location":{"lat":48.858263,"lng":2.3886768},"html_instructions":"Prendre la direction <b>nord</b> sur <b>Impasse Lamier</b> vers <b>Rue de Mont-Louis</b>","polyline":{"points":"gpeiHwqqM{An@"},"start_location":{"lat":48.8577971,"lng":2.388925},"travel_mode":"WALKING"},{"distance":{"text":"83 m","value":83},"duration":{"text":"1 minute","value":53},"end_location":{"lat":48.8580437,"lng":2.3875914},"html_instructions":"Prendre <b>à gauche</b> sur <b>Rue de Mont-Louis</b>","maneuver":"turn-left","polyline":{"points":"cseiHgpqMRlBVjB"},"start_location":{"lat":48.858263,"lng":2.3886768},"travel_mode":"WALKING"},{"distance":{"text":"0,2 km","value":194},"duration":{"text":"2 minutes","value":149},"end_location":{"lat":48.859659,"lng":2.386568},"html_instructions":"Prendre <b>à droite</b> sur <b>Rue de la Folie-Regnault</b><div style=\"font-size:0.9em\">Votre destination se trouvera sur la gauche.</div>","maneuver":"turn-right","polyline":{"points":"wqeiHmiqMwAp@oAl@}At@aAb@BP"},"start_location":{"lat":48.8580437,"lng":2.3875914},"travel_mode":"WALKING"}],"travel_mode":"WALKING"},{"distance":{"text":"2,6 km","value":2569},"duration":{"text":"15 minutes","value":900},"end_location":{"lat":48.84419,"lng":2.36418},"html_instructions":"Bus vers Gare d'Austerlitz","polyline":{"points":"{{eiHacqMnCnIhDbXxMhMfK`FjPhJfLzPzRpHv@dOpF~Z"},"start_location":{"lat":48.859659,"lng":2.386568},"transit_details":{"arrival_stop":{"location":{"lat":48.84419,"lng":2.36418},"name":"Gare d'Austerlitz"},"arrival_time":{"text":"10:24","time_zone":"Europe/Paris","value":1472718240},"departure_stop":{"location":{"lat":48.859659,"lng":2.386568},"name":"Roquette - Père Lachaise"},"departure_time":{"text":"10:09","time_zone":"Europe/Paris","value":1472717340},"headsign":"Gare d'Austerlitz","line":{"agencies":[{"name":"STIF","url":"http://www.vianavigo.com/"}],"color":"#004d40","short_name":"61","text_color":"#ffffff","vehicle":{"icon":"//maps.gstatic.com/mapfiles/transit/iw2/6/bus2.png","name":"Bus","type":"BUS"}},"num_stops":9},"travel_mode":"TRANSIT"},{"distance":{"text":"76 m","value":76},"duration":{"text":"1 minute","value":74},"end_location":{"lat":48.843507,"lng":2.364302},"html_instructions":"Marcher jusqu'à Gare d'Austerlitz","polyline":{"points":"e{biHcwlMfCW"},"start_location":{"lat":48.84419,"lng":2.36418},"steps":[{"distance":{"text":"76 m","value":76},"duration":{"text":"1 minute","value":74},"end_location":{"lat":48.843507,"lng":2.364302},"polyline":{"points":"e{biHcwlMfCW"},"start_location":{"lat":48.84419,"lng":2.36418},"travel_mode":"WALKING"}],"travel_mode":"WALKING"},{"distance":{"text":"0,7 km","value":654},"duration":{"text":"2 minutes","value":120},"end_location":{"lat":48.841693,"lng":2.355846},"html_instructions":"Bus vers Gare de Vanves-Malakoff","polyline":{"points":"}vbiH{wlMtGt]tAbU"},"start_location":{"lat":48.843507,"lng":2.364302},"transit_details":{"arrival_stop":{"location":{"lat":48.841693,"lng":2.355846},"name":"Buffon - la Mosquee"},"arrival_time":{"text":"10:31","time_zone":"Europe/Paris","value":1472718660},"departure_stop":{"location":{"lat":48.843507,"lng":2.364302},"name":"Gare d'Austerlitz"},"departure_time":{"text":"10:29","time_zone":"Europe/Paris","value":1472718540},"headsign":"Gare de Vanves-Malakoff","line":{"agencies":[{"name":"STIF","url":"http://www.vianavigo.com/"}],"color":"#80deea","short_name":"89","text_color":"#000000","vehicle":{"icon":"//maps.gstatic.com/mapfiles/transit/iw2/6/bus2.png","name":"Bus","type":"BUS"}},"num_stops":2},"travel_mode":"TRANSIT"},{"distance":{"text":"0,5 km","value":491},"duration":{"text":"6 minutes","value":380},"end_location":{"lat":48.8377748,"lng":2.3548511},"html_instructions":"Marcher jusqu'à 73 Boulevard Saint-Marcel, 75005 Paris, France","polyline":{"points":"qkbiHackM@JPGLCbAYjD}@f@KfBHx@NpAV~B`@F@PCh@~B\\xA"},"start_location":{"lat":48.841693,"lng":2.355846},"steps":[{"distance":{"text":"0,2 km","value":236},"duration":{"text":"3 minutes","value":183},"end_location":{"lat":48.83960150000001,"lng":2.3562975},"html_instructions":"Prendre la direction <b>sud</b> sur <b>Rue Geoffroy-Saint-Hilaire</b> vers <b>Rue Daubenton</b>","polyline":{"points":"qkbiHackM@JPGLCbAYjD}@f@KfBH"},"start_location":{"lat":48.841693,"lng":2.355846},"travel_mode":"WALKING"},{"distance":{"text":"0,2 km","value":166},"duration":{"text":"2 minutes","value":129},"end_location":{"lat":48.8381275,"lng":2.3559398},"html_instructions":"Continuer sur <b>Rue des Fossés Saint-Marcel</b>","polyline":{"points":"o~aiH{ekMx@NpAV~B`@F@PC"},"start_location":{"lat":48.83960150000001,"lng":2.3562975},"travel_mode":"WALKING"},{"distance":{"text":"89 m","value":89},"duration":{"text":"1 minute","value":68},"end_location":{"lat":48.8377748,"lng":2.3548511},"html_instructions":"Prendre <b>à droite</b> sur <b>Boulevard Saint-Marcel</b><div style=\"font-size:0.9em\">Votre destination se trouvera sur la gauche.</div>","maneuver":"turn-right","polyline":{"points":"iuaiHsckMh@~B\\xA"},"start_location":{"lat":48.8381275,"lng":2.3559398},"travel_mode":"WALKING"}],"travel_mode":"WALKING"}],"traffic_speed_entry":[],"via_waypoint":[]}],"overview_polyline":{"points":"gpeiHwqqM{An@RlBVjBwAp@mDbBaAb@BPnCnIhDbXxMhMfK`FjPhJfLzPzRpHv@dOpF~ZfCWtGt]tAbU@JPGpA]rEiAfBHx@NpEx@XAfAxE"},"summary":"","warnings":["Le calcul d'itinéraires piétons est en bêta. Faites attention – Cet itinéraire n'est peut-être pas complètement aménagé pour les piétons."],"waypoint_order":[]},{"bounds":{"northeast":{"lat":48.860049,"lng":2.388925},"southwest":{"lat":48.8377748,"lng":2.3548511}},"copyrights":"Données cartographiques ©2016 Google","legs":[{"arrival_time":{"text":"10:42","time_zone":"Europe/Paris","value":1472719351},"departure_time":{"text":"10:08","time_zone":"Europe/Paris","value":1472717338},"distance":{"text":"4,7 km","value":4705},"duration":{"text":"34 minutes","value":2013},"end_address":"73 Boulevard Saint-Marcel, 75005 Paris, France","end_location":{"lat":48.8377748,"lng":2.3548511},"start_address":"3-5 Impasse Lamier, 75011 Paris, France","start_location":{"lat":48.8577971,"lng":2.388925},"steps":[{"distance":{"text":"0,3 km","value":332},"duration":{"text":"4 minutes","value":242},"end_location":{"lat":48.859659,"lng":2.386568},"html_instructions":"Marcher jusqu'à Roquette - Père Lachaise","polyline":{"points":"gpeiHwqqM{An@RlBVjBwAp@oAl@}At@aAb@BP"},"start_location":{"lat":48.8577971,"lng":2.388925},"steps":[{"distance":{"text":"55 m","value":55},"duration":{"text":"1 minute","value":40},"end_location":{"lat":48.858263,"lng":2.3886768},"html_instructions":"Prendre la direction <b>nord</b> sur <b>Impasse Lamier</b> vers <b>Rue de Mont-Louis</b>","polyline":{"points":"gpeiHwqqM{An@"},"start_location":{"lat":48.8577971,"lng":2.388925},"travel_mode":"WALKING"},{"distance":{"text":"83 m","value":83},"duration":{"text":"1 minute","value":53},"end_location":{"lat":48.8580437,"lng":2.3875914},"html_instructions":"Prendre <b>à gauche</b> sur <b>Rue de Mont-Louis</b>","maneuver":"turn-left","polyline":{"points":"cseiHgpqMRlBVjB"},"start_location":{"lat":48.858263,"lng":2.3886768},"travel_mode":"WALKING"},{"distance":{"text":"0,2 km","value":194},"duration":{"text":"2 minutes","value":149},"end_location":{"lat":48.859659,"lng":2.386568},"html_instructions":"Prendre <b>à droite</b> sur <b>Rue de la Folie-Regnault</b><div style=\"font-size:0.9em\">Votre destination se trouvera sur la gauche.</div>","maneuver":"turn-right","polyline":{"points":"wqeiHmiqMwAp@oAl@}At@aAb@BP"},"start_location":{"lat":48.8580437,"lng":2.3875914},"travel_mode":"WALKING"}],"travel_mode":"WALKING"},{"distance":{"text":"1,9 km","value":1933},"duration":{"text":"9 minutes","value":540},"end_location":{"lat":48.853374,"lng":2.368543},"html_instructions":"Bus vers Champ de Mars","polyline":{"points":"{{eiHacqMnCnIhDbXgKnSxDhQ`FvSxDxPpIJnKU"},"start_location":{"lat":48.859659,"lng":2.386568},"transit_details":{"arrival_stop":{"location":{"lat":48.853374,"lng":2.368543},"name":"Bastille - Rue Saint-Antoine"},"arrival_time":{"text":"10:22","time_zone":"Europe/Paris","value":1472718120},"departure_stop":{"location":{"lat":48.859659,"lng":2.386568},"name":"Roquette - Père Lachaise"},"departure_time":{"text":"10:13","time_zone":"Europe/Paris","value":1472717580},"headsign":"Champ de Mars","line":{"agencies":[{"name":"STIF","url":"http://www.vianavigo.com/"}],"color":"#80deea","short_name":"69","text_color":"#000000","vehicle":{"icon":"//maps.gstatic.com/mapfiles/transit/iw2/6/bus2.png","name":"Bus","type":"BUS"}},"num_stops":8},"travel_mode":"TRANSIT"},{"distance":{"text":"0,1 km","value":126},"duration":{"text":"2 minutes","value":126},"end_location":{"lat":48.85234,"lng":2.369251},"html_instructions":"Marcher jusqu'à Bastille","polyline":{"points":"qtdiHkrmMlEmC"},"start_location":{"lat":48.853374,"lng":2.368543},"steps":[{"distance":{"text":"0,1 km","value":126},"duration":{"text":"2 minutes","value":126},"end_location":{"lat":48.85234,"lng":2.369251},"polyline":{"points":"qtdiHkrmMlEmC"},"start_location":{"lat":48.853374,"lng":2.368543},"travel_mode":"WALKING"}],"travel_mode":"WALKING"},{"distance":{"text":"2,2 km","value":2195},"duration":{"text":"13 minutes","value":780},"end_location":{"lat":48.838269,"lng":2.356185},"html_instructions":"Bus vers Montparnasse 2 - Gare TGV","polyline":{"points":"cndiHyvmM~WsJrO[v@dOfM~[xSrRnHj\\"},"start_location":{"lat":48.85234,"lng":2.369251},"transit_details":{"arrival_stop":{"location":{"lat":48.838269,"lng":2.356185},"name":"Saint-Marcel - Jeanne d'Arc"},"arrival_time":{"text":"10:41","time_zone":"Europe/Paris","value":1472719260},"departure_stop":{"location":{"lat":48.85234,"lng":2.369251},"name":"Bastille"},"departure_time":{"text":"10:28","time_zone":"Europe/Paris","value":1472718480},"headsign":"Montparnasse 2 - Gare TGV","line":{"agencies":[{"name":"STIF","url":"http://www.vianavigo.com/"}],"color":"#dc9600","short_name":"91","text_color":"#000000","vehicle":{"icon":"//maps.gstatic.com/mapfiles/transit/iw2/6/bus2.png","name":"Bus","type":"BUS"}},"num_stops":6},"travel_mode":"TRANSIT"},{"distance":{"text":"0,1 km","value":119},"duration":{"text":"2 minutes","value":90},"end_location":{"lat":48.8377748,"lng":2.3548511},"html_instructions":"Marcher jusqu'à 73 Boulevard Saint-Marcel, 75005 Paris, France","polyline":{"points":"evaiHcekMC@BLDNBRPCh@~B\\xA"},"start_location":{"lat":48.838269,"lng":2.356185},"steps":[{"distance":{"text":"20 m","value":20},"duration":{"text":"1 minute","value":14},"end_location":{"lat":48.8382172,"lng":2.3559241},"html_instructions":"Prendre la direction <b>sud-ouest</b> vers <b>Rue des Fossés Saint-Marcel</b>","polyline":{"points":"evaiHcekMC@BLDNBR"},"start_location":{"lat":48.838269,"lng":2.356185},"travel_mode":"WALKING"},{"distance":{"text":"10 m","value":10},"duration":{"text":"1 minute","value":8},"end_location":{"lat":48.8381275,"lng":2.3559398},"html_instructions":"Prendre <b>à gauche</b> sur <b>Rue des Fossés Saint-Marcel</b>","maneuver":"turn-left","polyline":{"points":"{uaiHockMPC"},"start_location":{"lat":48.8382172,"lng":2.3559241},"travel_mode":"WALKING"},{"distance":{"text":"89 m","value":89},"duration":{"text":"1 minute","value":68},"end_location":{"lat":48.8377748,"lng":2.3548511},"html_instructions":"Prendre <b>à droite</b> sur <b>Boulevard Saint-Marcel</b><div style=\"font-size:0.9em\">Votre destination se trouvera sur la gauche.</div>","maneuver":"turn-right","polyline":{"points":"iuaiHsckMh@~B\\xA"},"start_location":{"lat":48.8381275,"lng":2.3559398},"travel_mode":"WALKING"}],"travel_mode":"WALKING"}],"traffic_speed_entry":[],"via_waypoint":[]}],"overview_polyline":{"points":"gpeiHwqqM{An@RlBVjBwAp@mDbBaAb@BPnCnIhDbXgKnSxDhQ`FvSxDxPpIJnKUlEmC~WsJrO[v@dOfM~[xSrRnHj\\C@H\\BRPCfAxE"},"summary":"","warnings":["Le calcul d'itinéraires piétons est en bêta. Faites attention – Cet itinéraire n'est peut-être pas complètement aménagé pour les piétons."],"waypoint_order":[]},{"bounds":{"northeast":{"lat":48.8596809,"lng":2.388925},"southwest":{"lat":48.8377748,"lng":2.3548511}},"copyrights":"Données cartographiques ©2016 Google","legs":[{"arrival_time":{"text":"10:50","time_zone":"Europe/Paris","value":1472719831},"departure_time":{"text":"10:19","time_zone":"Europe/Paris","value":1472717998},"distance":{"text":"3,9 km","value":3908},"duration":{"text":"31 minutes","value":1833},"end_address":"73 Boulevard Saint-Marcel, 75005 Paris, France","end_location":{"lat":48.8377748,"lng":2.3548511},"start_address":"3-5 Impasse Lamier, 75011 Paris, France","start_location":{"lat":48.8577971,"lng":2.388925},"steps":[{"distance":{"text":"0,3 km","value":332},"duration":{"text":"4 minutes","value":242},"end_location":{"lat":48.859659,"lng":2.386568},"html_instructions":"Marcher jusqu'à Roquette - Père Lachaise","polyline":{"points":"gpeiHwqqM{An@RlBVjBwAp@oAl@}At@aAb@BP"},"start_location":{"lat":48.8577971,"lng":2.388925},"steps":[{"distance":{"text":"55 m","value":55},"duration":{"text":"1 minute","value":40},"end_location":{"lat":48.858263,"lng":2.3886768},"html_instructions":"Prendre la direction <b>nord</b> sur <b>Impasse Lamier</b> vers <b>Rue de Mont-Louis</b>","polyline":{"points":"gpeiHwqqM{An@"},"start_location":{"lat":48.8577971,"lng":2.388925},"travel_mode":"WALKING"},{"distance":{"text":"83 m","value":83},"duration":{"text":"1 minute","value":53},"end_location":{"lat":48.8580437,"lng":2.3875914},"html_instructions":"Prendre <b>à gauche</b> sur <b>Rue de Mont-Louis</b>","maneuver":"turn-left","polyline":{"points":"cseiHgpqMRlBVjB"},"start_location":{"lat":48.858263,"lng":2.3886768},"travel_mode":"WALKING"},{"distance":{"text":"0,2 km","value":194},"duration":{"text":"2 minutes","value":149},"end_location":{"lat":48.859659,"lng":2.386568},"html_instructions":"Prendre <b>à droite</b> sur <b>Rue de la Folie-Regnault</b><div style=\"font-size:0.9em\">Votre destination se trouvera sur la gauche.</div>","maneuver":"turn-right","polyline":{"points":"wqeiHmiqMwAp@oAl@}At@aAb@BP"},