[{"origin":{"lat":2.3845370138789974,"lng":48.84827238773917},"taff":{"geocoded_waypoints":[{"geocoder_status":"OK","place_id":"EiozMi0zNCBSdWUgZGUgQ2hhbGlnbnksIDc1MDEyIFBhcmlzLCBGcmFuY2U","types":["route","street_address"]},{"geocoder_status":"OK","place_id":"ChIJc5sm28pv5kcR0cpsawDOfSg","types":["street_address"]}],"routes":[{"bounds":{"northeast":{"lat":48.8752566,"lng":2.3840151},"southwest":{"lat":48.8462666,"lng":2.3228933}},"copyrights":"Données cartographiques ©2016 Google","legs":[{"arrival_time":{"text":"10:45","time_zone":"Europe/Paris","value":1472719541},"departure_time":{"text":"10:01","time_zone":"Europe/Paris","value":1472716867},"distance":{"text":"6,1 km","value":6128},"duration":{"text":"45 minutes","value":2674},"end_address":"73 Rue d'Anjou, 75008 Paris, France","end_location":{"lat":48.8748221,"lng":2.3228933},"start_address":"32-34 Rue de Chaligny, 75012 Paris, France","start_location":{"lat":48.8483127,"lng":2.3840151},"steps":[{"distance":{"text":"0,6 km","value":636},"duration":{"text":"8 minutes","value":473},"end_location":{"lat":48.84645099999999,"lng":2.37735},"html_instructions":"Marcher jusqu'à Daumesnil - Diderot","polyline":{"points":"}tciHcspMbGn@J~APvCJdBHx@j@`LFz@FnANdC?DDz@BT?B@F@NDr@C?A@Q^KO"},"start_location":{"lat":48.8483127,"lng":2.3840151},"steps":[{"distance":{"text":"0,1 km","value":146},"duration":{"text":"2 minutes","value":105},"end_location":{"lat":48.8470063,"lng":2.3837823},"html_instructions":"Prendre la direction <b>sud</b> sur <b>Rue de Chaligny</b> vers <b>Boulevard Diderot</b>","polyline":{"points":"}tciHcspMbGn@"},"start_location":{"lat":48.8483127,"lng":2.3840151},"travel_mode":"WALKING"},{"distance":{"text":"0,5 km","value":471},"duration":{"text":"6 minutes","value":349},"end_location":{"lat":48.8462666,"lng":2.3774424},"html_instructions":"Prendre <b>à droite</b> sur <b>Boulevard Diderot</b>","maneuver":"turn-right","polyline":{"points":"ylciHsqpMJ~APvCJdBHx@j@`LFz@FnANdC?DDz@BT?B@F@NDr@"},"start_location":{"lat":48.8470063,"lng":2.3837823},"travel_mode":"WALKING"},{"distance":{"text":"19 m","value":19},"duration":{"text":"1 minute","value":19},"end_location":{"lat":48.84645099999999,"lng":2.37735},"html_instructions":"Tourner à <b>droite</b> à <b>Avenue Daumesnil</b><div style=\"font-size:0.9em\">Votre destination se trouvera sur la droite.</div>","maneuver":"turn-right","polyline":{"points":"ehciH_joMC?A@Q^KO"},"start_location":{"lat":48.8462666,"lng":2.3774424},"travel_mode":"WALKING"}],"travel_mode":"WALKING"},{"distance":{"text":"5,3 km","value":5285},"duration":{"text":"34 minutes","value":2040},"end_location":{"lat":48.874669,"lng":2.32467},"html_instructions":"Bus vers Gare Saint-Lazare","polyline":{"points":"iiciHmioMkKbYwWpUeH|AoLbBsIpEmBzSaKxVeDrI}Jv`@cCfP}ApKiClPmBtMaCvPuB`OeItZ_IhCmH~EuDnIgGtMeF|Q"},"start_location":{"lat":48.84645099999999,"lng":2.37735},"transit_details":{"arrival_stop":{"location":{"lat":48.874669,"lng":2.32467},"name":"Gare Saint-Lazare"},"arrival_time":{"text":"10:43","time_zone":"Europe/Paris","value":1472719380},"departure_stop":{"location":{"lat":48.84645099999999,"lng":2.37735},"name":"Daumesnil - Diderot"},"departure_time":{"text":"10:09","time_zone":"Europe/Paris","value":1472717340},"headsign":"Gare Saint-Lazare","line":{"agencies":[{"name":"STIF","url":"http://www.vianavigo.com/"}],"color":"#80deea","short_name":"29","text_color":"#000000","vehicle":{"icon":"//maps.gstatic.com/mapfiles/transit/iw2/6/bus2.png","name":"Bus","type":"BUS"}},"num_stops":21},"travel_mode":"TRANSIT"},{"distance":{"text":"0,2 km","value":207},"duration":{"text":"3 minutes","value":161},"end_location":{"lat":48.8748221,"lng":2.3228933},"html_instructions":"Marcher jusqu'à 73 Rue d'Anjou, 75008 Paris, France","polyline":{"points":"uyhiHe`eM@JYBO@G?E?C?E?MNg@n@LzAHjDRAf@HB@"},"start_location":{"lat":48.874669,"lng":2.32467},"steps":[{"distance":{"text":"36 m","value":36},"duration":{"text":"1 minute","value":26},"end_location":{"lat":48.8749895,"lng":2.324583},"html_instructions":"Prendre la direction <b>nord</b> sur <b>Rue de l'Arcade</b> vers <b>Rue de Rome</b>","polyline":{"points":"uyhiHe`eM@JYBO@G?E?C?E?"},"start_location":{"lat":48.874669,"lng":2.32467},"travel_mode":"WALKING"},{"distance":{"text":"38 m","value":38},"duration":{"text":"1 minute","value":28},"end_location":{"lat":48.8752566,"lng":2.3242588},"html_instructions":"Prendre légèrement <b>à gauche</b> sur <b>Rue de Rome</b>","maneuver":"turn-slight-left","polyline":{"points":"u{hiHs_eMMNg@n@"},"start_location":{"lat":48.8749895,"lng":2.324583},"travel_mode":"WALKING"},{"distance":{"text":"0,1 km","value":98},"duration":{"text":"1 minute","value":75},"end_location":{"lat":48.8751359,"lng":2.3229397},"html_instructions":"Prendre <b>à gauche</b> sur <b>Rue de la Pépinière</b>/<b>Place Gabriel Péri</b><div style=\"font-size:0.9em\">Continuer de suivre Rue de la Pépinière</div>","maneuver":"turn-left","polyline":{"points":"k}hiHs}dMLzAHjD"},"start_location":{"lat":48.8752566,"lng":2.3242588},"travel_mode":"WALKING"},{"distance":{"text":"35 m","value":35},"duration":{"text":"1 minute","value":32},"end_location":{"lat":48.8748221,"lng":2.3228933},"html_instructions":"Prendre <b>à gauche</b> sur <b>Rue d'Anjou</b><div style=\"font-size:0.9em\">Votre destination se trouvera sur la droite.</div>","maneuver":"turn-left","polyline":{"points":"s|hiHkudMRAf@HB@"},"start_location":{"lat":48.8751359,"lng":2.3229397},"travel_mode":"WALKING"}],"travel_mode":"WALKING"}],"traffic_speed_entry":[],"via_waypoint":[]}],"overview_polyline":{"points":"}tciHcspMbGn@J~A\\|FdAfRb@lHE@Q^KOkKbYwWpUeH|AoLbBsIpEmBzSgPla@}Jv`@cCfPgF~\\oFl_@uB`OeItZ_IhCmH~EuDnIgGtMeF|Q@Ji@DW?u@~@LzAHjDRAf@HB@"},"summary":"","warnings":["Le calcul d'itinéraires piétons est en bêta. Faites attention – Cet itinéraire n'est peut-être pas complètement aménagé pour les piétons."],"waypoint_order":[]},{"bounds":{"northeast":{"lat":48.875442,"lng":2.3843328},"southwest":{"lat":48.8483127,"lng":2.32026}},"copyrights":"Données cartographiques ©2016 Google","legs":[{"arrival_time":{"text":"10:40","time_zone":"Europe/Paris","value":1472719259},"departure_time":{"text":"10:00","time_zone":"Europe/Paris","value":1472716849},"distance":{"text":"7,3 km","value":7327},"duration":{"text":"40 minutes","value":2410},"end_address":"73 Rue d'Anjou, 75008 Paris, France","end_location":{"lat":48.8748221,"lng":2.3228933},"start_address":"32-34 Rue de Chaligny, 75012 Paris, France","start_location":{"lat":48.8483127,"lng":2.3840151},"steps":[{"distance":{"text":"0,3 km","value":258},"duration":{"text":"3 minutes","value":191},"end_location":{"lat":48.850286,"lng":2.383753},"html_instructions":"Marcher jusqu'à Hôpital Saint-Antoine","polyline":{"points":"}tciHcspMcIw@EAGAC?CAU?Cp@GbAOC?@"},"start_location":{"lat":48.8483127,"lng":2.3840151},"steps":[{"distance":{"text":"0,2 km","value":206},"duration":{"text":"2 minutes","value":149},"end_location":{"lat":48.850151,"lng":2.3843328},"html_instructions":"Prendre la direction <b>nord</b> sur <b>Rue de Chaligny</b> vers <b>Rue du Faubourg Saint-Antoine</b>","polyline":{"points":"}tciHcspMcIw@EAGAC?CAU?"},"start_location":{"lat":48.8483127,"lng":2.3840151},"travel_mode":"WALKING"},{"distance":{"text":"43 m","value":43},"duration":{"text":"1 minute","value":30},"end_location":{"lat":48.8502058,"lng":2.3837443},"html_instructions":"Prendre <b>à gauche</b> sur <b>Rue du Faubourg Saint-Antoine</b>","maneuver":"turn-left","polyline":{"points":"m`diHaupMCp@GbA"},"start_location":{"lat":48.850151,"lng":2.3843328},"travel_mode":"WALKING"},{"distance":{"text":"9 m","value":9},"duration":{"text":"1 minute","value":12},"end_location":{"lat":48.850286,"lng":2.383753},"html_instructions":"Tourner à <b>droite</b>","maneuver":"turn-right","polyline":{"points":"y`diHkqpMOC?@"},"start_location":{"lat":48.8502058,"lng":2.3837443},"travel_mode":"WALKING"}],"travel_mode":"WALKING"},{"distance":{"text":"2,2 km","value":2235},"duration":{"text":"9 minutes","value":540},"end_location":{"lat":48.848991,"lng":2.355467},"html_instructions":"Bus vers Saint-Germain-des-Prés","polyline":{"points":"iadiHmqpMkAvZ}B`PmChQ}E|PJjNnBdJxElU~ExUbGzV"},"start_location":{"lat":48.850286,"lng":2.383753},"transit_details":{"arrival_stop":{"location":{"lat":48.848991,"lng":2.355467},"name":"Institut du Monde Arabe"},"arrival_time":{"text":"10:13","time_zone":"Europe/Paris","value":1472717580},"departure_stop":{"location":{"lat":48.850286,"lng":2.383753},"name":"Hôpital Saint-Antoine"},"departure_time":{"text":"10:04","time_zone":"Europe/Paris","value":1472717040},"headsign":"Saint-Germain-des-Prés","line":{"agencies":[{"name":"STIF","url":"http://www.vianavigo.com/"}],"color":"#f21300","short_name":"86","text_color":"#ffffff","vehicle":{"icon":"//maps.gstatic.com/mapfiles/transit/iw2/6/bus2.png","name":"Bus","type":"BUS"}},"num_stops":9},"travel_mode":"TRANSIT"},{"distance":{"text":"0,1 km","value":95},"duration":{"text":"2 minutes","value":95},"end_location":{"lat":48.849827,"lng":2.355794},"html_instructions":"Marcher jusqu'à Pont de la Tournelle - Cardinal Lemoine","polyline":{"points":"eyciHu`kMgD_A"},"start_location":{"lat":48.848991,"lng":2.355467},"steps":[{"distance":{"text":"0,1 km","value":95},"duration":{"text":"2 minutes","value":95},"end_location":{"lat":48.849827,"lng":2.355794},"polyline":{"points":"eyciHu`kMgD_A"},"start_location":{"lat":48.848991,"lng":2.355467},"travel_mode":"WALKING"}],"travel_mode":"WALKING"},{"distance":{"text":"4,6 km","value":4595},"duration":{"text":"19 minutes","value":1140},"end_location":{"lat":48.875442,"lng":2.324207},"html_instructions":"Bus vers Gare Saint-Lazare","polyline":{"points":"m~ciHubkM}FxXiHvUyHfZoI|OqJxTsBhVgI~^uIb_@wD`SgZ_LcR}QkSqH{LxO"},"start_location":{"lat":48.849827,"lng":2.355794},"transit_details":{"arrival_stop":{"location":{"lat":48.875442,"lng":2.324207},"name":"Gare Saint-Lazare"},"arrival_time":{"text":"10:39","time_zone":"Europe/Paris","value":1472719140},"departure_stop":{"location":{"lat":48.849827,"lng":2.355794},"name":"Pont de la Tournelle - Cardinal Lemoine"},"departure_time":{"text":"10:20","time_zone":"Europe/Paris","value":1472718000},"headsign":"Gare Saint-Lazare","line":{"agencies":[{"name":"STIF","url":"http://www.vianavigo.com/"}],"color":"#a0006e","short_name":"24","text_color":"#ffffff","vehicle":{"icon":"//maps.gstatic.com/mapfiles/transit/iw2/6/bus2.png","name":"Bus","type":"BUS"}},"num_stops":13},"travel_mode":"TRANSIT"},{"distance":{"text":"0,1 km","value":144},"duration":{"text":"2 minutes","value":118},"end_location":{"lat":48.8748221,"lng":2.3228933},"html_instructions":"Marcher jusqu'à 73 Rue d'Anjou, 75008 Paris, France","polyline":{"points":"o~hiHi}dMFRLMHbAPFHjDRAf@HB@"},"start_location":{"lat":48.875442,"lng":2.324207},"steps":[{"distance":{"text":"10 m","value":10},"duration":{"text":"1 minute","value":6},"end_location":{"lat":48.8753272,"lng":2.3241783},"html_instructions":"Prendre la direction <b>sud-est</b> sur <b>Rue de Rome</b>","polyline":{"points":"o~hiHi}dMFRLM"},"start_location":{"lat":48.875442,"lng":2.324207},"travel_mode":"WALKING"},{"distance":{"text":"25 m","value":25},"duration":{"text":"1 minute","value":23},"end_location":{"lat":48.8752837,"lng":2.3238394},"html_instructions":"Tourner à <b>droite</b> vers <b>Rue de la Pépinière</b>","maneuver":"turn-right","polyline":{"points":"y}hiHc}dMHbA"},"start_location":{"lat":48.8753272,"lng":2.3241783},"travel_mode":"WALKING"},{"distance":{"text":"11 m","value":11},"duration":{"text":"1 minute","value":7},"end_location":{"lat":48.875186,"lng":2.3238002},"html_instructions":"Tourner à <b>gauche</b> vers <b>Rue de la Pépinière</b>","maneuver":"turn-left","polyline":{"points":"o}hiH_{dMPF"},"start_location":{"lat":48.8752837,"lng":2.3238394},"travel_mode":"WALKING"},{"distance":{"text":"63 m","value":63},"duration":{"text":"1 minute","value":50},"end_location":{"lat":48.8751359,"lng":2.3229397},"html_instructions":"Prendre <b>à droite</b> sur <b>Rue de la Pépinière</b>","maneuver":"turn-right","polyline":{"points":"}|hiHwzdMHjD"},"start_location":{"lat":48.875186,"lng":2.3238002},"travel_mode":"WALKING"},{"distance":{"text":"35 m","value":35},"duration":{"text":"1 minute","value":32},"end_location":{"lat":48.8748221,"lng":2.3228933},"html_instructions":"Prendre <b>à gauche</b> sur <b>Rue d'Anjou</b><div style=\"font-size:0.9em\">Votre destination se trouvera sur la droite.</div>","maneuver":"turn-left","polyline":{"points":"s|hiHkudMRAf@HB@"},"start_location":{"lat":48.8751359,"lng":2.3229397},"travel_mode":"WALKING"}],"travel_mode":"WALKING"}],"traffic_speed_entry":[],"via_waypoint":[]}],"overview_polyline":{"points":"}tciHcspMuI{@YAKtBOAkAvZ}B`PmChQ}E|PJjNnBdJxLfl@bGzVgD_A}FxXiHvUyHfZoI|OqJxTsBhVgI~^uIb_@wD`SgZ_LcR}QkSqH{LxOFRLMHbAPFHjDRAf@HB@"},"summary":"","warnings":["Le calcul d'itinéraires piétons est en bêta. Faites attention – Cet itinéraire n'est peut-être pas complètement aménagé pour les piétons."],"waypoint_order":[]},{"bounds":{"northeast":{"lat":48.8752566,"lng":2.3843328},"southwest":{"lat":48.8483127,"lng":2.3228933}},"copyrights":"Données cartographiques ©2016 Google","legs":[{"arrival_time":{"text":"10:43","time_zone":"Europe/Paris","value":1472719380},"departure_time":{"text":"10:00","time_zone":"Europe/Paris","value":1472716849},"distance":{"text":"6,4 km","value":6397},"duration":{"text":"42 minutes","value":2531},"end_address":"73 Rue d'Anjou, 75008 Paris, France","end_location":{"lat":48.8748221,"lng":2.3228933},"start_address":"32-34 Rue de Chaligny, 75012 Paris, France","start_location":{"lat":48.8483127,"lng":2.3840151},"steps":[{"distance":{"text":"0,3 km","value":258},"duration":{"text":"3 minutes","value":191},"end_location":{"lat":48.850286,"lng":2.383753},"html_instructions":"Marcher jusqu'à Hôpital Saint-Antoine","polyline":{"points":"}tciHcspMcIw@EAGAC?CAU?Cp@GbAOC?@"},"start_location":{"lat":48.8483127,"lng":2.3840151},"steps":[{"distance":{"text":"0,2 km","value":206},"duration":{"text":"2 minutes","value":149},"end_location":{"lat":48.850151,"lng":2.3843328},"html_instructions":"Prendre la direction <b>nord</b> sur <b>Rue de Chaligny</b> vers <b>Rue du Faubourg Saint-Antoine</b>","polyline":{"points":"}tciHcspMcIw@EAGAC?CAU?"},"start_location":{"lat":48.8483127,"lng":2.3840151},"travel_mode":"WALKING"},{"distance":{"text":"43 m","value":43},"duration":{"text":"1 minute","value":30},"end_location":{"lat":48.8502058,"lng":2.3837443},"html_instructions":"Prendre <b>à gauche</b> sur <b>Rue du Faubourg Saint-Antoine</b>","maneuver":"turn-left","polyline":{"points":"m`diHaupMCp@GbA"},"start_location":{"lat":48.850151,"lng":2.3843328},"travel_mode":"WALKING"},{"distance":{"text":"9 m","value":9},"duration":{"text":"1 minute","value":12},"end_location":{"lat":48.850286,"lng":2.383753},"html_instructions":"Tourner à <b>droite</b>","maneuver":"turn-right","polyline":{"points":"y`diHkqpMOC?@"},"start_location":{"lat":48.8502058,"lng":2.3837443},"travel_mode":"WALKING"}],"travel_mode":"WALKING"},{"distance":{"text":"1,2 km","value":1191},"duration":{"text":"4 minutes","value":240},"end_location":{"lat":48.853059,"lng":2.368325},"html_instructions":"Bus vers Saint-Germain-des-Prés","polyline":{"points":"iadiHmqpMkAvZ}B`PmChQ}E|PJjN"},"start_location":{"lat":48.850286,"lng":2.383753},"transit_details":{"arrival_stop":{"location":{"lat":48.853059,"lng":2.368325},"name":"Bastille - Rue Saint-Antoine"},"arrival_time":{"text":"10:08","time_zone":"Europe/Paris","value":1472717280},"departure_stop":{"location":{"lat":48.850286,"lng":2.383753},"name":"Hôpital Saint-Antoine"},"departure_time":{"text":"10:04","time_zone":"Europe/Paris","value":1472717040},"headsign":"Saint-Germain-des-Prés","line":{"agencies":[{"name":"STIF","url":"http://www.vianavigo.com/"}],"color":"#f21300","short_name":"86","text_color":"#ffffff","vehicle":{"icon":"//maps.gstatic.com/mapfiles/transit/iw2/6/bus2.png","name":"Bus","type":"BUS"}},"num_stops":5},"travel_mode":"TRANSIT"},{"distance":{"text":"0,1 km","value":105},"duration":{"text":"2 minutes","value":105},"end_location":{"lat":48.853859,"lng":2.369088},"html_instructions":"Marcher jusqu'à Bastille - Beaumarchais","polyline":{"points":"srdiH_qmM_DyC"},"start_location":{"lat":48.853059,"lng":2.368325},"steps":[{"distance":{"text":"0,1 km","value":105},"duration":{"text":"2 minutes","value":105},"end_location":{"lat":48.853859,"lng":2.369088},"polyline":{"points":"srdiH_qmM_DyC"},"start_location":{"lat":48.853059,"lng":2.368325},"travel_mode":"WALKING"}],"travel_mode":"WALKING"},{"distance":{"text":"4,6 km","value":4609},"duration":{"text":"22 minutes","value":1320},"end_location":{"lat":48.874624,"lng":2.325256},"html_instructions":"Bus vers Gare Saint-Lazare","polyline":{"points":"swdiHyumMoLbB{Fx@qNrBiQrCgMpFeFfCwKjTgDja@_BlNoGte@iCxXsAvXhBzQjB|ReGvQgGtM{EfN"},"start_location":{"lat":48.853859,"lng":2.369088},"transit_details":{"arrival_stop":{"location":{"lat":48.874624,"lng":2.325256},"name":"Gare Saint-Lazare"},"arrival_time":{"text":"10:40","time_zone":"Europe/Paris","value":1472719200},"departure_stop":{"location":{"lat":48.853859,"lng":2.369088},"name":"Bastille - Beaumarchais"},"departure_time":{"text":"10:18","time_zone":"Europe/Paris","value":1472717880},"headsign":"Gare Saint-Lazare","line":{"agencies":[{"name":"STIF","url":"http://www.vianavigo.com/"}],"color":"#e65100","short_name":"20","text_color":"#000000","vehicle":{"icon":"//maps.gstatic.com/mapfiles/transit/iw2/6/bus2.png","name":"Bus","type":"BUS"}},"num_stops":17},"travel_mode":"TRANSIT"},{"distance":{"text":"0,2 km","value":234},"duration":{"text":"3 minutes","value":180},"end_location":{"lat":48.8748221,"lng":2.3228933},"html_instructions":"Marcher jusqu'à 73 Rue d'Anjou, 75008 Paris, France","polyline":{"points":"kyhiH{ceMFNi@x@g@|@MNg@n@LzAHjDRAf@HB@"},"start_location":{"lat":48.874624,"lng":2.325256},"steps":[{"distance":{"text":"0,1 km","value":101},"duration":{"text":"1 minute","value":73},"end_location":{"lat":48.8752566,"lng":2.3242588},"html_instructions":"Prendre la direction <b>nord-ouest</b> sur <b>Rue de Rome</b> vers <b>Rue de l'Isly</b>","polyline":{"points":"kyhiH{ceMFNi@x@g@|@MNg@n@"},"start_location":{"lat":48.874624,"lng":2.325256},"travel_mode":"WALKING"},{"distance":{"text":"0,1 km","value":98},"duration":{"text":"1 minute","value":75},"end_location":{"lat":48.8751359,"lng":2.3229397},"html_instructions":"Prendre <b>à gauche</b> sur <b>Rue de la Pépinière</b>/<b>Place Gabriel Péri</b><div style=\"font-size:0.9em\">Continuer de suivre Rue de la Pépinière</div>","maneuver":"turn-left","polyline":{"points":"k}hiHs}dMLzAHjD"},"start_location":{"lat":48.8752566,"lng":2.3242588},"travel_mode":"WALKING"},{"distance":{"text":"35 m","value":35},"duration":{"text":"1 minute","value":32},"end_location":{"lat":48.8748221,"lng":2.3228933},"html_instructions":"Prendre <b>à gauche</b> sur <b>Rue d'Anjou</b><div style=\"font-size:0.9em\">Votre destination se trouvera sur la droite.</div>","maneuver":"turn-left","polyline":{"points":"s|hiHkudMRAf@HB@"},"start_location":{"lat":48.8751359,"lng":2.3229397},"travel_mode":"WALKING"}],"travel_mode":"WALKING"}],"traffic_speed_entry":[],"via_waypoint":[]}],"overview_polyline":{"points":"}tciHcspMuI{@YAKtBOAkAvZ}B`PmChQ}E|PJjN_DyCkT|CqNrBiQrCgMpFeFfCwKjTgDja@_BlNoGte@iCxXsAvXtExe@eGvQgGtM{EfNFNqAvBu@~@LzAHjDRAf@HB@"},"summary":"","warnings":["Le calcul d'itinéraires piétons est en bêta. Faites attention – Cet itinéraire n'est peut-être pas complètement aménagé pour les piétons."],"waypoint_order":[]},{"bounds":{"northeast":{"lat":48.8752566,"lng":2.3840151},"southwest":{"lat":48.8462666,"lng":2.3228933}},"copyrights":"Données cartographiques ©2016 Google","legs":[{"arrival_time":{"text":"10:58","time_zone":"Europe/Paris","value":1472720321},"departure_time":{"text":"10:13","time_zone":"Europe/Paris","value":1472717587},"distance":{"text":"6,1 km","value":6128},"duration":{"text":"46 minutes","value":2734},"end_address":"73 Rue d'Anjou, 75008 Paris, France","end_location":{"lat":48.8748221,"lng":2.3228933},"start_address":"32-34 Rue de Chaligny, 75012 Paris, France","start_location":{"lat":48.8483127,"lng":2.3840151},"steps":[{"distance":{"text":"0,6 km","value":636},"duration":{"text":"8 minutes","value":473},"end_location":{"lat":48.84645099999999,"lng":2.37735},"html_instructions":"Marcher jusqu'à Daumesnil - Diderot","polyline":{"points":"}tciHcspMbGn@J~APvCJdBHx@j@`LFz@FnANdC?DDz@BT?B@F@NDr@C?A@Q^KO"},"start_location":{"lat":48.8483127,"lng":2.3840151},"steps":[{"distance":{"text":"0,1 km","value":146},"duration":{"text":"2 minutes","value":105},"end_location":{"lat":48.8470063,"lng":2.3837823},"html_instructions":"Prendre la direction <b>sud</b> sur <b>Rue de Chaligny</b> vers <b>Boulevard Diderot</b>","polyline":{"points":"}tciHcspMbGn@"},"start_location":{"lat":48.8483127,"lng":2.3840151},"travel_mode":"WALKING"},{"distance":{"text":"0,5 km","value":471},"duration":{"text":"6 minutes","value":349},"end_location":{"lat":48.8462666,"lng":2.3774424},"html_instructions":"Prendre <b>à droite</b> sur <b>Boulevard Diderot</b>","maneuver":"turn-right","polyline":{"points":"ylciHsqpMJ~APvCJdBHx@j@`LFz@FnANdC?DDz@BT?B@F@NDr@"},"start_location":{"lat":48.8470063,"lng":2.3837823},"travel_mode":"WALKING"},{"distance":{"text":"19 m","value":19},"duration":{"text":"1 minute","value":19},"end_location":{"lat":48.84645099999999,"lng":2.37735},"html_instructions":"Tourner à <b>droite</b> à <b>Avenue Daumesnil</b><div style=\"font-size:0.9em\">Votre destination se trouvera sur la droite.</div>","maneuver":"turn-right","polyline":{"points":"ehciH_joMC?A@Q^KO"},"start_location":{"lat":48.8462666,"lng":2.3774424},"travel_mode":"WALKING"}],"travel_mode":"WALKING"},{"distance":{"text":"5,3 km","value":5285},"duration":{"text":"35 minutes","value":2100},"end_location":{"lat":48.874669,"lng":2.32467},"html_instructions":"Bus vers Gare Saint-Lazare","polyline":{"points":"iiciHmioMkKbYwWpUeH|AoLbBsIpEmBzSaKxVeDrI}Jv`@cCfP}ApKiClPmBtMaCvPuB`OeItZ_IhCmH~EuDnIgGtMeF|Q"},"start_location":{"lat":48.84645099999999,"lng":2.37735},"transit_details":{"arrival_stop":{"location":{"lat":48.874669,"lng":2.32467},"name":"Gare Saint-Lazare"},"arrival_time":{"text":"10:56","time_zone":"Europe/Paris","value":1472720160},"departure_stop":{"location":{"lat":48.84645099999999,"lng":2.37735},"name":"Daumesnil - Diderot"},"departure_time":{"text":"10:21","time_zone":"Europe/Paris","value":1472718060},"headsign":"Gare Saint-Lazare","line":{"agencies":[{"name":"STIF","url":"http://www.vianavigo.com/"}],"color":"#80deea","short_name":"29","text_color":"#000000","vehicle":{"icon":"//maps.gstatic.com/mapfiles/transit/iw2/6/bus2.png","name":"Bus","type":"BUS"}},"num_stops":21},"travel_mode":"TRANSIT"},{"distance":{"text":"0,2 km","value":207},"duration":{"text":"3 minutes","value":161},"end_location":{"lat":48.8748221,"lng":2.3228933},"html_instructions":"Marcher jusqu'à 73 Rue d'Anjou, 75008 Paris, France","polyline":{"points":"uyhiHe`eM@JYBO@G?E?C?E?MNg@n@LzAHjDRAf@HB@"},"start_location":{"lat":48.874669,"lng":2.32467},"steps":[{"distance":{"text":"36 m","value":36},"duration":{"text":"1 minute","value":26},"end_location":{"lat":48.8749895,"lng":2.324583},"html_instructions":"Prendre la direction <b>nord</b> sur <b>Rue de l'Arcade</b> vers <b>Rue de Rome</b>","polyline":{"points":"uyhiHe`eM@JYBO@G?E?C?E?"},"start_location":{"lat":48.874669,"lng":2.32467},"travel_mode":"WALKING"},{"distance":{"text":"38 m","value":38},"duration":{"text":"1 minute","value":28},"end_location":{"lat":48.8752566,"lng":2.3242588},"html_instructions":"Prendre légèrement <b>à gauche</b> sur <b>Rue de Rome</b>","maneuver":"turn-slight-left","polyline":{"points":"u{hiHs_eMMNg@n@"},"start_location":{"lat":48.8749895,"lng":2.324583},"travel_mode":"WALKING"},{"distance":{"text":"0,1 km","value":98},"duration":{"text":"1 minute","value":75},"end_location":{"lat":48.8751359,"lng":2.3229397},"html_instructions":"Prendre <b>à gauche</b> sur <b>Rue de la Pépinière</b>/<b>Place Gabriel Péri</b><div style=\"font-size:0.9em\">Continuer de suivre Rue de la Pépinière</div>","maneuver":"turn-left","polyline":{"points":"k}hiHs}dMLzAHjD"},"start_location":{"lat":48.8752566,"lng":2.3242588},"travel_mode":"WALKING"},{"distance":{"text":"35 m","value":35},"duration":{"text":"1 minute","value":32},"end_location":{"lat":48.8748221,"lng":2.3228933},"html_instructions":"Prendre <b>à gauche</b> sur <b>Rue d'Anjou</b><div style=\"font-size:0.9em\">Votre destination se trouvera sur la droite.</div>","maneuver":"turn-left","polyline":{"points":"s|hiHkudMRAf@HB@"},"start_location":{"lat":48.8751359,"lng":2.3229397},"travel_mode":"WALKING"}],"travel_mode":"WALKING"}],"traffic_speed_entry":[],"via_waypoint":[]}],"overview_polyline":{"points":"}tciHcspMbGn@J~A\\|FdAfRb@lHE@Q^KOkKbYwWpUeH|AoLbBsIpEmBzSgPla@}Jv`@cCfPgF~\\oFl_@uB`OeItZ_IhCmH~EuDnIgGtMeF|Q@Ji@DW?u@~@LzAHjDRAf@HB@"},"summary":"","warnings":["Le calcul d'itinéraires piétons est en bêta. Faites attention – Cet itinéraire n'est peut-être pas complètement aménagé pour les piétons."],"waypoint_order":[]}],"status":"OK"},"gobs":{"geocoded_waypoints":[{"geocoder_status":"OK","place_id":"EiozMi0zNCBSdWUgZGUgQ2hhbGlnbnksIDc1MDEyIFBhcmlzLCBGcmFuY2U","types":["route","street_address"]},{"geocoder_status":"OK","place_id":"ChIJS8pekPJx5kcRxS0S3NXQsW4","types":["street_address"]}],"routes":[{"bounds":{"northeast":{"lat":48.8483127,"lng":2.3840151},"southwest":{"lat":48.8362501,"lng":2.3548511}},"copyrights":"Données cartographiques ©2016 Google","legs":[{"arrival_time":{"text":"10:28","time_zone":"Europe/Paris","value":1472718526},"departure_time":{"text":"10:05","time_zone":"Europe/Paris","value":1472717156},"distance":{"text":"3,0 km","value":3027},"duration":{"text":"23 minutes","value":1370},"end_address":"73 Boulevard Saint-Marcel, 75005 Paris, France","end_location":{"lat":48.8377748,"lng":2.3548511},"start_address":"32-34 Rue de Chaligny, 75012 Paris, France","start_location":{"lat":48.8483127,"lng":2.3840151},"steps":[{"distance":{"text":"0,3 km","value":330},"duration":{"text":"4 minutes","value":243},"end_location":{"lat":48.84681800000001,"lng":2.381285},"html_instructions":"Marcher jusqu'à Hôpital Saint-Antoine","polyline":{"points":"}tciHcspMbGn@J~APvCJdBHx@FtAUD"},"start_location":{"lat":48.8483127,"lng":2.3840151},"steps":[{"distance":{"text":"0,1 km","value":146},"duration":{"text":"2 minutes","value":105},"end_location":{"lat":48.8470063,"lng":2.3837823},"html_instructions":"Prendre la direction <b>sud</b> sur <b>Rue de Chaligny</b> vers <b>Boulevard Diderot</b>","polyline":{"points":"}tciHcspMbGn@"},"start_location":{"lat":48.8483127,"lng":2.3840151},"travel_mode":"WALKING"},{"distance":{"text":"0,2 km","value":184},"duration":{"text":"2 minutes","value":138},"end_location":{"lat":48.84681800000001,"lng":2.381285},"html_instructions":"Prendre <b>à droite</b> sur <b>Boulevard Diderot</b><div style=\"font-size:0.9em\">Votre destination se trouvera sur la droite.</div>","maneuver":"turn-right","polyline":{"points":"ylciHsqpMJ~APvCJdBHx@FtAUD"},"start_location":{"lat":48.8470063,"lng":2.3837823},"travel_mode":"WALKING"}],"travel_mode":"WALKING"},{"distance":{"text":"2,2 km","value":2207},"duration":{"text":"13 minutes","value":780},"end_location":{"lat":48.83629999999999,"lng":2.358907},"html_instructions":"Bus vers Laplace RER","polyline":{"points":"skciH_bpMhApWxCbe@v@dOfM~[bWfQnQtL"},"start_location":{"lat":48.84681800000001,"lng":2.381285},"transit_details":{"arrival_stop":{"location":{"lat":48.83629999999999,"lng":2.358907},"name":"Jenner - Jeanne d'Arc"},"arrival_time":{"text":"10:23","time_zone":"Europe/Paris","value":1472718180},"departure_stop":{"location":{"lat":48.84681800000001,"lng":2.381285},"name":"Hôpital Saint-Antoine"},"departure_time":{"text":"10:10","time_zone":"Europe/Paris","value":1472717400},"headsign":"Laplace RER","line":{"agencies":[{"name":"STIF","url":"http://www.vianavigo.com/"}],"color":"#6e6e00","short_name":"57","text_color":"#ffffff","vehicle":{"icon":"//maps.gstatic.com/mapfiles/transit/iw2/6/bus2.png","name":"Bus","type":"BUS"}},"num_stops":6},"travel_mode":"TRANSIT"},{"distance":{"text":"0,5 km","value":490},"duration":{"text":"6 minutes","value":345},"end_location":{"lat":48.8377748,"lng":2.3548511},"html_instructions":"Marcher jusqu'à 73 Boulevard Saint-Marcel, 75005 Paris, France","polyline":{"points":"{iaiHevkMH]{@m@O\\GJCBIHOHaAlAiA~AaBbCk@x@GDEBEBMDO@dAxEh@~B\\xA"},"start_location":{"lat":48.83629999999999,"lng":2.358907},"steps":[{"distance":{"text":"37 m","value":37},"duration":{"text":"1 minute","value":26},"end_location":{"lat":48.8365472,"lng":2.3592856},"html_instructions":"Prendre la direction <b>nord-est</b> sur <b>Boulevard de l'Hôpital</b> vers <b>Rue Jeanne d'Arc</b>","polyline":{"points":"{iaiHevkMH]{@m@"},"start_location":{"lat":48.83629999999999,"lng":2.358907},"travel_mode":"WALKING"},{"distance":{"text":"0,3 km","value":275},"duration":{"text":"3 minutes","value":182},"end_location":{"lat":48.8384846,"lng":2.3570328},"html_instructions":"Prendre <b>à gauche</b> sur <b>Rue Jeanne d'Arc</b>","maneuver":"turn-left","polyline":{"points":"mkaiHqxkMO\\GJCBIHOHaAlAiA~AaBbCk@x@GDEBEBMDO@"},"start_location":{"lat":48.8365472,"lng":2.3592856},"travel_mode":"WALKING"},{"distance":{"text":"0,2 km","value":178},"duration":{"text":"2 minutes","value":137},"end_location":{"lat":48.8377748,"lng":2.3548511},"html_instructions":"Prendre <b>à gauche</b> sur <b>Boulevard Saint-Marcel</b><div style=\"font-size:0.9em\">Votre destination se trouvera sur la gauche.</div>","maneuver":"turn-left","polyline":{"points":"owaiHmjkMdAxEh@~B\\xA"},"start_location":{"lat":48.8384846,"lng":2.3570328},"travel_mode":"WALKING"}],"travel_mode":"WALKING"}],"traffic_speed_entry":[],"via_waypoint":[]}],"overview_polyline":{"points":"}tciHcspMbGn@J~A\\|FPnCUDhApWxCbe@v@dOfM~[bWfQnQtLH]{@m@O\\KNYRaAlAiA~AmC|Da@RO@dAxEfAxE"},"summary":"","warnings":["Le calcul d'itinéraires piétons est en bêta. Faites attention – Cet itinéraire n'est peut-être pas complètement aménagé pour les piétons."],"waypoint_order":[]},{"bounds":{"northeast":{"lat":48.8483127,"lng":2.3840151},"southwest":{"lat":48.8362501,"lng":2.3548511}},"copyrights":"Données cartographiques ©2016 Google","legs":[{"arrival_time":{"text":"10:41","time_zone":"Europe/Paris","value":1472719306},"departure_time":{"text":"10:18","time_zone":"Europe/Paris","value":1472717936},"distance":{"text":"3,0 km","value":3027},"duration":{"text":"23 minutes","value":1370},"end_address":"73 Boulevard Saint-Marcel, 75005 Paris, France","end_location":{"lat":48.8377748,"lng":2.3548511},"start_address":"32-34 Rue de Chaligny, 75012 Paris, France","start_location":{"lat":48.8483127,"lng":2.3840151},"steps":[{"distance":{"text":"0,3 km","value":330},"duration":{"text":"4 minutes","value":243},"end_location":{"lat":48.84681800000001,"lng":2.381285},"html_instructions":"Marcher jusqu'à Hôpital Saint-Antoine","polyline":{"points":"}tciHcspMbGn@J~APvCJdBHx@FtAUD"},"start_location":{"lat":48.8483127,"lng":2.3840151},"steps":[{"distance":{"text":"0,1 km","value":146},"duration":{"text":"2 minutes","value":105},"end_location":{"lat":48.8470063,"lng":2.3837823},"html_instructions":"Prendre la direction <b>sud</b> sur <b>Rue de Chaligny</b> vers <b>Boulevard Diderot</b>","polyline":{"points":"}tciHcspMbGn@"},"start_location":{"lat":48.8483127,"lng":2.3840151},"travel_mode":"WALKING"},{"distance":{"text":"0,2 km","value":184},"duration":{"text":"2 minutes","value":138},"end_location":{"lat":48.84681800000001,"lng":2.381285},"html_instructions":"Prendre <b>à droite</b> sur <b>Boulevard Diderot</b><div style=\"font-size:0.9em\">Votre destination se trouvera sur la droite.</div>","maneuver":"turn-right","polyline":{"points":"ylciHsqpMJ~APvCJdBHx@FtAUD"},"start_location":{"lat":48.8470063,"lng":2.3837823},"travel_mode":"WALKING"}],"travel_mode":"WALKING"},{"distance":{"text":"2,2 km","value":2207},"duration":{"text":"13 minutes","value":780},"end_location":{"lat":48.83629999999999,"lng":2.358907},"html_instructions":"Bus vers Laplace RER","polyline":{"points":"skciH_bpMhApWxCbe@v@dOfM~[bWfQnQtL"},"start_location":{"lat":48.84681800000001,"lng":2.381285},"transit_details":{"arrival_stop":{"location":{"lat":48.83629999999999,"lng":2.358907},"name":"Jenner - Jeanne d'Arc"},"arrival_time":{"text":"10:36","time_zone":"Europe/Paris","value":1472718960},"departure_stop":{"location":{"lat":48.84681800000001,"lng":2.381285},"name":"Hôpital Saint-Antoine"},"departure_time":{"text":"10:23","time_zone":"Europe/Paris","value":1472718180},"headsign":"Laplace RER","line":{"agencies":[{"name":"STIF","url":"http://www.vianavigo.com/"}],"color":"#6e6e00","short_name":"57","text_color":"#ffffff","vehicle":{"icon":"//maps.gstatic.com/mapfiles/transit/iw2/6/bus2.png","name":"Bus","type":"BUS"}},"num_stops":6},"travel_mode":"TRANSIT"},{"distance":{"text":"0,5 km","value":490},"duration":{"text":"6 minutes","value":345},"end_location":{"lat":48.8377748,"lng":2.3548511},"html_instructions":"Marcher jusqu'à 73 Boulevard Saint-Marcel, 75005 Paris, France","polyline":{"points":"{iaiHevkMH]{@m@O\\GJCBIHOHaAlAiA~AaBbCk@x@GDEBEBMDO@dAxEh@~B\\xA"},"start_location":{"lat":48.83629999999999,"lng":2.358907},"steps":[{"distance":{"text":"37 m","value":37},"duration":{"text":"1 minute","value":26},"end_location":{"lat":48.8365472,"lng":2.3592856},"html_instructions":"Prendre la direction <b>nord-est</b> sur <b>Boulevard de l'Hôpital</b> vers <b>Rue Jeanne d'Arc</b>","polyline":{"points":"{iaiHevkMH]{@m@"},"start_location":{"lat":48.83629999999999,"lng":2.358907},"travel_mode":"WALKING"},{"distance":{"text":"0,3 km","value":275},"duration":{"text":"3 minutes","value":182},"end_location":{"lat":48.8384846,"lng":2.3570328},"html_instructions":"Prendre <b>à gauche</b> sur <b>Rue Jeanne d'Arc</b>","maneuver":"turn-left","polyline":{"points":"mkaiHqxkMO\\GJCBIHOHaAlAiA~AaBbCk@x@GDEBEBMDO@"},"start_location":{"lat":48.8365472,"lng":2.3592856},"travel_mode":"WALKING"},{"distance":{"text":"0,2 km","value":178},"duration":{"text":"2 minutes","value":137},"end_location":{"lat":48.8377748,"lng":2.3548511},"html_instructions":"Prendre <b>à gauche</b> sur <b>Boulevard Saint-Marcel</b><div style=\"font-size:0.9em\">Votre destination se trouvera sur la gauche.</div>","maneuver":"turn-left","polyline":{"points":"owaiHmjkMdAxEh@~B\\xA"},"start_location":{"lat":48.8384846,"lng":2.3570328},"travel_mode":"WALKING"}],"travel_mode":"WALKING"}],"traffic_speed_entry":[],"via_waypoint":[]}],"overview_polyline":{"points":"}tciHcspMbGn@J~A\\|FPnCUDhApWxCbe@v@dOfM~[bWfQnQtLH]{@m@O\\KNYRaAlAiA~AmC|Da@RO@dAxEfAxE"},"summary":"","warnings":["Le calcul d'itinéraires piétons est en bêta. Faites attention – Cet itinéraire n'est peut-être pas complètement aménagé pour les piétons."],"waypoint_order":[]},{"bounds":{"northeast":{"lat":48.853122,"lng":2.3843328},"southwest":{"lat":48.8377748,"lng":2.3548511}},"copyrights":"Données cartographiques ©2016 Google","legs":[{"arrival_time":{"text":"10:27","time_zone":"Europe/Paris","value":1472718451},"departure_time":{"text":"10:00","time_zone":"Europe/Paris","value":1472716849},"distance":{"text":"3,9 km","value":3867},"duration":{"text":"27 minutes","value":1602},"end_address":"73 Boulevard Saint-Marcel, 75005 Paris, France","end_location":{"lat":48.8377748,"lng":2.3548511},"start_address":"32-34 Rue de Chaligny, 75012 Paris, France","start_location":{"lat":48.8483127,"lng":2.3840151},"steps":[{"distance":{"text":"0,3 km","value":258},"duration":{"text":"3 minutes","value":191},"end_location":{"lat":48.850286,"lng":2.383753},"html_instructions":"Marcher jusqu'à Hôpital Saint-Antoine","polyline":{"points":"}tciHcspMcIw@EAGAC?CAU?Cp@GbAOC?@"},"start_location":{"lat":48.8483127,"lng":2.3840151},"steps":[{"distance":{"text":"0,2 km","value":206},"duration":{"text":"2 minutes","value":149},"end_location":{"lat":48.850151,"lng":2.3843328},"html_instructions":"Prendre la direction <b>nord</b> sur <b>Rue de Chaligny</b> vers <b>Rue du Faubourg Saint-Antoine</b>","polyline":{"points":"}tciHcspMcIw@EAGAC?CAU?"},"start_location":{"lat":48.8483127,"lng":2.3840151},"travel_mode":"WALKING"},{"distance":{"text":"43 m","value":43},"duration":{"text":"1 minute","value":30},"end_location":{"lat":48.8502058,"lng":2.3837443},"html_instructions":"Prendre <b>à gauche</b> sur <b>Rue du Faubourg Saint-Antoine</b>","maneuver":"turn-left","polyline":{"points":"m`diHaupMCp@GbA"},"start_location":{"lat":48.850151,"lng":2.3843328},"travel_mode":"WALKING"},{"distance":{"text":"9 m","value":9},"duration":{"text":"1 minute","value":12},"end_location":{"lat":48.850286,"lng":2.383753},"html_instructions":"Tourner à <b>droite</b>","maneuver":"turn-right","polyline":{"points":"y`diHkqpMOC?@"},"start_location":{"lat":48.8502058,"lng":2.3837443},"travel_mode":"WALKING"}],"travel_mode":"WALKING"},{"distance":{"text":"1,2 km","value":1191},"duration":{"text":"4 minutes","value":240},"end_location":{"lat":48.853059,"lng":2.368325},"html_instructions":"Bus vers Saint-Germain-des-Prés","polyline":{"points":"iadiHmqpMkAvZ}B`PmChQ}E|PJjN"},"start_location":{"lat":48.850286,"lng":2.383753},"transit_details":{"arrival_stop":{"location":{"lat":48.853059,"lng":2.368325},"name":"Bastille - Rue Saint-Antoine"},"arrival_time":{"text":"10:08","time_zone":"Europe/Paris","value":1472717280},"departure_stop":{"location":{"lat":48.850286,"lng":2.383753},"name":"Hôpital Saint-Antoine"},"departure_time":{"text":"10:04","time_zone":"Europe/Paris","value":1472717040},"headsign":"Saint-Germain-des-Prés","line":{"agencies":[{"name":"STIF","url":"http://www.vianavigo.com/"}],"color":"#f21300","short_name":"86","text_color":"#ffffff","vehicle":{"icon":"//maps.gstatic.com/mapfiles/transit/iw2/6/bus2.png","name":"Bus","type":"BUS"}},"num_stops":5},"travel_mode":"TRANSIT"},{"distance":{"text":"0,1 km","value":104},"duration":{"text":"2 minutes","value":104},"end_location":{"lat":48.85234,"lng":2.369251},"html_instructions":"Marcher jusqu'à Bastille","polyline":{"points":"srdiH_qmMnCyD"},"start_location":{"lat":48.853059,"lng":2.368325},"steps":[{"distance":{"text":"0,1 km","value":104},"duration":{"text":"2 minutes","value":104},"end_location":{"lat":48.85234,"lng":2.369251},"polyline":{"points":"srdiH_qmMnCyD"},"start_location":{"lat":48.853059,"lng":2.368325},"travel_mode":"WALKING"}],"travel_mode":"WALKING"},{"distance":{"text":"2,2 km","value":2195},"duration":{"text":"13 minutes","value":780},"end_location":{"lat":48.838269,"lng":2.356185},"html_instructions":"Bus vers Montparnasse 2 - Gare TGV","polyline":{"points":"cndiHyvmM~WsJrO[v@dOfM~[xSrRnHj\\"},"start_location":{"lat":48.85234,"lng":2.369251},"transit_details":{"arrival_stop":{"location":{"lat":48.838269,"lng":2.356185},"name":"Saint-Marcel - Jeanne d'Arc"},"arrival_time":{"text":"10:26","time_zone":"Europe/Paris","value":1472718360},"departure_stop":{"location":{"lat":48.85234,"lng":2.369251},"name":"Bastille"},"departure_time":{"text":"10:13","time_zone":"Europe/Paris","value":1472717580},"headsign":"Montparnasse 2 - Gare TGV","line":{"agencies":[{"name":"STIF","url":"http://www.vianavigo.com/"}],"color":"#dc9600","short_name":"91","text_color":"#000000","vehicle":{"icon":"//maps.gstatic.com/mapfiles/transit/iw2/6/bus2.png","name":"Bus","type":"BUS"}},"num_stops":6},"travel_mode":"TRANSIT"},{"distance":{"text":"0,1 km","value":119},"duration":{"text":"2 minutes","value":90},"end_location":{"lat":48.8377748,"lng":2.3548511},"html_instructions":"Marcher jusqu'à 73 Boulevard Saint-Marcel, 75005 Paris, France","polyline":{"points":"evaiHcekMC@BLDNBRPCh@~B\\xA"},"start_location":{"lat":48.838269,"lng":2.356185},"steps":[{"distance":{"text":"20 m","value":20},"duration":{"text":"1 minute","value":14},"end_location":{"lat":48.8382172,"lng":2.3559241},"html_instructions":"Prendre la direction <b>sud-ouest</b> vers <b>Rue des Fossés Saint-Marcel</b>","polyline":{"points":"evaiHcekMC@BLDNBR"},"start_location":{"lat":48.838269,"lng":2.356185},"travel_mode":"WALKING"},{"distance":{"text":"10 m","value":10},"duration":{"text":"1 minute","value":8},"end_location":{"lat":48.8381275,"lng":2.3559398},"html_instructions":"Prendre <b>à gauche</b> sur <b>Rue des Fossés Saint-Marcel</b>","maneuver":"turn-left","polyline":{"points":"{uaiHockMPC"},"start_location":{"lat":48.8382172,"lng":2.3559241},"travel_mode":"WALKING"},{"distance":{"text":"89 m","value":89},"duration":{"text":"1 minute","value":68},"end_location":{"lat":48.8377748,"lng":2.3548511},"html_instructions":"Prendre <b>à droite</b> sur <b>Boulevard Saint-Marcel</b><div style=\"font-size:0.9em\">Votre destination se trouvera sur la gauche.</div>","maneuver":"turn-right","polyline":{"points":"iuaiHsckMh@~B\\xA"},"start_location":{"lat":48.8381275,"lng":2.3559398},"travel_mode":"WALKING"}],"travel_mode":"WALKING"}],"traffic_speed_entry":[],"via_waypoint":[]}],"overview_polyline":{"points":"}tciHcspMuI{@YAKtBOAkAvZ}B`PmChQ}E|PJjNnCyD~WsJrO[v@dOfM~[xSrRnHj\\C@BLHb@PCh@~B\\xA"},"summary":"","warnings":["Le calcul d'itinéraires piétons est en bêta. Faites attention – Cet itinéraire n'est peut-être pas complètement aménagé pour les piétons."],"waypoint_order":[]},{"bounds":{"northeast":{"lat":48.853122,"lng":2.3843328},"southwest":{"lat":48.8377748,"lng":2.35439}},"copyrights":"Données cartographiques ©2016 Google","legs":[{"arrival_time":{"text":"10:34","time_zone":"Europe/Paris","value":1472718898},"departure_time":{"text":"10:00","time_zone":"Europe/Paris","value":1472716849},"distance":{"text":"4,0 km","value":3990},"duration":{"text":"34 minutes","value":2049},"end_address":"73 Boulevard Saint-Marcel, 75005 Paris, France","end_location":{"lat":48.8377748,"lng":2.3548511},"start_address":"32-34 Rue de Chaligny, 75012 Paris, France","start_location":{"lat":48.8483127,"lng":2.3840151},"steps":[{"distance":{"text":"0,3 km","value":258},"duration":{"text":"3 minutes","value":191},"end_location":{"lat":48.850286,"lng":2.383753},"html_instructions":"Marcher jusqu'à Hôpital Saint-Antoine","polyline":{"points":"}tciHcspMcIw@EAGAC?CAU?Cp@GbAOC?@"},"start_location":{"lat":48.8483127,"lng":2.3840151},"steps":[{"distance":{"text":"0,2 km","value":206},"duration":{"text":"2 minutes","value":149},"end_location":{"lat":48.850151,"lng":2.3843328},"html_instructions":"Prendre la direction <b>nord</b> sur <b>Rue de Chaligny</b> vers <b>Rue du Faubourg Saint-Antoine</b>","polyline":{"points":"}tciHcspMcIw@EAGAC?CAU?"},"start_location":{"lat":48.8483127,"lng":2.3840151},"travel_mode":"WALKING"},{"distance":{"text":"43 m","value":43},"duration":{"text":"1 minute","value":30},"end_location":{"lat":48.8502058,"lng":2.3837443},"html_instructions":"Prendre <b>à gauche</b> sur <b>Rue du Faubourg Saint-Antoine</b>","maneuver":"turn-left","polyline":{"points":"m`diHaupMCp@GbA"},"start_location":{"lat":48.850151,"lng":2.3843328},"travel_mode":"WALKING"},{"distance":{"text":"9 m","value":9},"duration":{"text":"1 minute","value":12},"end_location":{"lat":48.850286,"lng":2.383753},"html_instructions":"Tourner à <b>droite</b>","maneuver":"turn-right","polyline":{"points":"y`diHkqpMOC?@"},"start_location":{"lat":48.8502058,"lng":2.3837443},"travel_mode":"WALKING"}],"travel_mode":"WALKING"},{"distance":{"text":"2,2 km","value":2235},"duration":{"text":"9 minutes","value":540},"end_location":{"lat":48.848991,"lng":2.355467},"html_instructions":"Bus vers Saint-Germain-des-Prés","polyline":{"points":"iadiHmqpMkAvZ}B`PmChQ}E|PJjNnBdJxElU~ExUbGzV"},"start_location":{"lat":48.850286,"lng":2.383753},"transit_details":{"arrival_stop":{"location":{"lat":48.848991,"lng":2.355467},"name":"Institut du Monde Arabe"},"arrival_time":{"text":"10:13","time_zone":"Europe/Paris","value":1472717580},"departure_stop":{"location":{"lat":48.850286,"lng":2.383753},"name":"Hôpital Saint-Antoine"},"departure_time":{"text":"10:04","time_zone":"Europe/Paris","value":1472717040},"headsign":"Saint-Germain-des-Prés","line":{"agencies":[{"name":"STIF","url":"http://www.vianavigo.com/"}],"color":"#f21300","short_name":"86","text_color":"#ffffff","vehicle":{"icon":"//maps.gstatic.com/mapfiles/transit/iw2/6/bus2.png","name":"Bus","type":"BUS"}},"num_stops":9},"travel_mode":"TRANSIT"},{"distance":{"text":"17 m","value":17},"duration":{"text":"1 minute","value":13},"end_location":{"lat":48.849108,"lng":2.355631},"html_instructions":"Marcher jusqu'à Institut du Monde Arabe","polyline":{"points":"eyciHu`kMW_@"},"start_location":{"lat":48.848991,"lng":2.355467},"steps":[{"distance":{"text":"17 m","value":17},"duration":{"text":"1 minute","value":13},"end_location":{"lat":48.849108,"lng":2.355631},"polyline":{"points":"eyciHu`kMW_@"},"start_location":{"lat":48.848991,"lng":2.355467},"travel_mode":"WALKING"}],"travel_mode":"WALKING"},{"distance":{"text":"1,2 km","value":1245},"duration":{"text":"6 minutes","value":360},"end_location":{"lat":48.838161,"lng":2.356512},"html_instructions":"Bus vers Stade Charlety-Porte de Gentilly","polyline":{"points":"}yciHuakMzPvFtMuAzPaF~PoB"},"start_location":{"lat":48.849108,"lng":2.355631},"transit_details":{"arrival_stop":{"location":{"lat":48.838161,"lng":2.356512},"name":"Saint-Marcel - Jeanne d'Arc"},"arrival_time":{"text":"10:32","time_zone":"Europe/Paris","value":1472718720},"departure_stop":{"location":{"lat":48.849108,"lng":2.355631},"name":"Institut du Monde Arabe"},"departure_time":{"text":"10:26","time_zone":"Europe/Paris","value":1472718360},"headsign":"Stade Charlety-Porte de Gentilly","line":{"agencies":[{"name":"STIF","url":"http://www.vianavigo.com/"}],"color":"#ff80ab","short_name":"67","text_color":"#000000","vehicle":{"icon":"//maps.gstatic.com/mapfiles/transit/iw2/6/bus2.png","name":"Bus","type":"BUS"}},"num_stops":4},"travel_mode":"TRANSIT"},{"distance":{"text":"0,2 km","value":235},"duration":{"text":"3 minutes","value":177},"end_location":{"lat":48.8377748,"lng":2.3548511},"html_instructions":"Marcher jusqu'à 73 Boulevard Saint-Marcel, 75005 Paris, France","polyline":{"points":"ouaiHegkMIFe@qBO@dAxEh@~B\\xA"},"start_location":{"lat":48.838161,"lng":2.356512},"steps":[{"distance":{"text":"47 m","value":47},"duration":{"text":"1 minute","value":34},"end_location":{"lat":48.8383993,"lng":2.357042},"html_instructions":"Prendre la direction <b>nord-est</b> vers <b>Rue Jeanne d'Arc</b>","polyline":{"points":"ouaiHegkMIFe@qB"},"start_location":{"lat":48.838161,"lng":2.356512},"travel_mode":"WALKING"},{"distance":{"text":"10 m","value":10},"duration":{"text":"1 minute","value":6},"end_location":{"lat":48.8384846,"lng":2.3570328},"html_instructions":"Prendre <b>à gauche</b> sur <b>Rue Jeanne d'Arc</b>","maneuver":"turn-left","polyline":{"points":"_waiHojkMO@"},"start_location":{"lat":48.8383993,"lng":2.357042},"travel_mode":"WALKING"},{"distance":{"text":"0,2 km","value":178},"duration":{"text":"2 minutes","value":137},"end_location":{"lat":48.8377748,"lng":2.3548511},"html_instructions":"Prendre <b>à gauche</b> sur <b>Boulevard Saint-Marcel</b><div style=\"font-size:0.9em\">Votre destination se trouvera sur la gauche.</div>","maneuver":"turn-left","polyline":{"points":"owaiHmjkMdAxEh@~B\\xA"},"start_location":{"lat":48.8384846,"lng":2.3570328},"travel_mode":"WALKING"}],"travel_mode":"WALKING"}],"traffic_speed_entry":[],"via_waypoint":[]}],"overview_polyline":{"points":"}tciHcspMuI{@YAKtBOAkAvZ}B`PmChQ}E|PJjNnBdJxLfl@bGzVW_@zPvFtMuAzPaF~PoBIFe@qBO@dAxEfAxE"},"summary":"","warnings":["Le calcul d'itinéraires piétons est en bêta. Faites attention – Cet itinéraire n'est peut-être pas complètement aménagé pour les piétons."],"waypoint_order":[]}],"status":"OK"}},null,{"origin":{"lat":2.39955184483342,"lng":48.82046894173979},"taff":{"geocoded_waypoints":[{"geocoder_status":"OK","place_id":"ChIJgRpBtlFy5kcRkv6sSNf1k7g","types":["route"]},{"geocoder_status":"OK","place_id":"ChIJc5sm28pv5kcR0cpsawDOfSg","types":["street_address"]}],"routes":[{"bounds":{"northeast":{"lat":48.875442,"lng":2.4124998},"southwest":{"lat":48.81759630000001,"lng":2.32026}},"copyrights":"Données cartographiques ©2016 Google","legs":[{"arrival_time":{"text":"11:05","time_zone":"Europe/Paris","value":1472720759},"departure_time":{"text":"10:04","time_zone":"Europe/Paris","value":1472717068},"distance":{"text":"11,8 km","value":11777},"duration":{"text":"1 heure 2 min","value":3691},"end_address":"73 Rue d'Anjou, 75008 Paris, France","end_location":{"lat":48.8748221,"lng":2.3228933},"start_address":"Autoroute de l'Est, 94220 Charenton-le-Pont, France","start_location":{"lat":48.8208272,"lng":2.3998548},"steps":[{"distance":{"text":"1,3 km","value":1253},"duration":{"text":"16 minutes","value":931},"end_location":{"lat":48.818995,"lng":2.411},"html_instructions":"Marcher jusqu'à Victor Hugo","polyline":{"points":"ei~hHavsMT{@Lc@R_AJc@FYDMFI@CJOFSH]v@yDf@iCd@iCBOHw@Hq@D_@DYD_@`A}FdAeGBQR{AFg@D[BY@_@Fg@Hk@TuA\\cCHo@NcAFe@BODUt@}FIE]M]MWEe@~DGf@AHIh@Gl@?AAA?A?AA??A?AAAAAAAAAAAA?A?AAA?A?A@A?A??@A?A??@A??@A??@A@?@A@?@A@?@?@?@A@?@?@?@?@?@?@?@?@?@@@?@?@SMu@m@A@"},"start_location":{"lat":48.8208272,"lng":2.3998548},"steps":[{"distance":{"text":"1,0 km","value":983},"duration":{"text":"12 minutes","value":707},"end_location":{"lat":48.81759630000001,"lng":2.4122952},"html_instructions":"Prendre la direction <b>sud-est</b> vers <b>Pont Martinet</b>","polyline":{"points":"ei~hHavsMT{@Lc@R_AJc@FYDMFI@CJOFSH]v@yDf@iCd@iCBOHw@Hq@D_@DYD_@`A}FdAeGBQR{AFg@D[BY@_@Fg@Hk@TuA\\cCHo@NcAFe@BODUt@}F"},"start_location":{"lat":48.8208272,"lng":2.3998548},"travel_mode":"WALKING"},{"distance":{"text":"54 m","value":54},"duration":{"text":"1 minute","value":41},"end_location":{"lat":48.8180661,"lng":2.4124998},"html_instructions":"Prendre <b>à gauche</b> sur <b>Pont Martinet</b>","maneuver":"turn-left","polyline":{"points":"_u}hH{cvMIE]M]MWE"},"start_location":{"lat":48.81759630000001,"lng":2.4122952},"travel_mode":"WALKING"},{"distance":{"text":"0,1 km","value":126},"duration":{"text":"2 minutes","value":94},"end_location":{"lat":48.8184015,"lng":2.4108531},"html_instructions":"Prendre <b>à gauche</b> sur <b>Quai des Carrières</b>/<b>D103</b>","maneuver":"turn-left","polyline":{"points":"}w}hHcevMe@~DGf@AHIh@Gl@"},"start_location":{"lat":48.8180661,"lng":2.4124998},"travel_mode":"WALKING"},{"distance":{"text":"90 m","value":90},"duration":{"text":"1 minute","value":89},"end_location":{"lat":48.818995,"lng":2.411},"html_instructions":"Au rond-point, prendre la <b>3e</b> sortie sur <b>Rue Victor Hugo</b>","maneuver":"roundabout-right","polyline":{"points":"_z}hHyzuM?AAA?A?AA??A?AAAAAAAAAAAA?A?AAA?A?A@A?A??@A?A??@A??@A??@A@?@A@?@A@?@?@?@A@?@?@?@?@?@?@?@?@?@@@?@?@SMu@m@A@"},"start_location":{"lat":48.8184015,"lng":2.4108531},"travel_mode":"WALKING"}],"travel_mode":"WALKING"},{"distance":{"text":"10,4 km","value":10380},"duration":{"text":"44 minutes","value":2640},"end_location":{"lat":48.875442,"lng":2.324207},"html_instructions":"Bus vers Gare Saint-Lazare","polyline":{"points":"w}}hHw{uMqApVeHf`@qGhTcOvYwSbYuV|GiKwAqK~ReN|X}Iy@aExUwOj\\iIb^bBlXaLlUuK|QaDrL}FxXiHvUyHfZoI|OqJxTsBhVgI~^uIb_@wD`SgZ_LcR}QkSqH{LxO"},"start_location":{"lat":48.818995,"lng":2.411},"transit_details":{"arrival_stop":{"location":{"lat":48.875442,"lng":2.324207},"name":"Gare Saint-Lazare"},"arrival_time":{"text":"11:04","time_zone":"Europe/Paris","value":1472720640},"departure_stop":{"location":{"lat":48.818995,"lng":2.411},"name":"Victor Hugo"},"departure_time":{"text":"10:20","time_zone":"Europe/Paris","value":1472718000},"headsign":"Gare Saint-Lazare","line":{"agencies":[{"name":"STIF","url":"http://www.vianavigo.com/"}],"color":"#a0006e","short_name":"24","text_color":"#ffffff","vehicle":{"icon":"//maps.gstatic.com/mapfiles/transit/iw2/6/bus2.png","name":"Bus","type":"BUS"}},"num_stops":30},"travel_mode":"TRANSIT"},{"distance":{"text":"0,1 km","value":144},"duration":{"text":"2 minutes","value":118},"end_location":{"lat":48.8748221,"lng":2.3228933},"html_instructions":"Marcher jusqu'à 73 Rue d'Anjou, 75008 Paris, France","polyline":{"points":"o~hiHi}dMFRLMHbAPFHjDRAf@HB@"},"start_location":{"lat":48.875442,"lng":2.324207},"steps":[{"distance":{"text":"10 m","value":10},"duration":{"text":"1 minute","value":6},"end_location":{"lat":48.8753272,"lng":2.3241783},"html_instructions":"Prendre la direction <b>sud-est</b> sur <b>Rue de Rome</b>","polyline":{"points":"o~hiHi}dMFRLM"},"start_location":{"lat":48.875442,"lng":2.324207},"travel_mode":"WALKING"},{"distance":{"text":"25 m","value":25},"duration":{"text":"1 minute","value":23},"end_location":{"lat":48.8752837,"lng":2.3238394},"html_instructions":"Tourner à <b>droite</b> vers <b>Rue de la Pépinière</b>","maneuver":"turn-right","polyline":{"points":"y}hiHc}dMHbA"},"start_location":{"lat":48.8753272,"lng":2.3241783},"travel_mode":"WALKING"},{"distance":{"text":"11 m","value":11},"duration":{"text":"1 minute","value":7},"end_location":{"lat":48.875186,"lng":2.3238002},"html_instructions":"Tourner à <b>gauche</b> vers <b>Rue de la Pépinière</b>","maneuver":"turn-left","polyline":{"points":"o}hiH_{dMPF"},"start_location":{"lat":48.8752837,"lng":2.3238394},"travel_mode":"WALKING"},{"distance":{"text":"63 m","value":63},"duration":{"text":"1 minute","value":50},"end_location":{"lat":48.8751359,"lng":2.3229397},"html_instructions":"Prendre <b>à droite</b> sur <b>Rue de la Pépinière</b>","maneuver":"turn-right","polyline":{"points":"}|hiHwzdMHjD"},"start_location":{"lat":48.875186,"lng":2.3238002},"travel_mode":"WALKING"},{"distance":{"text":"35 m","value":35},"duration":{"text":"1 minute","value":32},"end_location":{"lat":48.8748221,"lng":2.3228933},"html_instructions":"Prendre <b>à gauche</b> sur <b>Rue d'Anjou</b><div style=\"font-size:0.9em\">Votre destination se trouvera sur la droite.</div>","maneuver":"turn-left","polyline":{"points":"s|hiHkudMRAf@HB@"},"start_location":{"lat":48.8751359,"lng":2.3229397},"travel_mode":"WALKING"}],"travel_mode":"WALKING"}],"traffic_speed_entry":[],"via_waypoint":[]}],"overview_polyline":{"points":"ei~hHavsMbAcELg@HMRc@`AwElAsGLgAZkCfCcOVmBR}BdAmHd@iDz@sGg@Su@Sm@fFS~AEKIGK?GDGJAL@L?BiA{@sArVeHf`@qGhTcOvYwSbYuV|GiKwAqK~ReN|X}Iy@aExUwOj\\iIb^bBlXaLlUuK|QaDrL}FxXiHvUyHfZoI|OqJxTsBhVgI~^uIb_@wD`SgZ_LcR}QkSqH{LxOFRLMHbAPFHjDRAf@HB@"},"summary":"","warnings":["Le calcul d'itinéraires piétons est en bêta. Faites attention – Cet itinéraire n'est peut-être pas complètement aménagé pour les piétons."],"waypoint_order":[]},{"bounds":{"northeast":{"lat":48.875442,"lng":2.4124998},"southwest":{"lat":48.81759630000001,"lng":2.32026}},"copyrights":"Données cartographiques ©2016 Google","legs":[{"arrival_time":{"text":"11:17","time_zone":"Europe/Paris","value":1472721479},"departure_time":{"text":"10:16","time_zone":"Europe/Paris","value":1472717788},"distance":{"text":"11,8 km","value":11777},"duration":{"text":"1 heure 2 min","value":3691},"end_address":"73 Rue d'Anjou, 75008 Paris, France","end_location":{"lat":48.8748221,"lng":2.3228933},"start_address":"Autoroute de l'Est, 94220 Charenton-le-Pont, France","start_location":{"lat":48.8208272,"lng":2.3998548},"steps":[{"distance":{"text":"1,3 km","value":1253},"duration":{"text":"16 minutes","value":931},"end_location":{"lat":48.818995,"lng":2.411},"html_instructions":"Marcher jusqu'à Victor Hugo","polyline":{"points":"ei~hHavsMT{@Lc@R_AJc@FYDMFI@CJOFSH]v@yDf@iCd@iCBOHw@Hq@D_@DYD_@`A}FdAeGBQR{AFg@D[BY@_@Fg@Hk@TuA\\cCHo@NcAFe@BODUt@}FIE]M]MWEe@~DGf@AHIh@Gl@?AAA?A?AA??A?AAAAAAAAAAAA?A?AAA?A?A@A?A??@A?A??@A??@A??@A@?@A@?@A@?@?@?@A@?@?@?@?@?@?@?@?@?@@@?@?@SMu@m@A@"},"start_location":{"lat":48.8208272,"lng":2.3998548},"steps":[{"distance":{"text":"1,0 km","value":983},"duration":{"text":"12 minutes","value":707},"end_location":{"lat":48.81759630000001,"lng":2.4122952},"html_instructions":"Prendre la direction <b>sud-est</b> vers <b>Pont Martinet</b>","polyline":{"points":"ei~hHavsMT{@Lc@R_AJc@FYDMFI@CJOFSH]v@yDf@iCd@iCBOHw@Hq@D_@DYD_@`A}FdAeGBQR{AFg@D[BY@_@Fg@Hk@TuA\\cCHo@NcAFe@BODUt@}F"},"start_location":{"lat":48.8208272,"lng":2.3998548},"travel_mode":"WALKING"},{"distance":{"text":"54 m","value":54},"duration":{"text":"1 minute","value":41},"end_location":{"lat":48.8180661,"lng":2.4124998},"html_instructions":"Prendre <b>à gauche</b> sur <b>Pont Martinet</b>","maneuver":"turn-left","polyline":{"points":"_u}hH{cvMIE]M]MWE"},"start_location":{"lat":48.81759630000001,"lng":2.4122952},"travel_mode":"WALKING"},{"distance":{"text":"0,1 km","value":126},"duration":{"text":"2 minutes","value":94},"end_location":{"lat":48.8184015,"lng":2.4108531},"html_instructions":"Prendre <b>à gauche</b> sur <b>Quai des Carrières</b>/<b>D103</b>","maneuver":"turn-left","polyline":{"points":"}w}hHcevMe@~DGf@AHIh@Gl@"},"start_location":{"lat":48.8180661,"lng":2.4124998},"travel_mode":"WALKING"},{"distance":{"text":"90 m","value":90},"duration":{"text":"1 minute","value":89},"end_location":{"lat":48.818995,"lng":2.411},"html_instructions":"Au rond-point, prendre la <b>3e</b> sortie sur <b>Rue Victor Hugo</b>","maneuver":"roundabout-right","polyline":{"points":"_z}hHyzuM?AAA?A?AA??A?AAAAAAAAAAAA?A?AAA?A?A@A?A??@A?A??@A??@A??@A@?@A@?@A@?@?@?@A@?@?@?@?@?@?@?@?@?@@@?@?@SMu@m@A@"},"start_location":{"lat":48.8184015,"lng":2.4108531},"travel_mode":"WALKING"}],"travel_mode":"WALKING"},{"distance":{"text":"10,4 km","value":10380},"duration":{"text":"44 minutes","value":2640},"end_location":{"lat":48.875442,"lng":2.324207},"html_instructions":"Bus vers Gare Saint-Lazare","polyline":{"points":"w}}hHw{uMqApVeHf`@qGhTcOvYwSbYuV|GiKwAqK~ReN|X}Iy@aExUwOj\\iIb^bBlXaLlUuK|QaDrL}FxXiHvUyHfZoI|OqJxTsBhVgI~^uIb_@wD`SgZ_LcR}QkSqH{LxO"},"start_location":{"lat":48.818995,"lng":2.411},"transit_details":{"arrival_stop":{"location":{"lat":48.875442,"lng":2.324207},"name":"Gare Saint-Lazare"},"arrival_time":{"text":"11:16","time_zone":"Europe/Paris","value":1472721360},"departure_stop":{"location":{"lat":48.818995,"lng":2.411},"name":"Victor Hugo"},"departure_time":{"text":"10:32","time_zone":"Europe/Paris","value":1472718720},"headsign":"Gare Saint-Lazare","line":{"agencies":[{"name":"STIF","url":"http://www.vianavigo.com/"}],"color":"#a0006e","short_name":"24","text_color":"#ffffff","vehicle":{"icon":"//maps.gstatic.com/mapfiles/transit/iw2/6/bus2.png","name":"Bus","type":"BUS"}},"num_stops":30},"travel_mode":"TRANSIT"},{"distance":{"text":"0,1 km","value":144},"duration":{"text":"2 minutes","value":118},"end_location":{"lat":48.8748221,"lng":2.3228933},"html_instructions":"Marcher jusqu'à 73 Rue d'Anjou, 75008 Paris, France","polyline":{"points":"o~hiHi}dMFRLMHbAPFHjDRAf@HB@"},"start_location":{"lat":48.875442,"lng":2.324207},"steps":[{"distance":{"text":"10 m","value":10},"duration":{"text":"1 minute","value":6},"end_location":{"lat":48.8753272,"lng":2.3241783},"html_instructions":"Prendre la direction <b>sud-est</b> sur <b>Rue de Rome</b>","polyline":{"points":"o~hiHi}dMFRLM"},"start_location":{"lat":48.875442,"lng":2.324207},"travel_mode":"WALKING"},{"distance":{"text":"25 m","value":25},"duration":{"text":"1 minute","value":23},"end_location":{"lat":48.8752837,"lng":2.3238394},"html_instructions":"Tourner à <b>droite</b> vers <b>Rue de la Pépinière</b>","maneuver":"turn-right","polyline":{"points":"y}hiHc}dMHbA"},"start_location":{"lat":48.8753272,"lng":2.3241783},"travel_mode":"WALKING"},{"distance":{"text":"11 m","value":11},"duration":{"text":"1 minute","value":7},"end_location":{"lat":48.875186,"lng":2.3238002},"html_instructions":"Tourner à <b>gauche</b> vers <b>Rue de la Pépinière</b>","maneuver":"turn-left","polyline":{"points":"o}hiH_{dMPF"},"start_location":{"lat":48.8752837,"lng":2.3238394},"travel_mode":"WALKING"},{"distance":{"text":"63 m","value":63},"duration":{"text":"1 minute","value":50},"end_location":{"lat":48.8751359,"lng":2.3229397},"html_instructions":"Prendre <b>à droite</b> sur <b>Rue de la Pépinière</b>","maneuver":"turn-right","polyline":{"points":"}|hiHwzdMHjD"},"start_location":{"lat":48.875186,"lng":2.3238002},"travel_mode":"WALKING"},{"distance":{"text":"35 m","value":35},"duration":{"text":"1 minute","value":32},"end_location":{"lat":48.8748221,"lng":2.3228933},"html_instructions":"Prendre <b>à gauche</b> sur <b>Rue d'Anjou</b><div style=\"font-size:0.9em\">Votre destination se trouvera sur la droite.</div>","maneuver":"turn-left","polyline":{"points":"s|hiHkudMRAf@HB@"},"start_location":{"lat":48.8751359,"lng":2.3229397},"travel_mode":"WALKING"}],"travel_mode":"WALKING"}],"traffic_speed_entry":[],"via_waypoint":[]}],"overview_polyline":{"points":"ei~hHavsMbAcELg@HMRc@`AwElAsGLgAZkCfCcOVmBR}BdAmHd@iDz@sGg@Su@Sm@fFS~AEKIGK?GDGJAL@L?BiA{@sArVeHf`@qGhTcOvYwSbYuV|GiKwAqK~ReN|X}Iy@aExUwOj\\iIb^bBlXaLlUuK|QaDrL}FxXiHvUyHfZoI|OqJxTsBhVgI~^uIb_@wD`SgZ_LcR}QkSqH{LxOFRLMHbAPFHjDRAf@HB@"},"summary":"","warnings":["Le calcul d'itinéraires piétons est en bêta. Faites attention – Cet itinéraire n'est peut-être pas complètement aménagé pour les piétons."],"waypoint_order":[]},{"bounds":{"northeast":{"lat":48.875442,"lng":2.4124998},"southwest":{"lat":48.81759630000001,"lng":2.32026}},"copyrights":"Données cartographiques ©2016 Google","legs":[{"arrival_time":{"text":"11:29","time_zone":"Europe/Paris","value":1472722199},"departure_time":{"text":"10:28","time_zone":"Europe/Paris","value":1472718508},"distance":{"text":"11,8 km","value":11777},"duration":{"text":"1 heure 2 min","value":3691},"end_address":"73 Rue d'Anjou, 75008 Paris, France","end_location":{"lat":48.8748221,"lng":2.3228933},"start_address":"Autoroute de l'Est, 94220 Charenton-le-Pont, France","start_location":{"lat":48.8208272,"lng":2.3998548},"steps":[{"distance":{"text":"1,3 km","value":1253},"duration":{"text":"16 minutes","value":931},"end_location":{"lat":48.818995,"lng":2.411},"html_instructions":"Marcher jusqu'à Victor Hugo","polyline":{"points":"ei~hHavsMT{@Lc@R_AJc@FYDMFI@CJOFSH]v@yDf@iCd@iCBOHw@Hq@D_@DYD_@`A}FdAeGBQR{AFg@D[BY@_@Fg@Hk@TuA\\cCHo@NcAFe@BODUt@}FIE]M]MWEe@~DGf@AHIh@Gl@?AAA?A?AA??A?AAAAAAAAAAAA?A?AAA?A?A@A?A??@A?A??@A??@A??@A@?@A@?@A@?@?@?@A@?@?@?@?@?@?@?@?@?@@@?@?@SMu@m@A@"},"start_location":{"lat":48.8208272,"lng":2.3998548},"steps":[{"distance":{"text":"1,0 km","value":983},"duration":{"text":"12 minutes","value":707},"end_location":{"lat":48.81759630000001,"lng":2.4122952},"html_instructions":"Prendre la direction <b>sud-est</b> vers <b>Pont Martinet</b>","polyline":{"points":"ei~hHavsMT{@Lc@R_AJc@FYDMFI@CJOFSH]v@yDf@iCd@iCBOHw@Hq@D_@DYD_@`A}FdAeGBQR{AFg@D[BY@_@Fg@Hk@TuA\\cCHo@NcAFe@BODUt@}F"},"start_location":{"lat":48.8208272,"lng":2.3998548},"travel_mode":"WALKING"},{"distance":{"text":"54 m","value":54},"duration":{"text":"1 minute","value":41},"end_location":{"lat":48.8180661,"lng":2.4124998},"html_instructions":"Prendre <b>à gauche</b> sur <b>Pont Martinet</b>","maneuver":"turn-left","polyline":{"points":"_u}hH{cvMIE]M]MWE"},"start_location":{"lat":48.81759630000001,"lng":2.4122952},"travel_mode":"WALKING"},{"distance":{"text":"0,1 km","value":126},"duration":{"text":"2 minutes","value":94},"end_location":{"lat":48.8184015,"lng":2.4108531},"html_instructions":"Prendre <b>à gauche</b> sur <b>Quai des Carrières</b>/<b>D103</b>","maneuver":"turn-left","polyline":{"points":"}w}hHcevMe@~DGf@AHIh@Gl@"},"start_location":{"lat":48.8180661,"lng":2.4124998},"travel_mode":"WALKING"},{"distance":{"text":"90 m","value":90},"duration":{"text":"1 minute","value":89},"end_location":{"lat":48.818995,"lng":2.411},"html_instructions":"Au rond-point, prendre la <b>3e</b> sortie sur <b>Rue Victor Hugo</b>","maneuver":"roundabout-right","polyline":{"points":"_z}hHyzuM?AAA?A?AA??A?AAAAAAAAAAAA?A?AAA?A?A@A?A??@A?A??@A??@A??@A@?@A@?@A@?@?@?@A@?@?@?@?@?@?@?@?@?@@@?@?@SMu@m@A@"},"start_location":{"lat":48.8184015,"lng":2.4108531},"travel_mode":"WALKING"}],"travel_mode":"WALKING"},{"distance":{"text":"10,4 km","value":10380},"duration":{"text":"44 minutes","value":2640},"end_location":{"lat":48.875442,"lng":2.324207},"html_instructions":"Bus vers Gare Saint-Lazare","polyline":{"points":"w}}hHw{uMqApVeHf`@qGhTcOvYwSbYuV|GiKwAqK~ReN|X}Iy@aExUwOj\\iIb^bBlXaLlUuK|QaDrL}FxXiHvUyHfZoI|OqJxTsBhVgI~^uIb_@wD`SgZ_LcR}QkSqH{LxO"},"start_location":{"lat":48.818995,"lng":2.411},"transit_details":{"arrival_stop":{"location":{"lat":48.875442,"lng":2.324207},"name":"Gare Saint-Lazare"},"arrival_time":{"text":"11:28","time_zone":"Europe/Paris","value":1472722080},"departure_stop":{"location":{"lat":48.818995,"lng":2.411},"name":"Victor Hugo"},"departure_time":{"text":"10:44","time_zone":"Europe/Paris","value":1472719440},"headsign":"Gare Saint-Lazare","line":{"agencies":[{"name":"STIF","url":"http://www.vianavigo.com/"}],"color":"#a0006e","short_name":"24","text_color":"#ffffff","vehicle":{"icon":"//maps.gstatic.com/mapfiles/transit/iw2/6/bus2.png","name":"Bus","type":"BUS"}},"num_stops":30},"travel_mode":"TRANSIT"},{"distance":{"text":"0,1 km","value":144},"duration":{"text":"2 minutes","value":118},"end_location":{"lat":48.8748221,"lng":2.3228933},"html_instructions":"Marcher jusqu'à 73 Rue d'Anjou, 75008 Paris, France","polyline":{"points":"o~hiHi}dMFRLMHbAPFHjDRAf@HB@"},"start_location":{"lat":48.875442,"lng":2.324207},"steps":[{"distance":{"text":"10 m","value":10},"duration":{"text":"1 minute","value":6},"end_location":{"lat":48.8753272,"lng":2.3241783},"html_instructions":"Prendre la direction <b>sud-est</b> sur <b>Rue de Rome</b>","polyline":{"points":"o~hiHi}dMFRLM"},"start_location":{"lat":48.875442,"lng":2.324207},"travel_mode":"WALKING"},{"distance":{"text":"25 m","value":25},"duration":{"text":"1 minute","value":23},"end_location":{"lat":48.8752837,"lng":2.3238394},"html_instructions":"Tourner à <b>droite</b> vers <b>Rue de la Pépinière</b>","maneuver":"turn-right","polyline":{"points":"y}hiHc}dMHbA"},"start_location":{"lat":48.8753272,"lng":2.3241783},"travel_mode":"WALKING"},{"distance":{"text":"11 m","value":11},"duration":{"text":"1 minute","value":7},"end_location":{"lat":48.875186,"lng":2.3238002},"html_instructions":"Tourner à <b>gauche</b> vers <b>Rue de la Pépinière</b>","maneuver":"turn-left","polyline":{"points":"o}hiH_{dMPF"},"start_location":{"lat":48.8752837,"lng":2.3238394},"travel_mode":"WALKING"},{"distance":{"text":"63 m","value":63},"duration":{"text":"1 minute","value":50},"end_location":{"lat":48.8751359,"lng":2.3229397},"html_instructions":"Prendre <b>à droite</b> sur <b>Rue de la Pépinière</b>","maneuver":"turn-right","polyline":{"points":"}|hiHwzdMHjD"},"start_location":{"lat":48.875186,"lng":2.3238002},"travel_mode":"WALKING"},{"distance":{"text":"35 m","value":35},"duration":{"text":"1 minute","value":32},"end_location":{"lat":48.8748221,"lng":2.3228933},"html_instructions":"Prendre <b>à gauche</b> sur <b>Rue d'Anjou</b><div style=\"font-size:0.9em\">Votre destination se trouvera sur la droite.</div>","maneuver":"turn-left","polyline":{"points":"s|hiHkudMRAf@HB@"},"start_location":{"lat":48.8751359,"lng":2.3229397},"travel_mode":"WALKING"}],"travel_mode":"WALKING"}],"traffic_speed_entry":[],"via_waypoint":[]}],"overview_polyline":{"points":"ei~hHavsMbAcELg@HMRc@`AwElAsGLgAZkCfCcOVmBR}BdAmHd@iDz@sGg@Su@Sm@fFS~AEKIGK?GDGJAL@L?BiA{@sArVeHf`@qGhTcOvYwSbYuV|GiKwAqK~ReN|X}Iy@aExUwOj\\iIb^bBlXaLlUuK|QaDrL}FxXiHvUyHfZoI|OqJxTsBhVgI~^uIb_@wD`SgZ_LcR}QkSqH{LxOFRLMHbAPFHjDRAf@HB@"},"summary":"","warnings":["Le calcul d'itinéraires piétons est en bêta. Faites attention – Cet itinéraire n'est peut-être pas complètement aménagé pour les piétons."],"waypoint_order":[]},{"bounds":{"northeast":{"lat":48.875442,"lng":2.4124998},"southwest":{"lat":48.81759630000001,"lng":2.32026}},"copyrights":"Données cartographiques ©2016 Google","legs":[{"arrival_time":{"text":"11:41","time_zone":"Europe/Paris","value":1472722919},"departure_time":{"text":"10:40","time_zone":"Europe/Paris","value":1472719228},"distance":{"text":"11,8 km","value":11777},"duration":{"text":"1 heure 2 min","value":3691},"end_address":"73 Rue d'Anjou, 75008 Paris, France","end_location":{"lat":48.8748221,"lng":2.3228933},"start_address":"Autoroute de l'Est, 94220 Charenton-le-Pont, France","start_location":{"lat":48.8208272,"lng":2.3998548},"steps":[{"distance":{"text":"1,3 km","value":1253},"duration":{"text":"16 minutes","value":931},"end_location":{"lat":48.818995,"lng":2.411},"html_instructions":"Marcher jusqu'à Victor Hugo","polyline":{"points":"ei~hHavsMT{@Lc@R_AJc@FYDMFI@CJOFSH]v@yDf@iCd@iCBOHw@Hq@D_@DYD_@`A}FdAeGBQR{AFg@D[BY@_@Fg@Hk@TuA\\cCHo@NcAFe@BODUt@}FIE]M]MWEe@~DGf@AHIh@Gl@?AAA?A?AA??A?AAAAAAAAAAAA?A?AAA?A?A@A?A??@A?A??@A??@A??@A@?@A@?@A@?@?@?@A@?@?@?@?@?@?@?@?@?@@@?@?@SMu@m@A@"},"start_location":{"lat":48.8208272,"lng":2.3998548},"steps":[{"distance":{"text":"1,0 km","value":983},"duration":{"text":"12 minutes","value":707},"end_location":{"lat":48.81759630000001,"lng":2.4122952},"html_instructions":"Prendre la direction <b>sud-est</b> vers <b>Pont Martinet</b>","polyline":{"points":"ei~hHavsMT{@Lc@R_AJc@FYDMFI@CJOFSH]v@yDf@iCd@iCBOHw@Hq@D_@DYD_@`A}FdAeGBQR{AFg@D[BY@_@Fg@Hk@TuA\\cCHo@NcAFe@BODUt@}F"},"start_location":{"lat":48.8208272,"lng":2.3998548},"travel_mode":"WALKING"},{"distance":{"text":"54 m","value":54},"duration":{"text":"1 minute","value":41},"end_location":{"lat":48.8180661,"lng":2.4124998},"html_instructions":"Prendre <b>à gauche</b> sur <b>Pont Martinet</b>","maneuver":"turn-left","polyline":{"points":"_u}hH{cvMIE]M]MWE"},"start_location":{"lat":48.81759630000001,"lng":2.4122952},"travel_mode":"WALKING"},{"distance":{"text":"0,1 km","value":126},"duration":{"text":"2 minutes","value":94},"end_location":{"lat":48.8184015,"lng":2.4108531},"html_instructions":"Prendre <b>à gauche</b> sur <b>Quai des Carrières</b>/<b>D103</b>","maneuver":"turn-left","polyline":{"points":"}w}hHcevMe@~DGf@AHIh@Gl@"},"start_location":{"lat":48.8180661,"lng":2.4124998},"travel_mode":"WALKING"},{"distance":{"text":"90 m","value":90},"duration":{"text":"1 minute","value":89},"end_location":{"lat":48.818995,"lng":2.411},"html_instructions":"Au rond-point, prendre la <b>3e</b> sortie sur <b>Rue Victor Hugo</b>","maneuver":"roundabout-right","polyline":{"points":"_z}hHyzuM?AAA?A?AA??A?AAAAAAAAAAAA?A?AAA?A?A@A?A??@A?A??@A??@A??@A@?@A@?@A@?@?@?@A@?@?@?@?@?@?@?@?@?@@@?@?@SMu@m@A@"},"start_location":{"lat":48.8184015,"lng":2.4108531},"travel_mode":"WALKING"}],"travel_mode":"WALKING"},{"distance":{"text":"10,4 km","value":10380},"duration":{"text":"44 minutes","value":2640},"end_location":{"lat":48.875442,"lng":2.324207},"html_instructions":"Bus vers Gare Saint-Lazare","polyline":{"points":"w}}hHw{uMqApVeHf`@qGhTcOvYwSbYuV|GiKwAqK~ReN|X}Iy@aExUwOj\\iIb^bBlXaLlUuK|QaDrL}FxXiHvUyHfZoI|OqJxTsBhVgI~^uIb_@wD`SgZ_LcR}QkSqH{LxO"},"start_location":{"lat":48.818995,"lng":2.411},"transit_details":{"arrival_stop":{"location":{"lat":48.875442,"lng":2.324207},"name":"Gare Saint-Lazare"},"arrival_time":{"text":"11:40","time_zone":"Europe/Paris","value":1472722800},"departure_stop":{"location":{"lat":48.818995,"lng":2.411},"name":"Victor Hugo"},"departure_time":{"text":"10:56","time_zone":"Europe/Paris","value":1472720160},"headsign":"Gare Saint-Lazare","line":{"agencies":[{"name":"STIF","url":"http://www.vianavigo.com/"}],"color":"#a0006e","short_name":"24","text_color":"#ffffff","vehicle":{"icon":"//maps.gstatic.com/mapfiles/transit/iw2/6/bus2.png","name":"Bus","type":"BUS"}},"num_stops":30},"travel_mode":"TRANSIT"},{"distance":{"text":"0,1 km","value":144},"duration":{"text":"2 minutes","value":118},"end_location":{"lat":48.8748221,"lng":2.3228933},"html_instructions":"Marcher jusqu'à 73 Rue d'Anjou, 75008 Paris, France","polyline":{"points":"o~hiHi}dMFRLMHbAPFHjDRAf@HB@"},"start_location":{"lat":48.875442,"lng":2.324207},"steps":[{"distance":{"text":"10 m","value":10},"duration":{"text":"1 minute","value":6},"end_location":{"lat":48.8753272,"lng":2.3241783},"html_instructions":"Prendre la direction <b>sud-est</b> sur <b>Rue de Rome</b>","polyline":{"points":"o~hiHi}dMFRLM"},"start_location":{"lat":48.875442,"lng":2.324207},"travel_mode":"WALKING"},{"distance":{"text":"25 m","value":25},"duration":{"text":"1 minute","value":23},"end_location":{"lat":48.8752837,"lng":2.3238394},"html_instructions":"Tourner à <b>droite</b> vers <b>Rue de la Pépinière</b>","maneuver":"turn-right","polyline":{"points":"y}hiHc}dMHbA"},"start_location":{"lat":48.8753272,"lng":2.3241783},"travel_mode":"WALKING"},{"distance":{"text":"11 m","value":11},"duration":{"text":"1 minute","value":7},"end_location":{"lat":48.875186,"lng":2.3238002},"html_instructions":"Tourner à <b>gauche</b> vers <b>Rue de la Pépinière</b>","maneuver":"turn-left","polyline":{"points":"o}hiH_{dMPF"},"start_location":{"lat":48.8752837,"lng":2.3238394},"travel_mode":"WALKING"},{"distance":{"text":"63 m","value":63},"duration":{"text":"1 minute","value":50},"end_location":{"lat":48.8751359,"lng":2.3229397},"html_instructions":"Prendre <b>à droite</b> sur <b>Rue de la Pépinière</b>","maneuver":"turn-right","polyline":{"points":"}|hiHwzdMHjD"},"start_location":{"lat":48.875186,"lng":2.3238002},"travel_mode":"WALKING"},{"distance":{"text":"35 m","value":35},"duration":{"text":"1 minute","value":32},"end_location":{"lat":48.8748221,"lng":2.3228933},"html_instructions":"Prendre <b>à gauche</b> sur <b>Rue d'Anjou</b><div style=\"font-size:0.9em\">Votre destination se trouvera sur la droite.</div>","maneuver":"turn-left","polyline":{"points":"s|hiHkudMRAf@HB@"},"start_location":{"lat":48.8751359,"lng":2.3229397},"travel_mode":"WALKING"}],"travel_mode":"WALKING"}],"traffic_speed_entry":[],"via_waypoint":[]}],"overview_polyline":{"points":"ei~hHavsMbAcELg@HMRc@`AwElAsGLgAZkCfCcOVmBR}BdAmHd@iDz@sGg@Su@Sm@fFS~AEKIGK?GDGJAL@L?BiA{@sArVeHf`@qGhTcOvYwSbYuV|GiKwAqK~ReN|X}Iy@aExUwOj\\iIb^bBlXaLlUuK|QaDrL}FxXiHvUyHfZoI|OqJxTsBhVgI~^uIb_@wD`SgZ_LcR}QkSqH{LxOFRLMHbAPFHjDRAf@HB@"},"summary":"","warnings":["Le calcul d'itinéraires piétons est en bêta. Faites attention – Cet itinéraire n'est peut-être pas complètement aménagé pour les piétons."],"waypoint_order":[]}],"status":"OK"},"gobs":{"geocoded_waypoints":[{"geocoder_status":"OK","place_id":"ChIJgRpBtlFy5kcRkv6sSNf1k7g","types":["route"]},{"geocoder_status":"OK","place_id":"ChIJS8pekPJx5kcRxS0S3NXQsW4","types":["street_address"]}],"routes":[{"bounds":{"northeast":{"lat":48.845402,"lng":2.4124998},"southwest":{"lat":48.81759630000001,"lng":2.3548511}},"copyrights":"Données cartographiques ©2016 Google","legs":[{"arrival_time":{"text":"10:57","time_zone":"Europe/Paris","value":1472720251},"departure_time":{"text":"10:04","time_zone":"Europe/Paris","value":1472717068},"distance":{"text":"7,2 km","value":7246},"duration":{"text":"53 minutes","value":3183},"end_address":"73 Boulevard Saint-Marcel, 75005 Paris, France","end_location":{"lat":48.8377748,"lng":2.3548511},"start_address":"Autoroute de l'Est, 94220 Charenton-le-Pont, France","start_location":{"lat":48.8208272,"lng":2.3998548},"steps":[{"distance":{"text":"1,3 km","value":1253},"duration":{"text":"16 minutes","value":931},"end_location":{"lat":48.818995,"lng":2.411},"html_instructions":"Marcher jusqu'à Victor Hugo","polyline":{"points":"ei~hHavsMT{@Lc@R_AJc@FYDMFI@CJOFSH]v@yDf@iCd@iCBOHw@Hq@D_@DYD_@`A}FdAeGBQR{AFg@D[BY@_@Fg@Hk@TuA\\cCHo@NcAFe@BODUt@}FIE]M]MWEe@~DGf@AHIh@Gl@?AAA?A?AA??A?AAAAAAAAAAAA?A?AAA?A?A@A?A??@A?A??@A??@A??@A@?@A@?@A@?@?@?@A@?@?@?@?@?@?@?@?@?@@@?@?@SMu@m@A@"},"start_location":{"lat":48.8208272,"lng":2.3998548},"steps":[{"distance":{"text":"1,0 km","value":983},"duration":{"text":"12 minutes","value":707},"end_location":{"lat":48.81759630000001,"lng":2.4122952},"html_instructions":"Prendre la direction <b>sud-est</b> vers <b>Pont Martinet</b>","polyline":{"points":"ei~hHavsMT{@Lc@R_AJc@FYDMFI@CJOFSH]v@yDf@iCd@iCBOHw@Hq@D_@DYD_@`A}FdAeGBQR{AFg@D[BY@_@Fg@Hk@TuA\\cCHo@NcAFe@BODUt@}F"},"start_location":{"lat":48.8208272,"lng":2.3998548},"travel_mode":"WALKING"},{"distance":{"text":"54 m","value":54},"duration":{"text":"1 minute","value":41},"end_location":{"lat":48.8180661,"lng":2.4124998},"html_instructions":"Prendre <b>à gauche</b> sur <b>Pont Martinet</b>","maneuver":"turn-left","polyline":{"points":"_u}hH{cvMIE]M]MWE"},"start_location":{"lat":48.81759630000001,"lng":2.4122952},"travel_mode":"WALKING"},{"distance":{"text":"0,1 km","value":126},"duration":{"text":"2 minutes","value":94},"end_location":{"lat":48.8184015,"lng":2.4108531},"html_instructions":"Prendre <b>à gauche</b> sur <b>Quai des Carrières</b>/<b>D103</b>","maneuver":"turn-left","polyline":{"points":"}w}hHcevMe@~DGf@AHIh@Gl@"},"start_location":{"lat":48.8180661,"lng":2.4124998},"travel_mode":"WALKING"},{"distance":{"text":"90 m","value":90},"duration":{"text":"1 minute","value":89},"end_location":{"lat":48.818995,"lng":2.411},"html_instructions":"Au rond-point, prendre la <b>3e</b> sortie sur <b>Rue Victor Hugo</b>","maneuver":"roundabout-right","polyline":{"points":"_z}hHyzuM?AAA?A?AA??A?AAAAAAAAAAAA?A?AAA?A?A@A?A??@A?A??@A??@A??@A@?@A@?@A@?@?@?@A@?@?@?@?@?@?@?@?@?@@@?@?@SMu@m@A@"},"start_location":{"lat":48.8184015,"lng":2.4108531},"travel_mode":"WALKING"}],"travel_mode":"WALKING"},{"distance":{"text":"4,6 km","value":4631},"duration":{"text":"19 minutes","value":1140},"end_location":{"lat":48.845402,"lng":2.368661},"html_instructions":"Bus vers Gare Saint-Lazare","polyline":{"points":"w}}hHw{uMqApVeHf`@qGhTcOvYwSbYuV|GiKwAqK~ReN|X}Iy@aExUwOj\\iIb^"},"start_location":{"lat":48.818995,"lng":2.411},"transit_details":{"arrival_stop":{"location":{"lat":48.845402,"lng":2.368661},"name":"Pont d'Austerlitz - Quai de la Rapee"},"arrival_time":{"text":"10:39","time_zone":"Europe/Paris","value":1472719140},"departure_stop":{"location":{"lat":48.818995,"lng":2.411},"name":"Victor Hugo"},"departure_time":{"text":"10:20","time_zone":"Europe/Paris","value":1472718000},"headsign":"Gare Saint-Lazare","line":{"agencies":[{"name":"STIF","url":"http://www.vianavigo.com/"}],"color":"#a0006e","short_name":"24","text_color":"#ffffff","vehicle":{"icon":"//maps.gstatic.com/mapfiles/transit/iw2/6/bus2.png","name":"Bus","type":"BUS"}},"num_stops":13},"travel_mode":"TRANSIT"},{"distance":{"text":"1,2 km","value":1243},"duration":{"text":"8 minutes","value":480},"end_location":{"lat":48.838269,"lng":2.356185},"html_instructions":"Bus vers Montparnasse 2 - Gare TGV","polyline":{"points":"wbciHcsmMfM~[xSrRnHj\\"},"start_location":{"lat":48.845402,"lng":2.368661},"transit_details":{"arrival_stop":{"location":{"lat":48.838269,"lng":2.356185},"name":"Saint-Marcel - Jeanne d'Arc"},"arrival_time":{"text":"10:56","time_zone":"Europe/Paris","value":1472720160},"departure_stop":{"location":{"lat":48.845402,"lng":2.368661},"name":"Pont d'Austerlitz - Quai de la Rapee"},"departure_time":{"text":"10:48","time_zone":"Europe/Paris","value":1472719680},"headsign":"Montparnasse 2 - Gare TGV","line":{"agencies":[{"name":"STIF","url":"http://www.vianavigo.com/"}],"color":"#dc9600","short_name":"91","text_color":"#000000","vehicle":{"icon":"//maps.gstatic.com/mapfiles/transit/iw2/6/bus2.png","name":"Bus","type":"BUS"}},"num_stops":3},"travel_mode":"TRANSIT"},{"distance":{"text":"0,1 km","value":119},"duration":{"text":"2 minutes","value":90},"end_location":{"lat":48.8377748,"lng":2.3548511},"html_instructions":"Marcher jusqu'à 73 Boulevard Saint-Marcel, 75005 Paris, France","polyline":{"points":"evaiHcekMC@BLDNBRPCh@~B\\xA"},"start_location":{"lat":48.838269,"lng":2.356185},"steps":[{"distance":{"text":"20 m","value":20},"duration":{"text":"1 minute","value":14},"end_location":{"lat":48.8382172,"lng":2.3559241},"html_instructions":"Prendre la direction <b>sud-ouest</b> vers <b>Rue des Fossés Saint-Marcel</b>","polyline":{"points":"evaiHcekMC@BLDNBR"},"start_location":{"lat":48.838269,"lng":2.356185},"travel_mode":"WALKING"},{"distance":{"text":"10 m","value":10},"duration":{"text":"1 minute","value":8},"end_location":{"lat":48.8381275,"lng":2.3559398},"html_instructions":"Prendre <b>à gauche</b> sur <b>Rue des Fossés Saint-Marcel</b>","maneuver":"turn-left","polyline":{"points":"{uaiHockMPC"},"start_location":{"lat":48.8382172,"lng":2.3559241},"travel_mode":"WALKING"},{"distance":{"text":"89 m","value":89},"duration":{"text":"1 minute","value":68},"end_location":{"lat":48.8377748,"lng":2.3548511},"html_instructions":"Prendre <b>à droite</b> sur <b>Boulevard Saint-Marcel</b><div style=\"font-size:0.9em\">Votre destination se trouvera sur la gauche.</div>","maneuver":"turn-right","polyline":{"points":"iuaiHsckMh@~B\\xA"},"start_location":{"lat":48.8381275,"lng":2.3559398},"travel_mode":"WALKING"}],"travel_mode":"WALKING"}],"traffic_speed_entry":[],"via_waypoint":[]}],"overview_polyline":{"points":"ei~hHavsMbAcELg@HMRc@`AwElAsGLgAZkCfCcOVmBR}BdAmHd@iDz@sGg@Su@Sm@fFS~AEKIGK?GDGJAL@L?BiA{@sArVeHf`@qGhTcOvYwSbYuV|GiKwAqK~ReN|X}Iy@aExUwOj\\iIb^fM~[xSrRnHj\\C@H\\BRPCfAxE"},"summary":"","warnings":["Le calcul d'itinéraires piétons est en bêta. Faites attention – Cet itinéraire n'est peut-être pas complètement aménagé pour les piétons."],"waypoint_order":[]},{"bounds":{"northeast":{"lat":48.845402,"lng":2.4124998},"southwest":{"lat":48.81759630000001,"lng":2.3548511}},"copyrights":"Données cartographiques ©2016 Google","legs":[{"arrival_time":{"text":"11:05","time_zone":"Europe/Paris","value":1472720731},"departure_time":{"text":"10:16","time_zone":"Europe/Paris","value":1472717788},"distance":{"text":"7,2 km","value":7246},"duration":{"text":"49 minutes","value":2943},"end_address":"73 Boulevard Saint-Marcel, 75005 Paris, France","end_location":{"lat":48.8377748,"lng":2.3548511},"start_address":"Autoroute de l'Est, 94220 Charenton-le-Pont, France","start_location":{"lat":48.8208272,"lng":2.3998548},"steps":[{"distance":{"text":"1,3 km","value":1253},"duration":{"text":"16 minutes","value":931},"end_location":{"lat":48.818995,"lng":2.411},"html_instructions":"Marcher jusqu'à Victor Hugo","polyline":{"points":"ei~hHavsMT{@Lc@R_AJc@FYDMFI@CJOFSH]v@yDf@iCd@iCBOHw@Hq@D_@DYD_@`A}FdAeGBQR{AFg@D[BY@_@Fg@Hk@TuA\\cCHo@NcAFe@BODUt@}FIE]M]MWEe@~DGf@AHIh@Gl@?AAA?A?AA??A?AAAAAAAAAAAA?A?AAA?A?A@A?A??@A?A??@A??@A??@A@?@A@?@A@?@?@?@A@?@?@?@?@?@?@?@?@?@@@?@?@SMu@m@A@"},"start_location":{"lat":48.8208272,"lng":2.3998548},"steps":[{"distance":{"text":"1,0 km","value":983},"duration":{"text":"12 minutes","value":707},"end_location":{"lat":48.81759630000001,"lng":2.4122952},"html_instructions":"Prendre la direction <b>sud-est</b> vers <b>Pont Martinet</b>","polyline":{"points":"ei~hHavsMT{@Lc@R_AJc@FYDMFI@CJOFSH]v@yDf@iCd@iCBOHw@Hq@D_@DYD_@`A}FdAeGBQR{AFg@D[BY@_@Fg@Hk@TuA\\cCHo@NcAFe@BODUt@}F"},"start_location":{"lat":48.8208272,"lng":2.3998548},"travel_mode":"WALKING"},{"distance":{"text":"54 m","value":54},"duration":{"text":"1 minute","value":41},"end_location":{"lat":48.8180661,"lng":2.4124998},"html_instructions":"Prendre <b>à gauche</b> sur <b>Pont Martinet</b>","maneuver":"turn-left","polyline":{"points":"_u}hH{cvMIE]M]MWE"},"start_location":{"lat":48.81759630000001,"lng":2.4122952},"travel_mode":"WALKING"},{"distance":{"text":"0,1 km","value":126},"duration":{"text":"2 minutes","value":94},"end_location":{"lat":48.8184015,"lng":2.4108531},"html_instructions":"Prendre <b>à gauche</b> sur <b>Quai des Carrières</b>/<b>D103</b>","maneuver":"turn-left","polyline":{"points":"}w}hHcevMe@~DGf@AHIh@Gl@"},"start_location":{"lat":48.8180661,"lng":2.4124998},"travel_mode":"WALKING"},{"distance":{"text":"90 m","value":90},"duration":{"text":"1 minute","value":89},"end_location":{"lat":48.818995,"lng":2.411},"html_instructions":"Au rond-point, prendre la <b>3e</b> sortie sur <b>Rue Victor Hugo</b>","maneuver":"roundabout-right","polyline":{"points":"_z}hHyzuM?AAA?A?AA??A?AAAAAAAAAAAA?A?AAA?A?A@A?A??@A?A??@A??@A??@A@?@A@?@A@?@?@?@A@?@?@?@?@?@?@?@?@?@@@?@?@SMu@m@A@"},"start_location":{"lat":48.8184015,"lng":2.4108531},"travel_mode":"WALKING"}],"travel_mode":"WALKING"},{"distance":{"text":"4,6 km","value":4631},"duration":{"text":"19 minutes","value":1140},"end_location":{"lat":48.845402,"lng":2.368661},"html_instructions":"Bus vers Gare Saint-Lazare","polyline":{"points":"w}}hHw{uMqApVeHf`@qGhTcOvYwSbYuV|GiKwAqK~ReN|X}Iy@aExUwOj\\iIb^"},"start_location":{"lat":48.818995,"lng":2.411},"transit_details":{"arrival_stop":{"location":{"lat":48.845402,"lng":2.368661},"name":"Pont d'Austerlitz - Quai de la Rapee"},"arrival_time":{"text":"10:51","time_zone":"Europe/Paris","value":1472719860},"departure_stop":{"location":{"lat":48.818995,"lng":2.411},"name":"Victor Hugo"},"departure_time":{"text":"10:32","time_zone":"Europe/Paris","value":1472718720},"headsign":"Gare Saint-Lazare","line":{"agencies":[{"name":"STIF","url":"http://www.vianavigo.com/"}],"color":"#a0006e","short_name":"24","text_color":"#ffffff","vehicle":{"icon":"//maps.gstatic.com/mapfiles/transit/iw2/6/bus2.png","name":"Bus","type":"BUS"}},"num_stops":13},"travel_mode":"TRANSIT"},{"distance":{"text":"1,2 km","value":1243},"duration":{"text":"8 minutes","value":480},"end_location":{"lat":48.838269,"lng":2.356185},"html_instructions":"Bus vers Montparnasse 2 - Gare TGV","polyline":{"points":"wbciHcsmMfM~[xSrRnHj\\"},"start_location":{"lat":48.845402,"lng":2.368661},"transit_details":{"arrival_stop":{"location":{"lat":48.838269,"lng":2.356185},"name":"Saint-Marcel - Jeanne d'Arc"},"arrival_time":{"text":"11:04","time_zone":"Europe/Paris","value":1472720640},"departure_stop":{"location":{"lat":48.845402,"lng":2.368661},"name":"Pont d'Austerlitz - Quai de la Rapee"},"departure_time":{"text":"10:56","time_zone":"Europe/Paris","value":1472720160},"headsign":"Montparnasse 2 - Gare TGV","line":{"agencies":[{"name":"STIF","url":"http://www.vianavigo.com/"}],"color":"#dc9600","short_name":"91","text_color":"#000000","vehicle":{"icon":"//maps.gstatic.com/mapfiles/transit/iw2/6/bus2.png","name":"Bus","type":"BUS"}},"num_stops":3},"travel_mode":"TRANSIT"},{"distance":{"text":"0,1 km","value":119},"duration":{"text":"2 minutes","value":90},"end_location":{"lat":48.8377748,"lng":2.3548511},"html_instructions":"Marcher jusqu'à 73 Boulevard Saint-Marcel, 75005 Paris, France","polyline":{"points":"evaiHcekMC@BLDNBRPCh@~B\\xA"},"start_location":{"lat":48.838269,"lng":2.356185},"steps":[{"distance":{"text":"20 m","value":20},"duration":{"text":"1 minute","value":14},"end_location":{"lat":48.8382172,"lng":2.3559241},"html_instructions":"Prendre la direction <b>sud-ouest</b> vers <b>Rue des Fossés Saint-Marcel</b>","polyline":{"points":"evaiHcekMC@BLDNBR"},"start_location":{"lat":48.838269,"lng":2.356185},"travel_mode":"WALKING"},{"distance":{"text":"10 m","value":10},"duration":{"text":"1 minute","value":8},"end_location":{"lat":48.8381275,"lng":2.3559398},"html_instructions":"Prendre <b>à gauche</b> sur <b>Rue des Fossés Saint-Marcel</b>","maneuver":"turn-left","polyline":{"points":"{uaiHockMPC"},"start_location":{"lat":48.8382172,"lng":2.3559241},"travel_mode":"WALKING"},{"distance":{"text":"89 m","value":89},"duration":{"text":"1 minute","value":68},"end_location":{"lat":48.8377748,"lng":2.3548511},"html_instructions":"Prendre <b>à droite</b> sur <b>Boulevard Saint-Marcel</b><div style=\"font-size:0.9em\">Votre destination se trouvera sur la gauche.</div>","maneuver":"turn-right","polyline":{"points":"iuaiHsckMh@~B\\xA"},"start_location":{"lat":48.8381275,"lng":2.3559398},"travel_mode":"WALKING"}],"travel_mode":"WALKING"}],"traffic_speed_entry":[],"via_waypoint":[]}],"overview_polyline":{"points":"ei~hHavsMbAcELg@HMRc@`AwElAsGLgAZkCfCcOVmBR}BdAmHd@iDz@sGg@Su@Sm@fFS~AEKIGK?GDGJAL@L?BiA{@sArVeHf`@qGhTcOvYwSbYuV|GiKwAqK~ReN|X}Iy@aExUwOj\\iIb^fM~[xSrRnHj\\C@H\\BRPCfAxE"},"summary":"","warnings":["Le calcul d'itinéraires piétons est en bêta. Faites attention – Cet itinéraire n'est peut-être pas complètement aménagé pour les piétons."],"waypoint_order":[]},{"bounds":{"northeast":{"lat":48.8384846,"lng":2.3998548},"southwest":{"lat":48.8208272,"lng":2.3548511}},"copyrights":"Données cartographiques ©2016 Google","legs":[{"distance":{"text":"4,5 km","value":4509},"duration":{"text":"57 minutes","value":3390},"end_address":"73 Boulevard Saint-Marcel, 75005 Paris, France","end_location":{"lat":48.8377748,"lng":2.3548511},"start_address":"Autoroute de l'Est, 94220 Charenton-le-Pont, France","start_location":{"lat":48.8208272,"lng":2.3998548},"steps":[{"distance":{"text":"4,5 km","value":4509},"duration":{"text":"57 minutes","value":3390},"end_location":{"lat":48.8377748,"lng":2.3548511},"html_instructions":"Marcher jusqu'à 73 Boulevard Saint-Marcel, 75005 Paris, France","polyline":{"points":"ei~hHavsMQn@c@xAkA`Ea@fAi@tAq@`BkAbCg@bAeAfB]l@{@vA{DpGwDzGmAnB}@pAcB`CkCtDyCjEWj@ILcApAu@n@QJ[ZKFG?_@P[RQLk@h@oA|AUXaAnAqAhB_BxBs@hAmA|AeAvAi@r@o@z@}AzBQPRd@DHDJjDzHP`@JRNZKNIJk@x@ED[b@ENGNINIJKNp@zAdBrDCB?BAB@??B?D?@BFVl@Tf@BJ@P?JALALGL[h@QRZv@Zv@{CnCPh@jCjHHTHRHTcAlCo@bBs@fBaCnGkAzCi@pAkCzELj@Pv@nApF`@hB[nAcBxDm@tACFqClGEJA@e@dA}AhFGXQj@]dAM`@Sd@SZEHEHIVaAlAiA~AaBbCk@x@GDEBEBMDO@dAxEh@~B\\xA"},"start_location":{"lat":48.8208272,"lng":2.3998548},"steps":[{"distance":{"text":"1,3 km","value":1319},"duration":{"text":"16 minutes","value":961},"end_location":{"lat":48.8291335,"lng":2.3871954},"html_instructions":"Prendre la direction <b>nord-ouest</b> vers <b>Port de Bercy</b>","polyline":{"points":"ei~hHavsMQn@c@xAkA`Ea@fAi@tAq@`BkAbCg@bAeAfB]l@{@vA{DpGwDzGmAnB}@pAcB`CkCtDyCjEWj@ILcApAu@n@QJ[ZKFG?"},"start_location":{"lat":48.8208272,"lng":2.3998548},"travel_mode":"WALKING"},{"distance":{"text":"0,6 km","value":616},"duration":{"text":"8 minutes","value":454},"end_location":{"lat":48.833484,"lng":2.38204},"html_instructions":"Rester sur la file de <b>droite</b>","maneuver":"keep-right","polyline":{"points":"a}_iH_gqM_@P[RQLk@h@oA|AUXaAnAqAhB_BxBs@hAmA|AeAvAi@r@o@z@}AzBQP"},"start_location":{"lat":48.8291335,"lng":2.3871954},"travel_mode":"WALKING"},{"distance":{"text":"0,2 km","value":218},"duration":{"text":"3 minutes","value":181},"end_location":{"lat":48.8322319,"lng":2.3797482},"html_instructions":"Prendre <b>à gauche</b> sur <b>Pont de Tolbiac</b>","maneuver":"turn-left","polyline":{"points":"gx`iHwfpMRd@DHDJjDzHP`@JRNZ"},"start_location":{"lat":48.833484,"lng":2.38204},"travel_mode":"WALKING"},{"distance":{"text":"73 m","value":73},"duration":{"text":"1 minute","value":56},"end_location":{"lat":48.8327307,"lng":2.3791053},"html_instructions":"Prendre <b>à droite</b> sur <b>Quai François Mauriac</b>","maneuver":"turn-right","polyline":{"points":"mp`iHmxoMKNIJk@x@ED[b@"},"start_location":{"lat":48.8322319,"lng":2.3797482},"travel_mode":"WALKING"},{"distance":{"text":"38 m","value":38},"duration":{"text":"1 minute","value":33},"end_location":{"lat":48.8329628,"lng":2.3787344},"html_instructions":"Tourner légèrement à <b>gauche</b> pour rester sur <b>Quai François Mauriac</b>","maneuver":"turn-slight-left","polyline":{"points":"qs`iHmtoMENGNINIJKN"},"start_location":{"lat":48.8327307,"lng":2.3791053},"travel_mode":"WALKING"},{"distance":{"text":"0,1 km","value":131},"duration":{"text":"2 minutes","value":111},"end_location":{"lat":48.8322033,"lng":2.3773694},"html_instructions":"Prendre <b>à gauche</b> sur <b>Rue Emile Durkheim</b>","maneuver":"turn-left","polyline":{"points":"_u`iHaroMp@zAdBrD"},"start_location":{"lat":48.8329628,"lng":2.3787344},"travel_mode":"WALKING"},{"distance":{"text":"5 m","value":5},"duration":{"text":"1 minute","value":3},"end_location":{"lat":48.8322251,"lng":2.37731},"html_instructions":"Tourner à <b>droite</b> vers <b>Avenue de France</b>","maneuver":"turn-right","polyline":{"points":"gp`iHqioMCB?BAB"},"start_location":{"lat":48.8322033,"lng":2.3773694},"travel_mode":"WALKING"},{"distance":{"text":"0,1 km","value":116},"duration":{"text":"2 minutes","value":101},"end_location":{"lat":48.8322337,"lng":2.3760451},"html_instructions":"Tourner à <b>gauche</b> vers <b>Avenue de France</b>","maneuver":"turn-left","polyline":{"points":"mp`iHeioM@??B?D?@BFVl@Tf@BJ@P?JALALGL[h@QR"},"start_location":{"lat":48.8322251,"lng":2.37731},"travel_mode":"WALKING"},{"distance":{"text":"51 m","value":51},"duration":{"text":"1 minute","value":37},"end_location":{"lat":48.8319501,"lng":2.3754945},"html_instructions":"Tourner à <b>gauche</b> vers <b>Avenue de France</b>","maneuver":"turn-left","polyline":{"points":"mp`iHiaoMZv@Zv@"},"start_location":{"lat":48.8322337,"lng":2.3760451},"travel_mode":"WALKING"},{"distance":{"text":"0,1 km","value":102},"duration":{"text":"1 minute","value":72},"end_location":{"lat":48.8327299,"lng":2.3747661},"html_instructions":"Prendre <b>à droite</b> sur <b>Avenue de France</b>","maneuver":"turn-right","polyline":{"points":"un`iHy}nM{CnC"},"start_location":{"lat":48.8319501,"lng":2.3754945},"travel_mode":"WALKING"},{"distance":{"text":"0,2 km","value":181},"duration":{"text":"2 minutes","value":132},"end_location":{"lat":48.8317933,"lng":2.3727426},"html_instructions":"Tourner à <b>gauche</b> pour rester sur <b>Avenue de France</b>","maneuver":"turn-left","polyline":{"points":"qs`iHiynMPh@jCjHHTHRHT"},"start_location":{"lat":48.8327299,"lng":2.3747661},"travel_mode":"WALKING"},{"distance":{"text":"0,5 km","value":501},"duration":{"text":"6 minutes","value":364},"end_location":{"lat":48.8345695,"lng":2.3673623},"html_instructions":"Prendre <b>à droite</b> sur <b>Rue du Chevaleret</b>","maneuver":"turn-right","polyline":{"points":"um`iHslnMcAlCo@bBs@fBaCnGkAzCi@pAkCzE"},"start_location":{"lat":48.8317933,"lng":2.3727426},"travel_mode":"WALKING"},{"distance":{"text":"0,2 km","value":183},"duration":{"text":"2 minutes","value":143},"end_location":{"lat":48.8338395,"lng":2.3651202},"html_instructions":"Prendre <b>à gauche</b> sur <b>Boulevard Vincent Auriol</b>","maneuver":"turn-left","polyline":{"points":"a_aiH_kmMLj@Pv@nApF`@hB"},"start_location":{"lat":48.8345695,"lng":2.3673623},"travel_mode":"WALKING"},{"distance":{"text":"0,5 km","value":526},"duration":{"text":"7 minutes","value":421},"end_location":{"lat":48.8366079,"lng":2.3593231},"html_instructions":"Prendre <b>à droite</b> sur <b>Rue Jenner</b>","maneuver":"turn-right","polyline":{"points":"oz`iH_}lM[nAcBxDm@tACFqClGEJA@e@dA}AhFGXQj@]dAM`@Sd@"},"start_location":{"lat":48.8338395,"lng":2.3651202},"travel_mode":"WALKING"},{"distance":{"text":"0,3 km","value":271},"duration":{"text":"3 minutes","value":184},"end_location":{"lat":48.8384846,"lng":2.3570328},"html_instructions":"Continuer sur <b>Rue Jeanne d'Arc</b>","polyline":{"points":"ykaiHwxkMSZEHEHIVaAlAiA~AaBbCk@x@GDEBEBMDO@"},"start_location":{"lat":48.8366079,"lng":2.3593231},"travel_mode":"WALKING"},{"distance":{"text":"0,2 km","value":178},"duration":{"text":"2 minutes","value":137},"end_location":{"lat":48.8377748,"lng":2.3548511},"html_instructions":"Prendre <b>à gauche</b> sur <b>Boulevard Saint-Marcel</b><div style=\"font-size:0.9em\">Votre destination se trouvera sur la droite.</div>","maneuver":"turn-left","polyline":{"points":"owaiHmjkMdAxEh@~B\\xA"},"start_location":{"lat":48.8384846,"lng":2.3570328},"travel_mode":"WALKING"}],"travel_mode":"WALKING"}],"traffic_speed_entry":[],"via_waypoint":[]}],"overview_polyline":{"points":"ei~hHavsMaCjIkA|C}BdFmBjDyAdC{DpGwDzGkC`EoFvHyCjEWj@mA~AgAz@g@b@g@Pm@`@k@h@oA|AwAhBqDbFs@hAmA|AoBjCmCvDQPRd@DHpDfI\\t@NZKNu@dAa@h@M^SZKNp@zAdBrDCBAF@BZ|@Xr@@\\CZc@v@QRZv@Zv@{CnC|CtIRh@HTcAlCcBjEmEjLi@pAkCzE^bBpBzI[nAcBxDq@|A_E`JuCtJa@fAYd@O`@aAlAiA~AmC|DMHSHO@dAxEfAxE"},"summary":"Rue du Chevaleret","warnings":["Le calcul d'itinéraires piétons est en bêta. Faites attention – Cet itinéraire n'est peut-être pas complètement aménagé pour les piétons."],"waypoint_order":[]},{"bounds":{"northeast":{"lat":48.849827,"lng":2.4124998},"southwest":{"lat":48.81759630000001,"lng":2.35439}},"copyrights":"Données cartographiques ©2016 Google","legs":[{"arrival_time":{"text":"11:04","time_zone":"Europe/Paris","value":1472720698},"departure_time":{"text":"10:04","time_zone":"Europe/Paris","value":1472717068},"distance":{"text":"8,6 km","value":8597},"duration":{"text":"1 heure 1 min","value":3630},"end_address":"73 Boulevard Saint-Marcel, 75005 Paris, France","end_location":{"lat":48.8377748,"lng":2.3548511},"start_address":"Autoroute de l'Est, 94220 Charenton-le-Pont, France","start_location":{"lat":48.8208272,"lng":2.3998548},"steps":[{"distance":{"text":"1,3 km","value":1253},"duration":{"text":"16 minutes","value":931},"end_location":{"lat":48.818995,"lng":2.411},"html_instructions":"Marcher jusqu'à Victor Hugo","polyline":{"points":"ei~hHavsMT{@Lc@R_AJc@FYDMFI@CJOFSH]v@yDf@iCd@iCBOHw@Hq@D_@DYD_@`A}FdAeGBQR{AFg@D[BY@_@Fg@Hk@TuA\\cCHo@NcAFe@BODUt@}FIE]M]MWEe@~DGf@AHIh@Gl@?AAA?A?AA??A?AAAAAAAAAAAA?A?AAA?A?A@A?A??@A?A??@A??@A??@A@?@A@?@A@?@?@?@A@?@?@?@?@?@?@?@?@?@@@?@?@SMu@m@A@"},"start_location":{"lat":48.8208272,"lng":2.3998548},"steps":[{"distance":{"text":"1,0 km","value":983},"duration":{"text":"12 minutes","value":707},"end_location":{"lat":48.81759630000001,"lng":2.4122952},"html_instructions":"Prendre la direction <b>sud-est</b> vers <b>Pont Martinet</b>","polyline":{"points":"ei~hHavsMT{@Lc@R_AJc@FYDMFI@CJOFSH]v@yDf@iCd@iCBOHw@Hq@D_@DYD_@`A}FdAeGBQR{AFg@D[BY@_@Fg@Hk@TuA\\cCHo@NcAFe@BODUt@}F"},"start_location":{"lat":48.8208272,"lng":2.3998548},"travel_mode":"WALKING"},{"distance":{"text":"54 m","value":54},"duration":{"text":"1 minute","value":41},"end_location":{"lat":48.8180661,"lng":2.4124998},"html_instructions":"Prendre <b>à gauche</b> sur <b>Pont Martinet</b>","maneuver":"turn-left","polyline":{"points":"_u}hH{cvMIE]M]MWE"},"start_location":{"lat":48.81759630000001,"lng":2.4122952},"travel_mode":"WALKING"},{"distance":{"text":"0,1 km","value":126},"duration":{"text":"2 minutes","value":94},"end_location":{"lat":48.8184015,"lng":2.4108531},"html_instructions":"Prendre <b>à gauche</b> sur <b>Quai des Carrières</b>/<b>D103</b>","maneuver":"turn-left","polyline":{"points":"}w}hHcevMe@~DGf@AHIh@Gl@"},"start_location":{"lat":48.8180661,"lng":2.4124998},"travel_mode":"WALKING"},{"distance":{"text":"90 m","value":90},"duration":{"text":"1 minute","value":89},"end_location":{"lat":48.818995,"lng":2.411},"html_instructions":"Au rond-point, prendre la <b>3e</b> sortie sur <b>Rue Victor Hugo</b>","maneuver":"roundabout-right","polyline":{"points":"_z}hHyzuM?AAA?A?AA??A?AAAAAAAAAAAA?A?AAA?A?A@A?A??@A?A??@A??@A??@A@?@A@?@A@?@?@?@A@?@?@?@?@?@?@?@?@?@@@?@?@SMu@m@A@"},"start_location":{"lat":48.8184015,"lng":2.4108531},"travel_mode":"WALKING"}],"travel_mode":"WALKING"},{"distance":{"text":"5,8 km","value":5784},"duration":{"text":"25 minutes","value":1500},"end_location":{"lat":48.849827,"lng":2.355794},"html_instructions":"Bus vers Gare Saint-Lazare","polyline":{"points":"w}}hHw{uMqApVeHf`@qGhTcOvYwSbYuV|GiKwAqK~ReN|X}Iy@aExUwOj\\iIb^bBlXaLlUuK|QaDrL"},"start_location":{"lat":48.818995,"lng":2.411},"transit_details":{"arrival_stop":{"location":{"lat":48.849827,"lng":2.355794},"name":"Pont de la Tournelle - Cardinal Lemoine"},"arrival_time":{"text":"10:45","time_zone":"Europe/Paris","value":1472719500},"departure_stop":{"location":{"lat":48.818995,"lng":2.411},"name":"Victor Hugo"},"departure_time":{"text":"10:20","time_zone":"Europe/Paris","value":1472718000},"headsign":"Gare Saint-Lazare","line":{"agencies":[{"name":"STIF","url":"http://www.vianavigo.com/"}],"color":"#a0006e","short_name":"24","text_color":"#ffffff","vehicle":{"icon":"//maps.gstatic.com/mapfiles/transit/iw2/6/bus2.png","name":"Bus","type":"BUS"}},"num_stops":17},"travel_mode":"TRANSIT"},{"distance":{"text":"80 m","value":80},"duration":{"text":"1 minute","value":80},"end_location":{"lat":48.849108,"lng":2.355631},"html_instructions":"Marcher jusqu'à Institut du Monde Arabe","polyline":{"points":"m~ciHubkMnC^"},"start_location":{"lat":48.849827,"lng":2.355794},"steps":[{"distance":{"text":"80 m","value":80},"duration":{"text":"1 minute","value":80},"end_location":{"lat":48.849108,"lng":2.355631},"polyline":{"points":"m~ciHubkMnC^"},"start_location":{"lat":48.849827,"lng":2.355794},"travel_mode":"WALKING"}],"travel_mode":"WALKING"},{"distance":{"text":"1,2 km","value":1245},"duration":{"text":"6 minutes","value":360},"end_location":{"lat":48.838161,"lng":2.356512},"html_instructions":"Bus vers Stade Charlety-Porte de Gentilly","polyline":{"points":"}yciHuakMzPvFtMuAzPaF~PoB"},