[{"origin":{"lat":2.3015359889886087,"lng":48.806030225637215},"taff":{"geocoded_waypoints":[{"geocoder_status":"OK","place_id":"ChIJo6ezwu5w5kcR-nHLVOEI5Fk","types":["street_address"]},{"geocoder_status":"OK","place_id":"ChIJc5sm28pv5kcR0cpsawDOfSg","types":["street_address"]}],"routes":[{"bounds":{"northeast":{"lat":48.8748221,"lng":2.333162},"southwest":{"lat":48.8056099,"lng":2.303543}},"copyrights":"Données cartographiques ©2016 Google","legs":[{"arrival_time":{"text":"10:59","time_zone":"Europe/Paris","value":1472720368},"departure_time":{"text":"10:01","time_zone":"Europe/Paris","value":1472716899},"distance":{"text":"9,9 km","value":9853},"duration":{"text":"58 minutes","value":3469},"end_address":"73 Rue d'Anjou, 75008 Paris, France","end_location":{"lat":48.8748221,"lng":2.3228933},"start_address":"24 Av. Jean Jaurès, 92220 Bagneux, France","start_location":{"lat":48.8056099,"lng":2.303543},"steps":[{"distance":{"text":"1,1 km","value":1144},"duration":{"text":"14 minutes","value":822},"end_location":{"lat":48.811941,"lng":2.30415},"html_instructions":"Marcher jusqu'à Jean Monnet","polyline":{"points":"aj{hHc|`M_A_@w@a@cAq@o@i@e@a@iAcAsAmAiAcAe@a@o@m@qKoJOUMMkB_Ba@YEPGTuA|EI\\o@~B[dAg@pBWx@dBnDd@~@HK"},"start_location":{"lat":48.8056099,"lng":2.303543},"steps":[{"distance":{"text":"0,6 km","value":649},"duration":{"text":"8 minutes","value":467},"end_location":{"lat":48.8106636,"lng":2.307921},"html_instructions":"Prendre la direction <b>nord</b> sur <b>Av. Jean Jaurès</b>/<b>D128A</b> vers <b>Avenue Marx Dormoy</b>/<b>D62</b>","polyline":{"points":"aj{hHc|`M_A_@w@a@cAq@o@i@e@a@iAcAsAmAiAcAe@a@o@m@qKoJOU"},"start_location":{"lat":48.8056099,"lng":2.303543},"travel_mode":"WALKING"},{"distance":{"text":"0,1 km","value":99},"duration":{"text":"1 minute","value":78},"end_location":{"lat":48.81143729999999,"lng":2.3086005},"html_instructions":"Continuer sur <b>Rue Maurice Arnoux</b>/<b>D59</b>","polyline":{"points":"si|hHowaMMMkB_Ba@Y"},"start_location":{"lat":48.8106636,"lng":2.307921},"travel_mode":"WALKING"},{"distance":{"text":"0,3 km","value":279},"duration":{"text":"3 minutes","value":196},"end_location":{"lat":48.8126855,"lng":2.3052893},"html_instructions":"Prendre <b>à gauche</b> sur <b>Rue du Poitou</b>","maneuver":"turn-left","polyline":{"points":"on|hHw{aMEPGTuA|EI\\o@~B[dAg@pBWx@"},"start_location":{"lat":48.81143729999999,"lng":2.3086005},"travel_mode":"WALKING"},{"distance":{"text":"0,1 km","value":117},"duration":{"text":"1 minute","value":81},"end_location":{"lat":48.811941,"lng":2.30415},"html_instructions":"Prendre <b>à gauche</b> sur <b>Av. Jean Jaurès</b>/<b>D63A</b><div style=\"font-size:0.9em\">Votre destination se trouvera sur la gauche.</div>","maneuver":"turn-left","polyline":{"points":"iv|hHagaMdBnDd@~@HK"},"start_location":{"lat":48.8126855,"lng":2.3052893},"travel_mode":"WALKING"}],"travel_mode":"WALKING"},{"distance":{"text":"5,9 km","value":5863},"duration":{"text":"26 minutes","value":1560},"end_location":{"lat":48.853647,"lng":2.326391},"html_instructions":"Bus vers Place de Clichy","polyline":{"points":"sq|hH}_aMuFoLgP_`@pAcf@{SeLqOeKkJyFo@_OuVsEoRyNeQaWwK~DgUpG{NvDiR~DcXbFaGnAkKnB{IzA"},"start_location":{"lat":48.811941,"lng":2.30415},"transit_details":{"arrival_stop":{"location":{"lat":48.853647,"lng":2.326391},"name":"Varenne - Raspail"},"arrival_time":{"text":"10:41","time_zone":"Europe/Paris","value":1472719260},"departure_stop":{"location":{"lat":48.811941,"lng":2.30415},"name":"Jean Monnet"},"departure_time":{"text":"10:15","time_zone":"Europe/Paris","value":1472717700},"headsign":"Place de Clichy","line":{"agencies":[{"name":"STIF","url":"http://www.vianavigo.com/"}],"color":"#ffb300","short_name":"68","text_color":"#000000","vehicle":{"icon":"//maps.gstatic.com/mapfiles/transit/iw2/6/bus2.png","name":"Bus","type":"BUS"}},"num_stops":18},"travel_mode":"TRANSIT"},{"distance":{"text":"2,5 km","value":2496},"duration":{"text":"10 minutes","value":600},"end_location":{"lat":48.872485,"lng":2.321728},"html_instructions":"Bus vers Porte de Champerret","polyline":{"points":"ivdiH}jeMiPrDqJhK}SHwD`SgZ_LcR}QwNvU"},"start_location":{"lat":48.853647,"lng":2.326391},"transit_details":{"arrival_stop":{"location":{"lat":48.872485,"lng":2.321728},"name":"Anjou - Chauveau Lagarde"},"arrival_time":{"text":"10:55","time_zone":"Europe/Paris","value":1472720100},"departure_stop":{"location":{"lat":48.853647,"lng":2.326391},"name":"Varenne - Raspail"},"departure_time":{"text":"10:45","time_zone":"Europe/Paris","value":1472719500},"headsign":"Porte de Champerret","line":{"agencies":[{"name":"STIF","url":"http://www.vianavigo.com/"}],"color":"#ce93d8","short_name":"84","text_color":"#000000","vehicle":{"icon":"//maps.gstatic.com/mapfiles/transit/iw2/6/bus2.png","name":"Bus","type":"BUS"}},"num_stops":7},"travel_mode":"TRANSIT"},{"distance":{"text":"0,4 km","value":350},"duration":{"text":"5 minutes","value":272},"end_location":{"lat":48.8748221,"lng":2.3228933},"html_instructions":"Marcher jusqu'à 73 Rue d'Anjou, 75008 Paris, France","polyline":{"points":"_lhiHymdMF\\x@i@Og@?AA??AA?cEaAi@My@UcCm@uA["},"start_location":{"lat":48.872485,"lng":2.321728},"steps":[{"distance":{"text":"36 m","value":36},"duration":{"text":"1 minute","value":26},"end_location":{"lat":48.87214549999999,"lng":2.3217873},"html_instructions":"Prendre la direction <b>sud-est</b> sur <b>Boulevard Malesherbes</b> vers <b>Rue d'Anjou</b>","polyline":{"points":"_lhiHymdMF\\x@i@"},"start_location":{"lat":48.872485,"lng":2.321728},"travel_mode":"WALKING"},{"distance":{"text":"0,3 km","value":314},"duration":{"text":"4 minutes","value":246},"end_location":{"lat":48.8748221,"lng":2.3228933},"html_instructions":"Prendre <b>à gauche</b> sur <b>Rue d'Anjou</b><div style=\"font-size:0.9em\">Votre destination se trouvera sur la gauche.</div>","maneuver":"turn-left","polyline":{"points":"}ihiHendMOg@?AA??AA?cEaAi@My@UcCm@uA["},"start_location":{"lat":48.87214549999999,"lng":2.3217873},"travel_mode":"WALKING"}],"travel_mode":"WALKING"}],"traffic_speed_entry":[],"via_waypoint":[]}],"overview_polyline":{"points":"aj{hHc|`M_A_@w@a@sB{AmGwFuAoAqKoJOUyBmBa@YEP}ArFy@|CcAvDWx@dBnDd@~@HKuFoLgP_`@pAcf@{SeLqOeKkJyFo@_OuVsEoRyNeQaWwK~DgUpG{NvDiR~DcXbFaGnAgVjEiPrDqJhK}SHwD`SgZ_LcR}QwNvUF\\x@i@Og@AAoFqAsG_B"},"summary":"","warnings":["Le calcul d'itinéraires piétons est en bêta. Faites attention – Cet itinéraire n'est peut-être pas complètement aménagé pour les piétons."],"waypoint_order":[]},{"bounds":{"northeast":{"lat":48.8748221,"lng":2.333949},"southwest":{"lat":48.8056099,"lng":2.303543}},"copyrights":"Données cartographiques ©2016 Google","legs":[{"arrival_time":{"text":"11:03","time_zone":"Europe/Paris","value":1472720590},"departure_time":{"text":"10:01","time_zone":"Europe/Paris","value":1472716899},"distance":{"text":"10,0 km","value":10035},"duration":{"text":"1 heure 2 min","value":3691},"end_address":"73 Rue d'Anjou, 75008 Paris, France","end_location":{"lat":48.8748221,"lng":2.3228933},"start_address":"24 Av. Jean Jaurès, 92220 Bagneux, France","start_location":{"lat":48.8056099,"lng":2.303543},"steps":[{"distance":{"text":"1,1 km","value":1144},"duration":{"text":"14 minutes","value":822},"end_location":{"lat":48.811941,"lng":2.30415},"html_instructions":"Marcher jusqu'à Jean Monnet","polyline":{"points":"aj{hHc|`M_A_@w@a@cAq@o@i@e@a@iAcAsAmAiAcAe@a@o@m@qKoJOUMMkB_Ba@YEPGTuA|EI\\o@~B[dAg@pBWx@dBnDd@~@HK"},"start_location":{"lat":48.8056099,"lng":2.303543},"steps":[{"distance":{"text":"0,6 km","value":649},"duration":{"text":"8 minutes","value":467},"end_location":{"lat":48.8106636,"lng":2.307921},"html_instructions":"Prendre la direction <b>nord</b> sur <b>Av. Jean Jaurès</b>/<b>D128A</b> vers <b>Avenue Marx Dormoy</b>/<b>D62</b>","polyline":{"points":"aj{hHc|`M_A_@w@a@cAq@o@i@e@a@iAcAsAmAiAcAe@a@o@m@qKoJOU"},"start_location":{"lat":48.8056099,"lng":2.303543},"travel_mode":"WALKING"},{"distance":{"text":"0,1 km","value":99},"duration":{"text":"1 minute","value":78},"end_location":{"lat":48.81143729999999,"lng":2.3086005},"html_instructions":"Continuer sur <b>Rue Maurice Arnoux</b>/<b>D59</b>","polyline":{"points":"si|hHowaMMMkB_Ba@Y"},"start_location":{"lat":48.8106636,"lng":2.307921},"travel_mode":"WALKING"},{"distance":{"text":"0,3 km","value":279},"duration":{"text":"3 minutes","value":196},"end_location":{"lat":48.8126855,"lng":2.3052893},"html_instructions":"Prendre <b>à gauche</b> sur <b>Rue du Poitou</b>","maneuver":"turn-left","polyline":{"points":"on|hHw{aMEPGTuA|EI\\o@~B[dAg@pBWx@"},"start_location":{"lat":48.81143729999999,"lng":2.3086005},"travel_mode":"WALKING"},{"distance":{"text":"0,1 km","value":117},"duration":{"text":"1 minute","value":81},"end_location":{"lat":48.811941,"lng":2.30415},"html_instructions":"Prendre <b>à gauche</b> sur <b>Av. Jean Jaurès</b>/<b>D63A</b><div style=\"font-size:0.9em\">Votre destination se trouvera sur la gauche.</div>","maneuver":"turn-left","polyline":{"points":"iv|hHagaMdBnDd@~@HK"},"start_location":{"lat":48.8126855,"lng":2.3052893},"travel_mode":"WALKING"}],"travel_mode":"WALKING"},{"distance":{"text":"8,0 km","value":7970},"duration":{"text":"40 minutes","value":2400},"end_location":{"lat":48.87133499999999,"lng":2.332573},"html_instructions":"Bus vers Place de Clichy","polyline":{"points":"sq|hH}_aMuFoLgP_`@pAcf@{SeLqOeKkJyFo@_OuVsEoRyNeQaWwK~DgUpG{NvDiR~DcXbFaGnAkKnB{IzAgOFgPwOq^mTwRiH_EpA_IhCuHv@"},"start_location":{"lat":48.811941,"lng":2.30415},"transit_details":{"arrival_stop":{"location":{"lat":48.87133499999999,"lng":2.332573},"name":"Opera"},"arrival_time":{"text":"10:55","time_zone":"Europe/Paris","value":1472720100},"departure_stop":{"location":{"lat":48.811941,"lng":2.30415},"name":"Jean Monnet"},"departure_time":{"text":"10:15","time_zone":"Europe/Paris","value":1472717700},"headsign":"Place de Clichy","line":{"agencies":[{"name":"STIF","url":"http://www.vianavigo.com/"}],"color":"#ffb300","short_name":"68","text_color":"#000000","vehicle":{"icon":"//maps.gstatic.com/mapfiles/transit/iw2/6/bus2.png","name":"Bus","type":"BUS"}},"num_stops":25},"travel_mode":"TRANSIT"},{"distance":{"text":"28 m","value":28},"duration":{"text":"1 minute","value":5},"end_location":{"lat":48.871578,"lng":2.332682},"html_instructions":"Marcher jusqu'à Opera","polyline":{"points":"ydhiHqqfMq@U"},"start_location":{"lat":48.87133499999999,"lng":2.332573},"steps":[{"distance":{"text":"28 m","value":28},"duration":{"text":"1 minute","value":5},"end_location":{"lat":48.871578,"lng":2.332682},"polyline":{"points":"ydhiHqqfMq@U"},"start_location":{"lat":48.87133499999999,"lng":2.332573},"travel_mode":"WALKING"}],"travel_mode":"WALKING"},{"distance":{"text":"0,6 km","value":559},"duration":{"text":"2 minutes","value":120},"end_location":{"lat":48.873959,"lng":2.326591},"html_instructions":"Bus vers Clichy - Victor Hugo","polyline":{"points":"kfhiHgrfMuFpCyDrWk@zG"},"start_location":{"lat":48.871578,"lng":2.332682},"transit_details":{"arrival_stop":{"location":{"lat":48.873959,"lng":2.326591},"name":"Rome - Haussmann"},"arrival_time":{"text":"10:59","time_zone":"Europe/Paris","value":1472720340},"departure_stop":{"location":{"lat":48.871578,"lng":2.332682},"name":"Opera"},"departure_time":{"text":"10:57","time_zone":"Europe/Paris","value":1472720220},"headsign":"Clichy - Victor Hugo","line":{"agencies":[{"name":"STIF","url":"http://www.vianavigo.com/"}],"color":"#004d40","short_name":"66","text_color":"#ffffff","vehicle":{"icon":"//maps.gstatic.com/mapfiles/transit/iw2/6/bus2.png","name":"Bus","type":"BUS"}},"num_stops":3},"travel_mode":"TRANSIT"},{"distance":{"text":"0,3 km","value":334},"duration":{"text":"4 minutes","value":250},"end_location":{"lat":48.8748221,"lng":2.3228933},"html_instructions":"Marcher jusqu'à 73 Rue d'Anjou, 75008 Paris, France","polyline":{"points":"guhiHeleMTDMnBe@rGWdC_@nFuA["},"start_location":{"lat":48.873959,"lng":2.326591},"steps":[{"distance":{"text":"0,3 km","value":285},"duration":{"text":"3 minutes","value":209},"end_location":{"lat":48.8743906,"lng":2.3227511},"html_instructions":"Prendre la direction <b>ouest</b> sur <b>Boulevard Haussmann</b> vers <b>Rue de Rome</b>","polyline":{"points":"guhiHeleMTDMnBe@rGWdC_@nF"},"start_location":{"lat":48.873959,"lng":2.326591},"travel_mode":"WALKING"},{"distance":{"text":"49 m","value":49},"duration":{"text":"1 minute","value":41},"end_location":{"lat":48.8748221,"lng":2.3228933},"html_instructions":"Prendre <b>à droite</b> sur <b>Rue d'Anjou</b><div style=\"font-size:0.9em\">Votre destination se trouvera sur la gauche.</div>","maneuver":"turn-right","polyline":{"points":"}whiHetdMuA["},"start_location":{"lat":48.8743906,"lng":2.3227511},"travel_mode":"WALKING"}],"travel_mode":"WALKING"}],"traffic_speed_entry":[],"via_waypoint":[]}],"overview_polyline":{"points":"aj{hHc|`M_A_@w@a@sB{AmGwFuAoAqKoJOUyBmBa@YEP}ArFy@|CcAvDWx@dBnDd@~@HKuFoLgP_`@pAcf@{SeLqOeKkJyFo@_OuVsEoRyNeQaWwK~DgUpG{NvDiR~DcXbFaGnAgVjEgOFgPwOq^mTwRiH_OzEuHv@q@UuFpCyDrWk@zGTDs@bKw@tJuA["},"summary":"","warnings":["Le calcul d'itinéraires piétons est en bêta. Faites attention – Cet itinéraire n'est peut-être pas complètement aménagé pour les piétons."],"waypoint_order":[]},{"bounds":{"northeast":{"lat":48.8748221,"lng":2.333162},"southwest":{"lat":48.8056099,"lng":2.303543}},"copyrights":"Données cartographiques ©2016 Google","legs":[{"arrival_time":{"text":"11:08","time_zone":"Europe/Paris","value":1472720910},"departure_time":{"text":"10:01","time_zone":"Europe/Paris","value":1472716899},"distance":{"text":"9,8 km","value":9834},"duration":{"text":"1 heure 7 min","value":4011},"end_address":"73 Rue d'Anjou, 75008 Paris, France","end_location":{"lat":48.8748221,"lng":2.3228933},"start_address":"24 Av. Jean Jaurès, 92220 Bagneux, France","start_location":{"lat":48.8056099,"lng":2.303543},"steps":[{"distance":{"text":"1,1 km","value":1144},"duration":{"text":"14 minutes","value":822},"end_location":{"lat":48.811941,"lng":2.30415},"html_instructions":"Marcher jusqu'à Jean Monnet","polyline":{"points":"aj{hHc|`M_A_@w@a@cAq@o@i@e@a@iAcAsAmAiAcAe@a@o@m@qKoJOUMMkB_Ba@YEPGTuA|EI\\o@~B[dAg@pBWx@dBnDd@~@HK"},"start_location":{"lat":48.8056099,"lng":2.303543},"steps":[{"distance":{"text":"0,6 km","value":649},"duration":{"text":"8 minutes","value":467},"end_location":{"lat":48.8106636,"lng":2.307921},"html_instructions":"Prendre la direction <b>nord</b> sur <b>Av. Jean Jaurès</b>/<b>D128A</b> vers <b>Avenue Marx Dormoy</b>/<b>D62</b>","polyline":{"points":"aj{hHc|`M_A_@w@a@cAq@o@i@e@a@iAcAsAmAiAcAe@a@o@m@qKoJOU"},"start_location":{"lat":48.8056099,"lng":2.303543},"travel_mode":"WALKING"},{"distance":{"text":"0,1 km","value":99},"duration":{"text":"1 minute","value":78},"end_location":{"lat":48.81143729999999,"lng":2.3086005},"html_instructions":"Continuer sur <b>Rue Maurice Arnoux</b>/<b>D59</b>","polyline":{"points":"si|hHowaMMMkB_Ba@Y"},"start_location":{"lat":48.8106636,"lng":2.307921},"travel_mode":"WALKING"},{"distance":{"text":"0,3 km","value":279},"duration":{"text":"3 minutes","value":196},"end_location":{"lat":48.8126855,"lng":2.3052893},"html_instructions":"Prendre <b>à gauche</b> sur <b>Rue du Poitou</b>","maneuver":"turn-left","polyline":{"points":"on|hHw{aMEPGTuA|EI\\o@~B[dAg@pBWx@"},"start_location":{"lat":48.81143729999999,"lng":2.3086005},"travel_mode":"WALKING"},{"distance":{"text":"0,1 km","value":117},"duration":{"text":"1 minute","value":81},"end_location":{"lat":48.811941,"lng":2.30415},"html_instructions":"Prendre <b>à gauche</b> sur <b>Av. Jean Jaurès</b>/<b>D63A</b><div style=\"font-size:0.9em\">Votre destination se trouvera sur la gauche.</div>","maneuver":"turn-left","polyline":{"points":"iv|hHagaMdBnDd@~@HK"},"start_location":{"lat":48.8126855,"lng":2.3052893},"travel_mode":"WALKING"}],"travel_mode":"WALKING"},{"distance":{"text":"6,2 km","value":6153},"duration":{"text":"28 minutes","value":1680},"end_location":{"lat":48.856254,"lng":2.32635},"html_instructions":"Bus vers Place de Clichy","polyline":{"points":"sq|hH}_aMuFoLgP_`@pAcf@{SeLqOeKkJyFo@_OuVsEoRyNeQaWwK~DgUpG{NvDiR~DcXbFaGnAkKnB{IzAgOF"},"start_location":{"lat":48.811941,"lng":2.30415},"transit_details":{"arrival_stop":{"location":{"lat":48.856254,"lng":2.32635},"name":"Rue du Bac - René Char"},"arrival_time":{"text":"10:43","time_zone":"Europe/Paris","value":1472719380},"departure_stop":{"location":{"lat":48.811941,"lng":2.30415},"name":"Jean Monnet"},"departure_time":{"text":"10:15","time_zone":"Europe/Paris","value":1472717700},"headsign":"Place de Clichy","line":{"agencies":[{"name":"STIF","url":"http://www.vianavigo.com/"}],"color":"#ffb300","short_name":"68","text_color":"#000000","vehicle":{"icon":"//maps.gstatic.com/mapfiles/transit/iw2/6/bus2.png","name":"Bus","type":"BUS"}},"num_stops":19},"travel_mode":"TRANSIT"},{"distance":{"text":"42 m","value":42},"duration":{"text":"1 minute","value":42},"end_location":{"lat":48.856245,"lng":2.325764},"html_instructions":"Marcher jusqu'à Rue du Bac - René Char","polyline":{"points":"qfeiHujeM@tB"},"start_location":{"lat":48.856254,"lng":2.32635},"steps":[{"distance":{"text":"42 m","value":42},"duration":{"text":"1 minute","value":42},"end_location":{"lat":48.856245,"lng":2.325764},"polyline":{"points":"qfeiHujeM@tB"},"start_location":{"lat":48.856254,"lng":2.32635},"travel_mode":"WALKING"}],"travel_mode":"WALKING"},{"distance":{"text":"2,4 km","value":2380},"duration":{"text":"13 minutes","value":780},"end_location":{"lat":48.87432700000001,"lng":2.323648},"html_instructions":"Bus vers Louison Bobet","polyline":{"points":"ofeiH_geMuK~L{LfLuFdFk_@aLcR}QkSqH}EhS"},"start_location":{"lat":48.856245,"lng":2.325764},"transit_details":{"arrival_stop":{"location":{"lat":48.87432700000001,"lng":2.323648},"name":"Pasquier - Anjou"},"arrival_time":{"text":"11:07","time_zone":"Europe/Paris","value":1472720820},"departure_stop":{"location":{"lat":48.856245,"lng":2.325764},"name":"Rue du Bac - René Char"},"departure_time":{"text":"10:54","time_zone":"Europe/Paris","value":1472720040},"headsign":"Louison Bobet","line":{"agencies":[{"name":"STIF","url":"http://www.vianavigo.com/"}],"color":"#a0006e","short_name":"94","text_color":"#ffffff","vehicle":{"icon":"//maps.gstatic.com/mapfiles/transit/iw2/6/bus2.png","name":"Bus","type":"BUS"}},"num_stops":7},"travel_mode":"TRANSIT"},{"distance":{"text":"0,1 km","value":115},"duration":{"text":"1 minute","value":89},"end_location":{"lat":48.8748221,"lng":2.3228933},"html_instructions":"Marcher jusqu'à 73 Rue d'Anjou, 75008 Paris, France","polyline":{"points":"qwhiHyydMJBWnDuA["},"start_location":{"lat":48.87432700000001,"lng":2.323648},"steps":[{"distance":{"text":"66 m","value":66},"duration":{"text":"1 minute","value":48},"end_location":{"lat":48.8743906,"lng":2.3227511},"html_instructions":"Prendre la direction <b>ouest</b> sur <b>Boulevard Haussmann</b> vers <b>Rue d'Anjou</b>","polyline":{"points":"qwhiHyydMJBWnD"},"start_location":{"lat":48.87432700000001,"lng":2.323648},"travel_mode":"WALKING"},{"distance":{"text":"49 m","value":49},"duration":{"text":"1 minute","value":41},"end_location":{"lat":48.8748221,"lng":2.3228933},"html_instructions":"Prendre <b>à droite</b> sur <b>Rue d'Anjou</b><div style=\"font-size:0.9em\">Votre destination se trouvera sur la gauche.</div>","maneuver":"turn-right","polyline":{"points":"}whiHetdMuA["},"start_location":{"lat":48.8743906,"lng":2.3227511},"travel_mode":"WALKING"}],"travel_mode":"WALKING"}],"traffic_speed_entry":[],"via_waypoint":[]}],"overview_polyline":{"points":"aj{hHc|`M_A_@w@a@sB{AmGwFuAoAqKoJOUyBmBa@YEP}ArFy@|CcAvDWx@dBnDd@~@HKuFoLgP_`@pAcf@{SeLqOeKkJyFo@_OuVsEoRyNeQaWwK~DgUpG{NvDiR~DcXbFaGnAgVjEgOF@tBuK~L{LfLuFdFk_@aLcR}QkSqH}EhSJBWnDuA["},"summary":"","warnings":["Le calcul d'itinéraires piétons est en bêta. Faites attention – Cet itinéraire n'est peut-être pas complètement aménagé pour les piétons."],"waypoint_order":[]},{"bounds":{"northeast":{"lat":48.8748221,"lng":2.327809},"southwest":{"lat":48.8056099,"lng":2.291924}},"copyrights":"Données cartographiques ©2016 Google","legs":[{"arrival_time":{"text":"11:22","time_zone":"Europe/Paris","value":1472721750},"departure_time":{"text":"10:06","time_zone":"Europe/Paris","value":1472717179},"distance":{"text":"9,9 km","value":9907},"duration":{"text":"1 heure 16 min","value":4571},"end_address":"73 Rue d'Anjou, 75008 Paris, France","end_location":{"lat":48.8748221,"lng":2.3228933},"start_address":"24 Av. Jean Jaurès, 92220 Bagneux, France","start_location":{"lat":48.8056099,"lng":2.303543},"steps":[{"distance":{"text":"0,7 km","value":719},"duration":{"text":"9 minutes","value":521},"end_location":{"lat":48.81088099999999,"lng":2.307008},"html_instructions":"Marcher jusqu'à Maurice Arnoux","polyline":{"points":"aj{hHc|`M_A_@w@a@cAq@o@i@e@a@iAcAsAmAiAcAe@a@o@m@qKoJOUATALG|@AHEf@Cf@SE"},"start_location":{"lat":48.8056099,"lng":2.303543},"steps":[{"distance":{"text":"0,6 km","value":649},"duration":{"text":"8 minutes","value":467},"end_location":{"lat":48.8106636,"lng":2.307921},"html_instructions":"Prendre la direction <b>nord</b> sur <b>Av. Jean Jaurès</b>/<b>D128A</b> vers <b>Avenue Marx Dormoy</b>/<b>D62</b>","polyline":{"points":"aj{hHc|`M_A_@w@a@cAq@o@i@e@a@iAcAsAmAiAcAe@a@o@m@qKoJOU"},"start_location":{"lat":48.8056099,"lng":2.303543},"travel_mode":"WALKING"},{"distance":{"text":"70 m","value":70},"duration":{"text":"1 minute","value":54},"end_location":{"lat":48.81088099999999,"lng":2.307008},"html_instructions":"Prendre <b>à gauche</b> sur <b>Avenue Marx Dormoy</b>/<b>D62</b><div style=\"font-size:0.9em\">Votre destination se trouvera sur la droite.</div>","maneuver":"turn-left","polyline":{"points":"si|hHowaMATALG|@AHEf@Cf@SE"},"start_location":{"lat":48.8106636,"lng":2.307921},"travel_mode":"WALKING"}],"travel_mode":"WALKING"},{"distance":{"text":"1,5 km","value":1495},"duration":{"text":"16 minutes","value":960},"end_location":{"lat":48.818741,"lng":2.291924},"html_instructions":"Bus vers Gare de Vanves-Malakoff","polyline":{"points":"_k|hHyqaMmBv^sAzJwR|SqKzLwIzN"},"start_location":{"lat":48.81088099999999,"lng":2.307008},"transit_details":{"arrival_stop":{"location":{"lat":48.818741,"lng":2.291924},"name":"Gare de Vanves-Malakoff"},"arrival_time":{"text":"10:31","time_zone":"Europe/Paris","value":1472718660},"departure_stop":{"location":{"lat":48.81088099999999,"lng":2.307008},"name":"Maurice Arnoux"},"departure_time":{"text":"10:15","time_zone":"Europe/Paris","value":1472717700},"headsign":"Gare de Vanves-Malakoff","line":{"agencies":[{"name":"STIF","url":"http://www.vianavigo.com/"}],"color":"#d2d200","short_name":"391","text_color":"#000000","vehicle":{"icon":"//maps.gstatic.com/mapfiles/transit/iw2/6/bus2.png","name":"Bus","type":"BUS"}},"num_stops":5},"travel_mode":"TRANSIT"},{"distance":{"text":"40 m","value":40},"duration":{"text":"1 minute","value":40},"end_location":{"lat":48.818388,"lng":2.292062},"html_instructions":"Marcher jusqu'à Gare de Vanves Malakoff","polyline":{"points":"c|}hHos~LdA["},"start_location":{"lat":48.818741,"lng":2.291924},"steps":[{"distance":{"text":"40 m","value":40},"duration":{"text":"1 minute","value":40},"end_location":{"lat":48.818388,"lng":2.292062},"polyline":{"points":"c|}hHos~LdA["},"start_location":{"lat":48.818741,"lng":2.291924},"travel_mode":"WALKING"}],"travel_mode":"WALKING"},{"distance":{"text":"3,3 km","value":3284},"duration":{"text":"4 minutes","value":240},"end_location":{"lat":48.84118700000001,"lng":2.320509},"html_instructions":"Train vers Gare Montparnasse","polyline":{"points":"}y}hHkt~Ls@aBqAiCqBsDwAcCiAaB_BwBkAuAyAiBuBkCuAgBcFwGiFgHkLgO_H{IsDyEyC{DqHiKyBqCcAsAeAsAuBoCmEeGwEqGq@}@k@w@eAoAoEeFkAqAyEcGoK_N"},"start_location":{"lat":48.818388,"lng":2.292062},"transit_details":{"arrival_stop":{"location":{"lat":48.84118700000001,"lng":2.320509},"name":"Gare Montparnasse"},"arrival_time":{"text":"10:41","time_zone":"Europe/Paris","value":1472719260},"departure_stop":{"location":{"lat":48.818388,"lng":2.292062},"name":"Gare de Vanves Malakoff"},"departure_time":{"text":"10:37","time_zone":"Europe/Paris","value":1472719020},"headsign":"Gare Montparnasse","line":{"agencies":[{"name":"STIF","url":"http://www.vianavigo.com/"}],"color":"#009688","short_name":"N","text_color":"#ffffff","vehicle":{"icon":"//maps.gstatic.com/mapfiles/transit/iw2/6/rail2.png","name":"Train","type":"HEAVY_RAIL"}},"num_stops":1},"travel_mode":"TRANSIT"},{"distance":{"text":"89 m","value":89},"duration":{"text":"1 minute","value":89},"end_location":{"lat":48.84199,"lng":2.320593},"html_instructions":"Marcher jusqu'à Gare Montparnasse","polyline":{"points":"mhbiHefdM_DO"},"start_location":{"lat":48.84118700000001,"lng":2.320509},"steps":[{"distance":{"text":"89 m","value":89},"duration":{"text":"1 minute","value":89},"end_location":{"lat":48.84199,"lng":2.320593},"polyline":{"points":"mhbiHefdM_DO"},"start_location":{"lat":48.84118700000001,"lng":2.320509},"travel_mode":"WALKING"}],"travel_mode":"WALKING"},{"distance":{"text":"4,2 km","value":4165},"duration":{"text":"23 minutes","value":1380},"end_location":{"lat":48.87432700000001,"lng":2.323648},"html_instructions":"Bus vers Louison Bobet","polyline":{"points":"mmbiHufdM{IiPcDqGoJaJaMeGaGnAkKnB{IzAeO|BuK~L{LfLuFdFk_@aLcR}QkSqH}EhS"},"start_location":{"lat":48.84199,"lng":2.320593},"transit_details":{"arrival_stop":{"location":{"lat":48.87432700000001,"lng":2.323648},"name":"Pasquier - Anjou"},"arrival_time":{"text":"11:21","time_zone":"Europe/Paris","value":1472721660},"departure_stop":{"location":{"lat":48.84199,"lng":2.320593},"name":"Gare Montparnasse"},"departure_time":{"text":"10:58","time_zone":"Europe/Paris","value":1472720280},"headsign":"Louison Bobet","line":{"agencies":[{"name":"STIF","url":"http://www.vianavigo.com/"}],"color":"#a0006e","short_name":"94","text_color":"#ffffff","vehicle":{"icon":"//maps.gstatic.com/mapfiles/transit/iw2/6/bus2.png","name":"Bus","type":"BUS"}},"num_stops":15},"travel_mode":"TRANSIT"},{"distance":{"text":"0,1 km","value":115},"duration":{"text":"1 minute","value":89},"end_location":{"lat":48.8748221,"lng":2.3228933},"html_instructions":"Marcher jusqu'à 73 Rue d'Anjou, 75008 Paris, France","polyline":{"points":"qwhiHyydMJBWnDuA["},"start_location":{"lat":48.87432700000001,"lng":2.323648},"steps":[{"distance":{"text":"66 m","value":66},"duration":{"text":"1 minute","value":48},"end_location":{"lat":48.8743906,"lng":2.3227511},"html_instructions":"Prendre la direction <b>ouest</b> sur <b>Boulevard Haussmann</b> vers <b>Rue d'Anjou</b>","polyline":{"points":"qwhiHyydMJBWnD"},"start_location":{"lat":48.87432700000001,"lng":2.323648},"travel_mode":"WALKING"},{"distance":{"text":"49 m","value":49},"duration":{"text":"1 minute","value":41},"end_location":{"lat":48.8748221,"lng":2.3228933},"html_instructions":"Prendre <b>à droite</b> sur <b>Rue d'Anjou</b><div style=\"font-size:0.9em\">Votre destination se trouvera sur la gauche.</div>","maneuver":"turn-right","polyline":{"points":"}whiHetdMuA["},"start_location":{"lat":48.8743906,"lng":2.3227511},"travel_mode":"WALKING"}],"travel_mode":"WALKING"}],"traffic_speed_entry":[],"via_waypoint":[]}],"overview_polyline":{"points":"aj{hHc|`M_A_@w@a@sB{AmGwFuAoAqKoJOUCb@IfAInASEmBv^sAzJwR|SqKzLwIzNdA[s@aBcE}HwAcCiAaB_BwBkAuAoEuFyH_KiFgHkLgOsMuPyC{DqHiK}DeF{DcFcOmSuGuHkAqAyEcGoK_N_DO{IiPcDqGoJaJaMeGaGnAgVjEeO|BuK~LqTlSk_@aLcR}QkSqH}EhSJBWnDuA["},"summary":"","warnings":["Le calcul d'itinéraires piétons est en bêta. Faites attention – Cet itinéraire n'est peut-être pas complètement aménagé pour les piétons."],"waypoint_order":[]}],"status":"OK"},"gobs":{"geocoded_waypoints":[{"geocoder_status":"OK","place_id":"ChIJo6ezwu5w5kcR-nHLVOEI5Fk","types":["street_address"]},{"geocoder_status":"OK","place_id":"ChIJS8pekPJx5kcRxS0S3NXQsW4","types":["street_address"]}],"routes":[{"bounds":{"northeast":{"lat":48.841955,"lng":2.3548511},"southwest":{"lat":48.8056099,"lng":2.303543}},"copyrights":"Données cartographiques ©2016 Google","legs":[{"arrival_time":{"text":"10:50","time_zone":"Europe/Paris","value":1472719824},"departure_time":{"text":"10:01","time_zone":"Europe/Paris","value":1472716899},"distance":{"text":"7,7 km","value":7728},"duration":{"text":"49 minutes","value":2925},"end_address":"73 Boulevard Saint-Marcel, 75005 Paris, France","end_location":{"lat":48.8377748,"lng":2.3548511},"start_address":"24 Av. Jean Jaurès, 92220 Bagneux, France","start_location":{"lat":48.8056099,"lng":2.303543},"steps":[{"distance":{"text":"1,1 km","value":1144},"duration":{"text":"14 minutes","value":822},"end_location":{"lat":48.811941,"lng":2.30415},"html_instructions":"Marcher jusqu'à Jean Monnet","polyline":{"points":"aj{hHc|`M_A_@w@a@cAq@o@i@e@a@iAcAsAmAiAcAe@a@o@m@qKoJOUMMkB_Ba@YEPGTuA|EI\\o@~B[dAg@pBWx@dBnDd@~@HK"},"start_location":{"lat":48.8056099,"lng":2.303543},"steps":[{"distance":{"text":"0,6 km","value":649},"duration":{"text":"8 minutes","value":467},"end_location":{"lat":48.8106636,"lng":2.307921},"html_instructions":"Prendre la direction <b>nord</b> sur <b>Av. Jean Jaurès</b>/<b>D128A</b> vers <b>Avenue Marx Dormoy</b>/<b>D62</b>","polyline":{"points":"aj{hHc|`M_A_@w@a@cAq@o@i@e@a@iAcAsAmAiAcAe@a@o@m@qKoJOU"},"start_location":{"lat":48.8056099,"lng":2.303543},"travel_mode":"WALKING"},{"distance":{"text":"0,1 km","value":99},"duration":{"text":"1 minute","value":78},"end_location":{"lat":48.81143729999999,"lng":2.3086005},"html_instructions":"Continuer sur <b>Rue Maurice Arnoux</b>/<b>D59</b>","polyline":{"points":"si|hHowaMMMkB_Ba@Y"},"start_location":{"lat":48.8106636,"lng":2.307921},"travel_mode":"WALKING"},{"distance":{"text":"0,3 km","value":279},"duration":{"text":"3 minutes","value":196},"end_location":{"lat":48.8126855,"lng":2.3052893},"html_instructions":"Prendre <b>à gauche</b> sur <b>Rue du Poitou</b>","maneuver":"turn-left","polyline":{"points":"on|hHw{aMEPGTuA|EI\\o@~B[dAg@pBWx@"},"start_location":{"lat":48.81143729999999,"lng":2.3086005},"travel_mode":"WALKING"},{"distance":{"text":"0,1 km","value":117},"duration":{"text":"1 minute","value":81},"end_location":{"lat":48.811941,"lng":2.30415},"html_instructions":"Prendre <b>à gauche</b> sur <b>Av. Jean Jaurès</b>/<b>D63A</b><div style=\"font-size:0.9em\">Votre destination se trouvera sur la gauche.</div>","maneuver":"turn-left","polyline":{"points":"iv|hHagaMdBnDd@~@HK"},"start_location":{"lat":48.8126855,"lng":2.3052893},"travel_mode":"WALKING"}],"travel_mode":"WALKING"},{"distance":{"text":"4,5 km","value":4492},"duration":{"text":"20 minutes","value":1200},"end_location":{"lat":48.84153300000001,"lng":2.329907},"html_instructions":"Bus vers Place de Clichy","polyline":{"points":"sq|hH}_aMuFoLgP_`@pAcf@{SeLqOeKkJyFo@_OuVsEoRyNeQaWwK~DgUpG{NvD"},"start_location":{"lat":48.811941,"lng":2.30415},"transit_details":{"arrival_stop":{"location":{"lat":48.84153300000001,"lng":2.329907},"name":"Vavin"},"arrival_time":{"text":"10:35","time_zone":"Europe/Paris","value":1472718900},"departure_stop":{"location":{"lat":48.811941,"lng":2.30415},"name":"Jean Monnet"},"departure_time":{"text":"10:15","time_zone":"Europe/Paris","value":1472717700},"headsign":"Place de Clichy","line":{"agencies":[{"name":"STIF","url":"http://www.vianavigo.com/"}],"color":"#ffb300","short_name":"68","text_color":"#000000","vehicle":{"icon":"//maps.gstatic.com/mapfiles/transit/iw2/6/bus2.png","name":"Bus","type":"BUS"}},"num_stops":13},"travel_mode":"TRANSIT"},{"distance":{"text":"72 m","value":72},"duration":{"text":"1 minute","value":72},"end_location":{"lat":48.841955,"lng":2.329158},"html_instructions":"Marcher jusqu'à Vavin","polyline":{"points":"qjbiH}`fMuAtC"},"start_location":{"lat":48.84153300000001,"lng":2.329907},"steps":[{"distance":{"text":"72 m","value":72},"duration":{"text":"1 minute","value":72},"end_location":{"lat":48.841955,"lng":2.329158},"polyline":{"points":"qjbiH}`fMuAtC"},"start_location":{"lat":48.84153300000001,"lng":2.329907},"travel_mode":"WALKING"}],"travel_mode":"WALKING"},{"distance":{"text":"1,8 km","value":1821},"duration":{"text":"8 minutes","value":480},"end_location":{"lat":48.836921,"lng":2.352631},"html_instructions":"Bus vers Bastille","polyline":{"points":"gmbiHg|eMnFcVfGsYvDyUvDmZfCum@"},"start_location":{"lat":48.841955,"lng":2.329158},"transit_details":{"arrival_stop":{"location":{"lat":48.836921,"lng":2.352631},"name":"Les Gobelins"},"arrival_time":{"text":"10:48","time_zone":"Europe/Paris","value":1472719680},"departure_stop":{"location":{"lat":48.841955,"lng":2.329158},"name":"Vavin"},"departure_time":{"text":"10:40","time_zone":"Europe/Paris","value":1472719200},"headsign":"Bastille","line":{"agencies":[{"name":"STIF","url":"http://www.vianavigo.com/"}],"color":"#dc9600","short_name":"91","text_color":"#000000","vehicle":{"icon":"//maps.gstatic.com/mapfiles/transit/iw2/6/bus2.png","name":"Bus","type":"BUS"}},"num_stops":5},"travel_mode":"TRANSIT"},{"distance":{"text":"0,2 km","value":199},"duration":{"text":"2 minutes","value":144},"end_location":{"lat":48.8377748,"lng":2.3548511},"html_instructions":"Marcher jusqu'à 73 Boulevard Saint-Marcel, 75005 Paris, France","polyline":{"points":"wmaiH}njMEBQ_AK[SJEWGWGYS}@WmAQ}@]{A"},"start_location":{"lat":48.836921,"lng":2.352631},"steps":[{"distance":{"text":"38 m","value":38},"duration":{"text":"1 minute","value":27},"end_location":{"lat":48.8371013,"lng":2.3530677},"html_instructions":"Prendre la direction <b>nord-est</b> vers <b>Rue Michel Peter</b>","polyline":{"points":"wmaiH}njMEBQ_AK["},"start_location":{"lat":48.836921,"lng":2.352631},"travel_mode":"WALKING"},{"distance":{"text":"11 m","value":11},"duration":{"text":"1 minute","value":8},"end_location":{"lat":48.8371962,"lng":2.3530073},"html_instructions":"Prendre <b>à gauche</b> sur <b>Rue Michel Peter</b>","maneuver":"turn-left","polyline":{"points":"{naiHuqjMSJ"},"start_location":{"lat":48.8371013,"lng":2.3530677},"travel_mode":"WALKING"},{"distance":{"text":"0,2 km","value":150},"duration":{"text":"2 minutes","value":109},"end_location":{"lat":48.8377748,"lng":2.3548511},"html_instructions":"Prendre <b>à droite</b> sur <b>Boulevard Saint-Marcel</b><div style=\"font-size:0.9em\">Votre destination se trouvera sur la droite.</div>","maneuver":"turn-right","polyline":{"points":"ooaiHiqjMEWGWGYS}@WmAQ}@]{A"},"start_location":{"lat":48.8371962,"lng":2.3530073},"travel_mode":"WALKING"}],"travel_mode":"WALKING"}],"traffic_speed_entry":[],"via_waypoint":[]}],"overview_polyline":{"points":"aj{hHc|`M_A_@w@a@sB{AmGwFuAoAqKoJOUyBmBa@YEP}ArFy@|CcAvDWx@dBnDd@~@HKuFoLgP_`@pAcf@{SeLqOeKkJyFo@_OuVsEoRyNeQaWwK~DgUpG{NvDuAtCnFcVfGsYvDyUvDmZfCum@EB]{ASJEWOq@{AeH"},"summary":"","warnings":["Le calcul d'itinéraires piétons est en bêta. Faites attention – Cet itinéraire n'est peut-être pas complètement aménagé pour les piétons."],"waypoint_order":[]},{"bounds":{"northeast":{"lat":48.840034,"lng":2.3548511},"southwest":{"lat":48.8056099,"lng":2.303543}},"copyrights":"Données cartographiques ©2016 Google","legs":[{"arrival_time":{"text":"10:57","time_zone":"Europe/Paris","value":1472720244},"departure_time":{"text":"10:14","time_zone":"Europe/Paris","value":1472717655},"distance":{"text":"8,1 km","value":8121},"duration":{"text":"43 minutes","value":2589},"end_address":"73 Boulevard Saint-Marcel, 75005 Paris, France","end_location":{"lat":48.8377748,"lng":2.3548511},"start_address":"24 Av. Jean Jaurès, 92220 Bagneux, France","start_location":{"lat":48.8056099,"lng":2.303543},"steps":[{"distance":{"text":"0,7 km","value":717},"duration":{"text":"9 minutes","value":519},"end_location":{"lat":48.81065599999999,"lng":2.306981},"html_instructions":"Marcher jusqu'à Maurice Arnoux","polyline":{"points":"aj{hHc|`M_A_@w@a@cAq@o@i@e@a@iAcAsAmAiAcAe@a@o@m@qKoJOUATALG|@AHEf@C`@VD"},"start_location":{"lat":48.8056099,"lng":2.303543},"steps":[{"distance":{"text":"0,6 km","value":649},"duration":{"text":"8 minutes","value":467},"end_location":{"lat":48.8106636,"lng":2.307921},"html_instructions":"Prendre la direction <b>nord</b> sur <b>Av. Jean Jaurès</b>/<b>D128A</b> vers <b>Avenue Marx Dormoy</b>/<b>D62</b>","polyline":{"points":"aj{hHc|`M_A_@w@a@cAq@o@i@e@a@iAcAsAmAiAcAe@a@o@m@qKoJOU"},"start_location":{"lat":48.8056099,"lng":2.303543},"travel_mode":"WALKING"},{"distance":{"text":"68 m","value":68},"duration":{"text":"1 minute","value":52},"end_location":{"lat":48.81065599999999,"lng":2.306981},"html_instructions":"Prendre <b>à gauche</b> sur <b>Avenue Marx Dormoy</b>/<b>D62</b><div style=\"font-size:0.9em\">Votre destination se trouvera sur la gauche.</div>","maneuver":"turn-left","polyline":{"points":"si|hHowaMATALG|@AHEf@C`@VD"},"start_location":{"lat":48.8106636,"lng":2.307921},"travel_mode":"WALKING"}],"travel_mode":"WALKING"},{"distance":{"text":"2,0 km","value":1974},"duration":{"text":"7 minutes","value":420},"end_location":{"lat":48.807847,"lng":2.333041},"html_instructions":"Bus vers Gambetta","polyline":{"points":"si|hHsqaMfBef@fAo]h@}\\T_PeA{IvFkUnC_L"},"start_location":{"lat":48.81065599999999,"lng":2.306981},"transit_details":{"arrival_stop":{"location":{"lat":48.807847,"lng":2.333041},"name":"Laplace RER"},"arrival_time":{"text":"10:30","time_zone":"Europe/Paris","value":1472718600},"departure_stop":{"location":{"lat":48.81065599999999,"lng":2.306981},"name":"Maurice Arnoux"},"departure_time":{"text":"10:23","time_zone":"Europe/Paris","value":1472718180},"headsign":"Gambetta","line":{"agencies":[{"name":"STIF","url":"http://www.vianavigo.com/"}],"color":"#d2d200","short_name":"323","text_color":"#000000","vehicle":{"icon":"//maps.gstatic.com/mapfiles/transit/iw2/6/bus2.png","name":"Bus","type":"BUS"}},"num_stops":7},"travel_mode":"TRANSIT"},{"distance":{"text":"0,1 km","value":108},"duration":{"text":"2 minutes","value":108},"end_location":{"lat":48.808297,"lng":2.334354},"html_instructions":"Marcher jusqu'à Gare de Laplace","polyline":{"points":"ax{hHotfMyAeG"},"start_location":{"lat":48.807847,"lng":2.333041},"steps":[{"distance":{"text":"0,1 km","value":108},"duration":{"text":"2 minutes","value":108},"end_location":{"lat":48.808297,"lng":2.334354},"polyline":{"points":"ax{hHotfMyAeG"},"start_location":{"lat":48.807847,"lng":2.333041},"travel_mode":"WALKING"}],"travel_mode":"WALKING"},{"distance":{"text":"3,9 km","value":3882},"duration":{"text":"8 minutes","value":480},"end_location":{"lat":48.840034,"lng":2.337096},"html_instructions":"RER vers Gare de Mitry Claye","polyline":{"points":"{z{hHu|fMgAaBaCoDm@y@s@eAeDwEw@kAi@w@oCcE_AgAwA}Aa@_@u@k@gAo@m@]WKm@Q_@GMCMCa@E[AS?c@?e@Da@DgARe@Ng@Lc@Pc@Pg@Tu@^{Az@{Az@eAj@c@P_@P_@HYHWF_ANi@Da@Bk@@gBMk@Ew@@_ABm@Jc@Jq@ZeAr@]RYPo@`@e@Ra@Pk@Rk@Rs@Rw@PqAXsCp@sDx@gDv@{B`@_B\\_ATq@Lk@Lo@No@Ro@Xm@Z]TYVi@j@WVc@h@e@h@a@b@i@l@_@Zm@b@ULs@VmAZeDv@o@PaAX]Jc@F]Di@B]?g@G_AYa@S[Sk@g@kAaAkAgA}@}@?AuAuAyA{Ao@s@gAiAcAaAw@k@cAg@}@Y{@YsA["},"start_location":{"lat":48.808297,"lng":2.334354},"transit_details":{"arrival_stop":{"location":{"lat":48.840034,"lng":2.337096},"name":"Port-Royal"},"arrival_time":{"text":"10:44","time_zone":"Europe/Paris","value":1472719440},"departure_stop":{"location":{"lat":48.808297,"lng":2.334354},"name":"Gare de Laplace"},"departure_time":{"text":"10:36","time_zone":"Europe/Paris","value":1472718960},"headsign":"Gare de Mitry Claye","line":{"agencies":[{"name":"STIF","url":"http://www.vianavigo.com/"}],"color":"#5092c9","short_name":"RER B","text_color":"#ffffff","vehicle":{"icon":"//maps.gstatic.com/mapfiles/transit/iw2/6/rail2.png","local_icon":"//maps.gstatic.com/mapfiles/transit/iw2/6/fr-paris-rail.png","name":"RER","type":"COMMUTER_TRAIN"}},"num_stops":4},"travel_mode":"TRANSIT"},{"distance":{"text":"66 m","value":66},"duration":{"text":"1 minute","value":65},"end_location":{"lat":48.839439,"lng":2.337123},"html_instructions":"Marcher jusqu'à Observatoire - Port Royal","polyline":{"points":"eabiH{mgMx@Bz@G"},"start_location":{"lat":48.840034,"lng":2.337096},"steps":[{"distance":{"text":"32 m","value":32},"duration":{"text":"1 minute","value":31},"end_location":{"lat":48.839744,"lng":2.33708},"polyline":{"points":"eabiH{mgMx@B"},"start_location":{"lat":48.840034,"lng":2.337096},"travel_mode":"WALKING"},{"distance":{"text":"34 m","value":34},"duration":{"text":"1 minute","value":34},"end_location":{"lat":48.839439,"lng":2.337123},"polyline":{"points":"k_biHwmgMz@G"},"start_location":{"lat":48.839744,"lng":2.33708},"travel_mode":"WALKING"}],"travel_mode":"WALKING"},{"distance":{"text":"1,2 km","value":1175},"duration":{"text":"5 minutes","value":300},"end_location":{"lat":48.836921,"lng":2.352631},"html_instructions":"Bus vers Bastille","polyline":{"points":"o}aiH_ngMvDyUvDmZfCum@"},"start_location":{"lat":48.839439,"lng":2.337123},"transit_details":{"arrival_stop":{"location":{"lat":48.836921,"lng":2.352631},"name":"Les Gobelins"},"arrival_time":{"text":"10:55","time_zone":"Europe/Paris","value":1472720100},"departure_stop":{"location":{"lat":48.839439,"lng":2.337123},"name":"Observatoire - Port Royal"},"departure_time":{"text":"10:50","time_zone":"Europe/Paris","value":1472719800},"headsign":"Bastille","line":{"agencies":[{"name":"STIF","url":"http://www.vianavigo.com/"}],"color":"#dc9600","short_name":"91","text_color":"#000000","vehicle":{"icon":"//maps.gstatic.com/mapfiles/transit/iw2/6/bus2.png","name":"Bus","type":"BUS"}},"num_stops":3},"travel_mode":"TRANSIT"},{"distance":{"text":"0,2 km","value":199},"duration":{"text":"2 minutes","value":144},"end_location":{"lat":48.8377748,"lng":2.3548511},"html_instructions":"Marcher jusqu'à 73 Boulevard Saint-Marcel, 75005 Paris, France","polyline":{"points":"wmaiH}njMEBQ_AK[SJEWGWGYS}@WmAQ}@]{A"},"start_location":{"lat":48.836921,"lng":2.352631},"steps":[{"distance":{"text":"38 m","value":38},"duration":{"text":"1 minute","value":27},"end_location":{"lat":48.8371013,"lng":2.3530677},"html_instructions":"Prendre la direction <b>nord-est</b> vers <b>Rue Michel Peter</b>","polyline":{"points":"wmaiH}njMEBQ_AK["},"start_location":{"lat":48.836921,"lng":2.352631},"travel_mode":"WALKING"},{"distance":{"text":"11 m","value":11},"duration":{"text":"1 minute","value":8},"end_location":{"lat":48.8371962,"lng":2.3530073},"html_instructions":"Prendre <b>à gauche</b> sur <b>Rue Michel Peter</b>","maneuver":"turn-left","polyline":{"points":"{naiHuqjMSJ"},"start_location":{"lat":48.8371013,"lng":2.3530677},"travel_mode":"WALKING"},{"distance":{"text":"0,2 km","value":150},"duration":{"text":"2 minutes","value":109},"end_location":{"lat":48.8377748,"lng":2.3548511},"html_instructions":"Prendre <b>à droite</b> sur <b>Boulevard Saint-Marcel</b><div style=\"font-size:0.9em\">Votre destination se trouvera sur la droite.</div>","maneuver":"turn-right","polyline":{"points":"ooaiHiqjMEWGWGYS}@WmAQ}@]{A"},"start_location":{"lat":48.8371962,"lng":2.3530073},"travel_mode":"WALKING"}],"travel_mode":"WALKING"}],"traffic_speed_entry":[],"via_waypoint":[]}],"overview_polyline":{"points":"aj{hHc|`M_A_@w@a@sB{AmGwFuAoAqKoJOUCb@IfAIhAVDfBef@fAo]h@}\\T_PeA{IfKkb@yAeGkHqK}EcHyD{FwCeDwAkAuBmAeA]}AUo@AiADa@DmBb@kA^kAf@qCzAaDfBcAb@y@RwAVkAHk@@gBMk@Ew@@_ABm@Jc@Jq@ZcBfAiAr@gAd@wAf@kBd@aQ|DmIbB{A\\_Bl@kAp@cAbAcCnCiAhAcAp@aCr@uEhA_Bd@aALi@BeAG_AYa@SgA{@wCiC}@_AgHoHcAaAw@k@cAg@}@Y{@YsA[x@Bz@GvDyUvDmZfCum@EBQ_AK[SJMo@[wAgAgF"},"summary":"","warnings":["Le calcul d'itinéraires piétons est en bêta. Faites attention – Cet itinéraire n'est peut-être pas complètement aménagé pour les piétons."],"waypoint_order":[]},{"bounds":{"northeast":{"lat":48.8384846,"lng":2.3592856},"southwest":{"lat":48.8056099,"lng":2.303543}},"copyrights":"Données cartographiques ©2016 Google","legs":[{"arrival_time":{"text":"11:09","time_zone":"Europe/Paris","value":1472720975},"departure_time":{"text":"10:14","time_zone":"Europe/Paris","value":1472717655},"distance":{"text":"7,5 km","value":7502},"duration":{"text":"55 minutes","value":3320},"end_address":"73 Boulevard Saint-Marcel, 75005 Paris, France","end_location":{"lat":48.8377748,"lng":2.3548511},"start_address":"24 Av. Jean Jaurès, 92220 Bagneux, France","start_location":{"lat":48.8056099,"lng":2.303543},"steps":[{"distance":{"text":"0,7 km","value":717},"duration":{"text":"9 minutes","value":519},"end_location":{"lat":48.81065599999999,"lng":2.306981},"html_instructions":"Marcher jusqu'à Maurice Arnoux","polyline":{"points":"aj{hHc|`M_A_@w@a@cAq@o@i@e@a@iAcAsAmAiAcAe@a@o@m@qKoJOUATALG|@AHEf@C`@VD"},"start_location":{"lat":48.8056099,"lng":2.303543},"steps":[{"distance":{"text":"0,6 km","value":649},"duration":{"text":"8 minutes","value":467},"end_location":{"lat":48.8106636,"lng":2.307921},"html_instructions":"Prendre la direction <b>nord</b> sur <b>Av. Jean Jaurès</b>/<b>D128A</b> vers <b>Avenue Marx Dormoy</b>/<b>D62</b>","polyline":{"points":"aj{hHc|`M_A_@w@a@cAq@o@i@e@a@iAcAsAmAiAcAe@a@o@m@qKoJOU"},"start_location":{"lat":48.8056099,"lng":2.303543},"travel_mode":"WALKING"},{"distance":{"text":"68 m","value":68},"duration":{"text":"1 minute","value":52},"end_location":{"lat":48.81065599999999,"lng":2.306981},"html_instructions":"Prendre <b>à gauche</b> sur <b>Avenue Marx Dormoy</b>/<b>D62</b><div style=\"font-size:0.9em\">Votre destination se trouvera sur la gauche.</div>","maneuver":"turn-left","polyline":{"points":"si|hHowaMATALG|@AHEf@C`@VD"},"start_location":{"lat":48.8106636,"lng":2.307921},"travel_mode":"WALKING"}],"travel_mode":"WALKING"},{"distance":{"text":"2,0 km","value":1974},"duration":{"text":"7 minutes","value":420},"end_location":{"lat":48.807847,"lng":2.333041},"html_instructions":"Bus vers Gambetta","polyline":{"points":"si|hHsqaMfBef@fAo]h@}\\T_PeA{IvFkUnC_L"},"start_location":{"lat":48.81065599999999,"lng":2.306981},"transit_details":{"arrival_stop":{"location":{"lat":48.807847,"lng":2.333041},"name":"Laplace RER"},"arrival_time":{"text":"10:30","time_zone":"Europe/Paris","value":1472718600},"departure_stop":{"location":{"lat":48.81065599999999,"lng":2.306981},"name":"Maurice Arnoux"},"departure_time":{"text":"10:23","time_zone":"Europe/Paris","value":1472718180},"headsign":"Gambetta","line":{"agencies":[{"name":"STIF","url":"http://www.vianavigo.com/"}],"color":"#d2d200","short_name":"323","text_color":"#000000","vehicle":{"icon":"//maps.gstatic.com/mapfiles/transit/iw2/6/bus2.png","name":"Bus","type":"BUS"}},"num_stops":7},"travel_mode":"TRANSIT"},{"distance":{"text":"41 m","value":41},"duration":{"text":"1 minute","value":41},"end_location":{"lat":48.808188,"lng":2.332796},"html_instructions":"Marcher jusqu'à Laplace RER","polyline":{"points":"ax{hHotfMcAn@"},"start_location":{"lat":48.807847,"lng":2.333041},"steps":[{"distance":{"text":"41 m","value":41},"duration":{"text":"1 minute","value":41},"end_location":{"lat":48.808188,"lng":2.332796},"polyline":{"points":"ax{hHotfMcAn@"},"start_location":{"lat":48.807847,"lng":2.333041},"travel_mode":"WALKING"}],"travel_mode":"WALKING"},{"distance":{"text":"4,3 km","value":4296},"duration":{"text":"22 minutes","value":1320},"end_location":{"lat":48.836336,"lng":2.359275},"html_instructions":"Bus vers Porte de Bagnolet - Louis Ganne","polyline":{"points":"ez{hH_sfMcPySJwGxCyf@kIsLwJcJwA}HqPeXeRjAeYsAmKUsLfCsM_KsHkGsLeIgK}G"},"start_location":{"lat":48.808188,"lng":2.332796},"transit_details":{"arrival_stop":{"location":{"lat":48.836336,"lng":2.359275},"name":"Jenner - Jeanne d'Arc"},"arrival_time":{"text":"11:04","time_zone":"Europe/Paris","value":1472720640},"departure_stop":{"location":{"lat":48.808188,"lng":2.332796},"name":"Laplace RER"},"departure_time":{"text":"10:42","time_zone":"Europe/Paris","value":1472719320},"headsign":"Porte de Bagnolet - Louis Ganne","line":{"agencies":[{"name":"STIF","url":"http://www.vianavigo.com/"}],"color":"#6e6e00","short_name":"57","text_color":"#ffffff","vehicle":{"icon":"//maps.gstatic.com/mapfiles/transit/iw2/6/bus2.png","name":"Bus","type":"BUS"}},"num_stops":15},"travel_mode":"TRANSIT"},{"distance":{"text":"0,5 km","value":474},"duration":{"text":"6 minutes","value":334},"end_location":{"lat":48.8377748,"lng":2.3548511},"html_instructions":"Marcher jusqu'à 73 Boulevard Saint-Marcel, 75005 Paris, France","polyline":{"points":"cjaiHmxkMGVa@[O\\GJCBIHOHaAlAiA~AaBbCk@x@GDEBEBMDO@dAxEh@~B\\xA"},"start_location":{"lat":48.836336,"lng":2.359275},"steps":[{"distance":{"text":"21 m","value":21},"duration":{"text":"1 minute","value":15},"end_location":{"lat":48.8365472,"lng":2.3592856},"html_instructions":"Prendre la direction <b>nord-est</b> sur <b>Boulevard de l'Hôpital</b> vers <b>Rue Jeanne d'Arc</b>","polyline":{"points":"cjaiHmxkMGVa@["},"start_location":{"lat":48.836336,"lng":2.359275},"travel_mode":"WALKING"},{"distance":{"text":"0,3 km","value":275},"duration":{"text":"3 minutes","value":182},"end_location":{"lat":48.8384846,"lng":2.3570328},"html_instructions":"Prendre <b>à gauche</b> sur <b>Rue Jeanne d'Arc</b>","maneuver":"turn-left","polyline":{"points":"mkaiHqxkMO\\GJCBIHOHaAlAiA~AaBbCk@x@GDEBEBMDO@"},"start_location":{"lat":48.8365472,"lng":2.3592856},"travel_mode":"WALKING"},{"distance":{"text":"0,2 km","value":178},"duration":{"text":"2 minutes","value":137},"end_location":{"lat":48.8377748,"lng":2.3548511},"html_instructions":"Prendre <b>à gauche</b> sur <b>Boulevard Saint-Marcel</b><div style=\"font-size:0.9em\">Votre destination se trouvera sur la gauche.</div>","maneuver":"turn-left","polyline":{"points":"owaiHmjkMdAxEh@~B\\xA"},"start_location":{"lat":48.8384846,"lng":2.3570328},"travel_mode":"WALKING"}],"travel_mode":"WALKING"}],"traffic_speed_entry":[],"via_waypoint":[]}],"overview_polyline":{"points":"aj{hHc|`M_A_@w@a@sB{AmGwFuAoAqKoJOUCb@IfAIhAVDfBef@fAo]h@}\\T_PeA{IfKkb@cAn@cPySJwGxCyf@kIsLwJcJwA}HqPeXeRjAeYsAmKUsLfCsM_KsHkGsLeIgK}GGVa@[Wh@MLOHaAlAkDbFs@~@KF]FnBxI\\xA"},"summary":"","warnings":["Le calcul d'itinéraires piétons est en bêta. Faites attention – Cet itinéraire n'est peut-être pas complètement aménagé pour les piétons."],"waypoint_order":[]},{"bounds":{"northeast":{"lat":48.8435,"lng":2.3548511},"southwest":{"lat":48.8056099,"lng":2.291924}},"copyrights":"Données cartographiques ©2016 Google","legs":[{"arrival_time":{"text":"11:05","time_zone":"Europe/Paris","value":1472720724},"departure_time":{"text":"10:06","time_zone":"Europe/Paris","value":1472717179},"distance":{"text":"8,4 km","value":8379},"duration":{"text":"59 minutes","value":3545},"end_address":"73 Boulevard Saint-Marcel, 75005 Paris, France","end_location":{"lat":48.8377748,"lng":2.3548511},"start_address":"24 Av. Jean Jaurès, 92220 Bagneux, France","start_location":{"lat":48.8056099,"lng":2.303543},"steps":[{"distance":{"text":"0,7 km","value":719},"duration":{"text":"9 minutes","value":521},"end_location":{"lat":48.81088099999999,"lng":2.307008},"html_instructions":"Marcher jusqu'à Maurice Arnoux","polyline":{"points":"aj{hHc|`M_A_@w@a@cAq@o@i@e@a@iAcAsAmAiAcAe@a@o@m@qKoJOUATALG|@AHEf@Cf@SE"},"start_location":{"lat":48.8056099,"lng":2.303543},"steps":[{"distance":{"text":"0,6 km","value":649},"duration":{"text":"8 minutes","value":467},"end_location":{"lat":48.8106636,"lng":2.307921},"html_instructions":"Prendre la direction <b>nord</b> sur <b>Av. Jean Jaurès</b>/<b>D128A</b> vers <b>Avenue Marx Dormoy</b>/<b>D62</b>","polyline":{"points":"aj{hHc|`M_A_@w@a@cAq@o@i@e@a@iAcAsAmAiAcAe@a@o@m@qKoJOU"},"start_location":{"lat":48.8056099,"lng":2.303543},"travel_mode":"WALKING"},{"distance":{"text":"70 m","value":70},"duration":{"text":"1 minute","value":54},"end_location":{"lat":48.81088099999999,"lng":2.307008},"html_instructions":"Prendre <b>à gauche</b> sur <b>Avenue Marx Dormoy</b>/<b>D62</b><div style=\"font-size:0.9em\">Votre destination se trouvera sur la droite.</div>","maneuver":"turn-left","polyline":{"points":"si|hHowaMATALG|@AHEf@Cf@SE"},"start_location":{"lat":48.8106636,"lng":2.307921},"travel_mode":"WALKING"}],"travel_mode":"WALKING"},{"distance":{"text":"1,5 km","value":1495},"duration":{"text":"16 minutes","value":960},"end_location":{"lat":48.818741,"lng":2.291924},"html_instructions":"Bus vers Gare de Vanves-Malakoff","polyline":{"points":"_k|hHyqaMmBv^sAzJwR|SqKzLwIzN"},"start_location":{"lat":48.81088099999999,"lng":2.307008},"transit_details":{"arrival_stop":{"location":{"lat":48.818741,"lng":2.291924},"name":"Gare de Vanves-Malakoff"},"arrival_time":{"text":"10:31","time_zone":"Europe/Paris","value":1472718660},"departure_stop":{"location":{"lat":48.81088099999999,"lng":2.307008},"name":"Maurice Arnoux"},"departure_time":{"text":"10:15","time_zone":"Europe/Paris","value":1472717700},"headsign":"Gare de Vanves-Malakoff","line":{"agencies":[{"name":"STIF","url":"http://www.vianavigo.com/"}],"color":"#d2d200","short_name":"391","text_color":"#000000","vehicle":{"icon":"//maps.gstatic.com/mapfiles/transit/iw2/6/bus2.png","name":"Bus","type":"BUS"}},"num_stops":5},"travel_mode":"TRANSIT"},{"distance":{"text":"40 m","value":40},"duration":{"text":"1 minute","value":40},"end_location":{"lat":48.818388,"lng":2.292062},"html_instructions":"Marcher jusqu'à Gare de Vanves Malakoff","polyline":{"points":"c|}hHos~LdA["},"start_location":{"lat":48.818741,"lng":2.291924},"steps":[{"distance":{"text":"40 m","value":40},"duration":{"text":"1 minute","value":40},"end_location":{"lat":48.818388,"lng":2.292062},"polyline":{"points":"c|}hHos~LdA["},"start_location":{"lat":48.818741,"lng":2.291924},"travel_mode":"WALKING"}],"travel_mode":"WALKING"},{"distance":{"text":"3,3 km","value":3284},"duration":{"text":"4 minutes","value":240},"end_location":{"lat":48.84118700000001,"lng":2.320509},"html_instructions":"Train vers Gare Montparnasse","polyline":{"points":"}y}hHkt~Ls@aBqAiCqBsDwAcCiAaB_BwBkAuAyAiBuBkCuAgBcFwGiFgHkLgO_H{IsDyEyC{DqHiKyBqCcAsAeAsAuBoCmEeGwEqGq@}@k@w@eAoAoEeFkAqAyEcGoK_N"},"start_location":{"lat":48.818388,"lng":2.292062},"transit_details":{"arrival_stop":{"location":{"lat":48.84118700000001,"lng":2.320509},"name":"Gare Montparnasse"},"arrival_time":{"text":"10:41","time_zone":"Europe/Paris","value":1472719260},"departure_stop":{"location":{"lat":48.818388,"lng":2.292062},"name":"Gare de Vanves Malakoff"},"departure_time":{"text":"10:37","time_zone":"Europe/Paris","value":1472719020},"headsign":"Gare Montparnasse","line":{"agencies":[{"name":"STIF","url":"http://www.vianavigo.com/"}],"color":"#009688","short_name":"N","text_color":"#ffffff","vehicle":{"icon":"//maps.gstatic.com/mapfiles/transit/iw2/6/rail2.png","name":"Train","type":"HEAVY_RAIL"}},"num_stops":1},"travel_mode":"TRANSIT"},{"distance":{"text":"79 m","value":79},"duration":{"text":"1 minute","value":79},"end_location":{"lat":48.841882,"lng":2.32028},"html_instructions":"Marcher jusqu'à Gare Montparnasse","polyline":{"points":"mhbiHefdMiCl@"},"start_location":{"lat":48.84118700000001,"lng":2.320509},"steps":[{"distance":{"text":"79 m","value":79},"duration":{"text":"1 minute","value":79},"end_location":{"lat":48.841882,"lng":2.32028},"polyline":{"points":"mhbiHefdMiCl@"},"start_location":{"lat":48.84118700000001,"lng":2.320509},"travel_mode":"WALKING"}],"travel_mode":"WALKING"},{"distance":{"text":"2,6 km","value":2563},"duration":{"text":"13 minutes","value":780},"end_location":{"lat":48.836921,"lng":2.352631},"html_instructions":"Bus vers Bastille","polyline":{"points":"wlbiHwddMcIcUrHk`@nFcVfGsYvDyUvDmZfCum@"},"start_location":{"lat":48.841882,"lng":2.32028},"transit_details":{"arrival_stop":{"location":{"lat":48.836921,"lng":2.352631},"name":"Les Gobelins"},"arrival_time":{"text":"11:03","time_zone":"Europe/Paris","value":1472720580},"departure_stop":{"location":{"lat":48.841882,"lng":2.32028},"name":"Gare Montparnasse"},"departure_time":{"text":"10:50","time_zone":"Europe/Paris","value":1472719800},"headsign":"Bastille","line":{"agencies":[{"name":"STIF","url":"http://www.vianavigo.com/"}],"color":"#dc9600","short_name":"91","text_color":"#000000","vehicle":{"icon":"//maps.gstatic.com/mapfiles/transit/iw2/6/bus2.png","name":"Bus","type":"BUS"}},"num_stops":7},"travel_mode":"TRANSIT"},{"distance":{"text":"0,2 km","value":199},"duration":{"text":"2 minutes","value":144},"end_location":{"lat":48.8377748,"lng":2.3548511},"html_instructions":"Marcher jusqu'à 73 Boulevard Saint-Marcel, 75005 Paris, France","polyline":{"points":"wmaiH}njMEBQ_AK[SJEWGWGYS}@WmAQ}@]{A"},"start_location":{"lat":48.836921,"lng":2.352631},"steps":[{"distance":{"text":"38 m","value":38},"duration":{"text":"1 minute","value":27},"end_location":{"lat":48.8371013,"lng":2.3530677},"html_instructions":"Prendre la direction <b>nord-est</b> vers <b>Rue Michel Peter</b>","polyline":{"points":"wmaiH}njMEBQ_AK["},"start_location":{"lat":48.836921,"lng":2.352631},"travel_mode":"WALKING"},{"distance":{"text":"11 m","value":11},"duration":{"text":"1 minute","value":8},"end_location":{"lat":48.8371962,"lng":2.3530073},"html_instructions":"Prendre <b>à gauche</b> sur <b>Rue Michel Peter</b>","maneuver":"turn-left","polyline":{"points":"{naiHuqjMSJ"},"start_location":{"lat":48.8371013,"lng":2.3530677},"travel_mode":"WALKING"},{"distance":{"text":"0,2 km","value":150},"duration":{"text":"2 minutes","value":109},"end_location":{"lat":48.8377748,"lng":2.3548511},"html_instructions":"Prendre <b>à droite</b> sur <b>Boulevard Saint-Marcel</b><div style=\"font-size:0.9em\">Votre destination se trouvera sur la droite.</div>","maneuver":"turn-right","polyline":{"points":"ooaiHiqjMEWGWGYS}@WmAQ}@]{A"},"start_location":{"lat":48.8371962,"lng":2.3530073},"travel_mode":"WALKING"}],"travel_mode":"WALKING"}],"traffic_speed_entry":[],"via_waypoint":[]}],"overview_polyline":{"points":"aj{hHc|`M_A_@w@a@sB{AmGwFuAoAqKoJOUCb@IfAInASEmBv^sAzJwR|SqKzLwIzNdA[s@aBcE}HwAcCiAaB_BwBkAuAoEuFyH_KiFgHkLgOsMuPyC{DqHiK}DeF{DcFcOmSuGuHkAqAyEcGoK_NiCl@cIcUrHk`@nFcVfGsYvDyUvDmZfCum@EBQ_AK[SJMo@eAcF]{A"},"summary":"","warnings":["Le calcul d'itinéraires piétons est en bêta. Faites attention – Cet itinéraire n'est peut-être pas complètement aménagé pour les piétons."],"waypoint_order":[]}],"status":"OK"}},null,{"origin":{"lat":2.2741835364502236,"lng":48.891291404736165},"taff":{"geocoded_waypoints":[{"geocoder_status":"OK","place_id":"EjMyMS0yNyBSdWUgQ2hhdXZlYXUsIDkyMjAwIE5ldWlsbHktc3VyLVNlaW5lLCBGcmFuY2U","types":["route","street_address"]},{"geocoder_status":"OK","place_id":"ChIJc5sm28pv5kcR0cpsawDOfSg","types":["street_address"]}],"routes":[{"bounds":{"northeast":{"lat":48.8915612,"lng":2.3229451},"southwest":{"lat":48.87479099999999,"lng":2.26217}},"copyrights":"Données cartographiques ©2016 Google","legs":[{"arrival_time":{"text":"10:35","time_zone":"Europe/Paris","value":1472718925},"departure_time":{"text":"10:00","time_zone":"Europe/Paris","value":1472716833},"distance":{"text":"5,8 km","value":5832},"duration":{"text":"35 minutes","value":2092},"end_address":"73 Rue d'Anjou, 75008 Paris, France","end_location":{"lat":48.8748221,"lng":2.3228933},"start_address":"21-27 Rue Chauveau, 92200 Neuilly-sur-Seine, France","start_location":{"lat":48.8908803,"lng":2.273696},"steps":[{"distance":{"text":"0,3 km","value":334},"duration":{"text":"4 minutes","value":267},"end_location":{"lat":48.890576,"lng":2.269905},"html_instructions":"Marcher jusqu'à Bineau - Château","polyline":{"points":"__liHsa{LO^_@|@MVw@jBQ^dDvJHTb@vAON"},"start_location":{"lat":48.8908803,"lng":2.273696},"steps":[{"distance":{"text":"0,1 km","value":121},"duration":{"text":"1 minute","value":87},"end_location":{"lat":48.8915612,"lng":2.2724128},"html_instructions":"Prendre la direction <b>nord-ouest</b> sur <b>Rue Chauveau</b> vers <b>Boulevard du Château</b>/<b>D16</b>","polyline":{"points":"__liHsa{LO^_@|@MVw@jBQ^"},"start_location":{"lat":48.8908803,"lng":2.273696},"travel_mode":"WALKING"},{"distance":{"text":"0,2 km","value":213},"duration":{"text":"3 minutes","value":180},"end_location":{"lat":48.890576,"lng":2.269905},"html_instructions":"Prendre <b>à gauche</b> sur <b>Boulevard du Château</b>/<b>D16</b><div style=\"font-size:0.9em\">Continuer de suivre Boulevard du Château</div><div style=\"font-size:0.9em\">Votre destination se trouvera sur la droite.</div>","maneuver":"turn-left","polyline":{"points":"gcliHqyzLdDvJHTb@vAON"},"start_location":{"lat":48.8915612,"lng":2.2724128},"travel_mode":"WALKING"}],"travel_mode":"WALKING"},{"distance":{"text":"1,9 km","value":1903},"duration":{"text":"7 minutes","value":420},"end_location":{"lat":48.882572,"lng":2.276674},"html_instructions":"Bus vers Luxembourg","polyline":{"points":"c}kiH{izLvIfXlElKnJrIvBoKjD{VtDgXpE_\\"},"start_location":{"lat":48.890576,"lng":2.269905},"transit_details":{"arrival_stop":{"location":{"lat":48.882572,"lng":2.276674},"name":"Chartres"},"arrival_time":{"text":"10:12","time_zone":"Europe/Paris","value":1472717520},"departure_stop":{"location":{"lat":48.890576,"lng":2.269905},"name":"Bineau - Château"},"departure_time":{"text":"10:05","time_zone":"Europe/Paris","value":1472717100},"headsign":"Luxembourg","line":{"agencies":[{"name":"STIF","url":"http://www.vianavigo.com/"}],"color":"#e65100","short_name":"82","text_color":"#000000","vehicle":{"icon":"//maps.gstatic.com/mapfiles/transit/iw2/6/bus2.png","name":"Bus","type":"BUS"}},"num_stops":7},"travel_mode":"TRANSIT"},{"distance":{"text":"3,4 km","value":3402},"duration":{"text":"17 minutes","value":1020},"end_location":{"lat":48.874866,"lng":2.320814},"html_instructions":"Bus vers Gare du Nord","polyline":{"points":"akjiHet{LtCkRvEk]zCwSrCoS~CqTlDoWxCiMlKy`@]iTg@}]t@me@"},"start_location":{"lat":48.882572,"lng":2.276674},"transit_details":{"arrival_stop":{"location":{"lat":48.874866,"lng":2.320814},"name":"Saint-Augustin"},"arrival_time":{"text":"10:33","time_zone":"Europe/Paris","value":1472718780},"departure_stop":{"location":{"lat":48.882572,"lng":2.276674},"name":"Chartres"},"departure_time":{"text":"10:16","time_zone":"Europe/Paris","value":1472717760},"headsign":"Gare du Nord","line":{"agencies":[{"name":"STIF","url":"http://www.vianavigo.com/"}],"color":"#f21300","short_name":"43","text_color":"#ffffff","vehicle":{"icon":"//maps.gstatic.com/mapfiles/transit/iw2/6/bus2.png","name":"Bus","type":"BUS"}},"num_stops":11},"travel_mode":"TRANSIT"},{"distance":{"text":"0,2 km","value":193},"duration":{"text":"2 minutes","value":144},"end_location":{"lat":48.8748221,"lng":2.3228933},"html_instructions":"Marcher jusqu'à 73 Rue d'Anjou, 75008 Paris, France","polyline":{"points":"}zhiHahdMQ@c@kLRAf@HB@"},"start_location":{"lat":48.874866,"lng":2.320814},"steps":[{"distance":{"text":"0,2 km","value":158},"duration":{"text":"2 minutes","value":112},"end_location":{"lat":48.8751359,"lng":2.3229397},"html_instructions":"Prendre la direction <b>est</b> sur <b>Rue de la Pépinière</b> vers <b>Rue d'Anjou</b>","polyline":{"points":"}zhiHahdMQ@c@kL"},"start_location":{"lat":48.874866,"lng":2.320814},"travel_mode":"WALKING"},{"distance":{"text":"35 m","value":35},"duration":{"text":"1 minute","value":32},"end_location":{"lat":48.8748221,"lng":2.3228933},"html_instructions":"Prendre <b>à droite</b> sur <b>Rue d'Anjou</b><div style=\"font-size:0.9em\">Votre destination se trouvera sur la droite.</div>","maneuver":"turn-right","polyline":{"points":"s|hiHkudMRAf@HB@"},"start_location":{"lat":48.8751359,"lng":2.3229397},"travel_mode":"WALKING"}],"travel_mode":"WALKING"}],"traffic_speed_entry":[],"via_waypoint":[]}],"overview_polyline":{"points":"__liHsa{LuB`FQ^dDvJl@lBONvIfXlElKnJrIvBoKjD{VfKgu@tCkRvEk]nHgh@~CqTlDoWxCiMlKy`@eAgs@t@me@Q@c@kLRAj@J"},"summary":"","warnings":["Le calcul d'itinéraires piétons est en bêta. Faites attention – Cet itinéraire n'est peut-être pas complètement aménagé pour les piétons."],"waypoint_order":[]},{"bounds":{"northeast":{"lat":48.896355,"lng":2.3239208},"southwest":{"lat":48.8748221,"lng":2.2724128}},"copyrights":"Données cartographiques ©2016 Google","legs":[{"arrival_time":{"text":"10:46","time_zone":"Europe/Paris","value":1472719569},"departure_time":{"text":"10:05","time_zone":"Europe/Paris","value":1472717156},"distance":{"text":"5,8 km","value":5759},"duration":{"text":"40 minutes","value":2413},"end_address":"73 Rue d'Anjou, 75008 Paris, France","end_location":{"lat":48.8748221,"lng":2.3228933},"start_address":"21-27 Rue Chauveau, 92200 Neuilly-sur-Seine, France","start_location":{"lat":48.8908803,"lng":2.273696},"steps":[{"distance":{"text":"1,0 km","value":962},"duration":{"text":"12 minutes","value":724},"end_location":{"lat":48.895409,"lng":2.282316},"html_instructions":"Marcher jusqu'à Anatole France - Paul Vaillant-Couturier","polyline":{"points":"__liHsa{LO^_@|@MVw@jBQ^aD}J{BaHy@eCi@_CQo@y@qDq@qC}@uCgByFwA{EQg@LO"},"start_location":{"lat":48.8908803,"lng":2.273696},"steps":[{"distance":{"text":"0,1 km","value":121},"duration":{"text":"1 minute","value":87},"end_location":{"lat":48.8915612,"lng":2.2724128},"html_instructions":"Prendre la direction <b>nord-ouest</b> sur <b>Rue Chauveau</b> vers <b>Boulevard du Château</b>/<b>D16</b>","polyline":{"points":"__liHsa{LO^_@|@MVw@jBQ^"},"start_location":{"lat":48.8908803,"lng":2.273696},"travel_mode":"WALKING"},{"distance":{"text":"0,4 km","value":351},"duration":{"text":"4 minutes","value":263},"end_location":{"lat":48.89327919999999,"lng":2.2764447},"html_instructions":"Prendre <b>à droite</b> sur <b>Boulevard du Château</b>/<b>D16</b>","maneuver":"turn-right","polyline":{"points":"gcliHqyzLaD}J{BaHy@eC"},"start_location":{"lat":48.8915612,"lng":2.2724128},"travel_mode":"WALKING"},{"distance":{"text":"0,5 km","value":490},"duration":{"text":"6 minutes","value":374},"end_location":{"lat":48.895409,"lng":2.282316},"html_instructions":"Continuer sur <b>Rue Paul Vaillant Couturier</b><div style=\"font-size:0.9em\">Votre destination se trouvera sur la droite.</div>","polyline":{"points":"_nliHwr{Li@_CQo@y@qDq@qC}@uCgByFwA{EQg@LO"},"start_location":{"lat":48.89327919999999,"lng":2.2764447},"travel_mode":"WALKING"}],"travel_mode":"WALKING"},{"distance":{"text":"4,6 km","value":4634},"duration":{"text":"26 minutes","value":1560},"end_location":{"lat":48.875765,"lng":2.323675},"html_instructions":"Bus vers Opera","polyline":{"points":"i{liHow|LwDgTEkKlPwMjEmDu@kGaJwVcBaFxJgNnNoRvMiHzD_QhFeKyDe[zGmQlSaTvTqKhS}I"},"start_location":{"lat":48.895409,"lng":2.282316},"transit_details":{"arrival_stop":{"location":{"lat":48.875765,"lng":2.323675},"name":"Gare Saint-Lazare"},"arrival_time":{"text":"10:44","time_zone":"Europe/Paris","value":1472719440},"departure_stop":{"location":{"lat":48.895409,"lng":2.282316},"name":"Anatole France - Paul Vaillant-Couturier"},"departure_time":{"text":"10:18","time_zone":"Europe/Paris","value":1472717880},"headsign":"Opera","line":{"agencies":[{"name":"STIF","url":"http://www.vianavigo.com/"}],"color":"#d2d200","short_name":"53","text_color":"#000000","vehicle":{"icon":"//maps.gstatic.com/mapfiles/transit/iw2/6/bus2.png","name":"Bus","type":"BUS"}},"num_stops":17},"travel_mode":"TRANSIT"},{"distance":{"text":"0,2 km","value":163},"duration":{"text":"2 minutes","value":129},"end_location":{"lat":48.8748221,"lng":2.3228933},"html_instructions":"Marcher jusqu'à 73 Rue d'Anjou, 75008 Paris, France","polyline":{"points":"o`iiH}ydM@_@ZQb@H\\DPFHjDRAf@HB@"},"start_location":{"lat":48.875765,"lng":2.323675},"steps":[{"distance":{"text":"65 m","value":65},"duration":{"text":"1 minute","value":47},"end_location":{"lat":48.875186,"lng":2.3238002},"html_instructions":"Prendre la direction <b>sud</b> sur <b>Rue de Rome</b> vers <b>Rue du Rocher</b>","polyline":{"points":"o`iiH}ydM@_@ZQb@H\\DPF"},"start_location":{"lat":48.875765,"lng":2.323675},"travel_mode":"WALKING"},{"distance":{"text":"63 m","value":63},"duration":{"text":"1 minute","value":50},"end_location":{"lat":48.8751359,"lng":2.3229397},"html_instructions":"Prendre <b>à droite</b> sur <b>Rue de la Pépinière</b>","maneuver":"turn-right","polyline":{"points":"}|hiHwzdMHjD"},"start_location":{"lat":48.875186,"lng":2.3238002},"travel_mode":"WALKING"},{"distance":{"text":"35 m","value":35},"duration":{"text":"1 minute","value":32},"end_location":{"lat":48.8748221,"lng":2.3228933},"html_instructions":"Prendre <b>à gauche</b> sur <b>Rue d'Anjou</b><div style=\"font-size:0.9em\">Votre destination se trouvera sur la droite.</div>","maneuver":"turn-left","polyline":{"points":"s|hiHkudMRAf@HB@"},"start_location":{"lat":48.8751359,"lng":2.3229397},"travel_mode":"WALKING"}],"travel_mode":"WALKING"}],"traffic_speed_entry":[],"via_waypoint":[]}],"overview_polyline":{"points":"__liHsa{LuB`FQ^aD}JuDgLgDsNoGsSLOwDgTEkKlPwMjEmDu@kGaJwVcBaFxJgNnNoRvMiHzD_QhFeKyDe[zGmQlSaTvTqKhS}I@_@ZQ`ANPFHjDRAf@HB@"},"summary":"","warnings":["Le calcul d'itinéraires piétons est en bêta. Faites attention – Cet itinéraire n'est peut-être pas complètement aménagé pour les piétons."],"waypoint_order":[]},{"bounds":{"northeast":{"lat":48.8908803,"lng":2.3228933},"southwest":{"lat":48.874354,"lng":2.272935700000001}},"copyrights":"Données cartographiques ©2016 Google","legs":[{"arrival_time":{"text":"10:36","time_zone":"Europe/Paris","value":1472718993},"departure_time":{"text":"10:07","time_zone":"Europe/Paris","value":1472717270},"distance":{"text":"4,7 km","value":4740},"duration":{"text":"29 minutes","value":1723},"end_address":"73 Rue d'Anjou, 75008 Paris, France","end_location":{"lat":48.8748221,"lng":2.3228933},"start_address":"21-27 Rue Chauveau, 92200 Neuilly-sur-Seine, France","start_location":{"lat":48.8908803,"lng":2.273696},"steps":[{"distance":{"text":"0,2 km","value":245},"duration":{"text":"3 minutes","value":190},"end_location":{"lat":48.889212,"lng":2.273041},"html_instructions":"Marcher jusqu'à Chezy","polyline":{"points":"__liHsa{Lj@sAXo@`BtB~BxCHJNa@JL"},"start_location":{"lat":48.8908803,"lng":2.273696},"steps":[{"distance":{"text":"62 m","value":62},"duration":{"text":"1 minute","value":45},"end_location":{"lat":48.8905329,"lng":2.2743579},"html_instructions":"Prendre la direction <b>sud-est</b> sur <b>Rue Chauveau</b> vers <b>Rue de Chézy</b>","polyline":{"points":"__liHsa{Lj@sAXo@"},"start_location":{"lat":48.8908803,"lng":2.273696},"travel_mode":"WALKING"},{"distance":{"text":"0,2 km","value":168},"duration":{"text":"2 minutes","value":134},"end_location":{"lat":48.8893512,"lng":2.272935700000001},"html_instructions":"Prendre <b>à droite</b> sur <b>Rue de Chézy</b>","maneuver":"turn-right","polyline":{"points":"y|kiHwe{L`BtB~BxCHJ"},"start_location":{"lat":48.8905329,"lng":2.2743579},"travel_mode":"WALKING"},{"distance":{"text":"15 m","value":15},"duration":{"text":"1 minute","value":11},"end_location":{"lat":48.889212,"lng":2.273041},"html_instructions":"Prendre <b>à gauche</b> sur <b>Boulevard Bineau</b>/<b>D908</b><div style=\"font-size:0.9em\">Votre destination se trouvera sur la droite.</div>","maneuver":"turn-left","polyline":{"points":"mukiH{|zLNa@JL"},"start_location":{"lat":48.8893512,"lng":2.272935700000001},"travel_mode":"WALKING"}],"travel_mode":"WALKING"},{"distance":{"text":"1,5 km","value":1479},"duration":{"text":"8 minutes","value":480},"end_location":{"lat":48.885832,"lng":2.292247},"html_instructions":"Bus vers Porte de Champerret","polyline":{"points":"qtkiHo}zLrGiQjBoRdCyV~Cgi@AeO"},"start_location":{"lat":48.889212,"lng":2.273041},"transit_details":{"arrival_stop":{"location":{"lat":48.885832,"lng":2.292247},"name":"Porte de Champerret"},"arrival_time":{"text":"10:19","time_zone":"Europe/Paris","value":1472717940},"departure_stop":{"location":{"lat":48.889212,"lng":2.273041},"name":"Chezy"},"departure_time":{"text":"10:11","time_zone":"Europe/Paris","value":1472717460},"headsign":"Porte de Champerret","line":{"agencies":[{"name":"STIF","url":"http://www.vianavigo.com/"}],"color":"#a0006e","short_name":"164","text_color":"#ffffff","vehicle":{"icon":"//maps.gstatic.com/mapfiles/transit/iw2/6/bus2.png","name":"Bus","type":"BUS"}},"num_stops":5},"travel_mode":"TRANSIT"},{"distance":{"text":"38 m","value":38},"duration":{"text":"1 minute","value":38},"end_location":{"lat":48.885887,"lng":2.292765},"html_instructions":"Marcher jusqu'à Porte de Champerret","polyline":{"points":"m_kiHqu~LKgB"},"start_location":{"lat":48.885832,"lng":2.292247},"steps":[{"distance":{"text":"38 m","value":38},"duration":{"text":"1 minute","value":38},"end_location":{"lat":48.885887,"lng":2.292765},"polyline":{"points":"m_kiHqu~LKgB"},"start_location":{"lat":48.885832,"lng":2.292247},"travel_mode":"WALKING"}],"travel_mode":"WALKING"},{"distance":{"text":"2,7 km","value":2692},"duration":{"text":"12 minutes","value":720},"end_location":{"lat":48.874354,"lng":2.320051},"html_instructions":"Bus vers Pantheon","polyline":{"points":"y_kiHyx~LuGwKhJcJnGsGxL_MrNoN~FaLhFai@hJuR|Cu`@"},"start_location":{"lat":48.885887,"lng":2.292765},"transit_details":{"arrival_stop":{"location":{"lat":48.874354,"lng":2.320051},"name":"Saint-Augustin"},"arrival_time":{"text":"10:33","time_zone":"Europe/Paris","value":1472718780},"departure_stop":{"location":{"lat":48.885887,"lng":2.292765},"name":"Porte de Champerret"},"departure_time":{"text":"10:21","time_zone":"Europe/Paris","value":1472718060},"headsign":"Pantheon","line":{"agencies":[{"name":"STIF","url":"http://www.vianavigo.com/"}],"color":"#ce93d8","short_name":"84","text_color":"#000000","vehicle":{"icon":"//maps.gstatic.com/mapfiles/transit/iw2/6/bus2.png","name":"Bus","type":"BUS"}},"num_stops":9},"travel_mode":"TRANSIT"},{"distance":{"text":"0,3 km","value":286},"duration":{"text":"4 minutes","value":213},"end_location":{"lat":48.8748221,"lng":2.3228933},"html_instructions":"Marcher jusqu'à 73 Rue d'Anjou, 75008 Paris, France","polyline":{"points":"uwhiHicdMI]u@f@@qAt@sMuA["},"start_location":{"lat":48.874354,"lng":2.320051},"steps":[{"distance":{"text":"33 m","value":33},"duration":{"text":"1 minute","value":23},"end_location":{"lat":48.8746655,"lng":2.3200047},"html_instructions":"Prendre la direction <b>nord-ouest</b> sur <b>Boulevard Malesherbes</b> vers <b>Place Saint-Augustin</b>","polyline":{"points":"uwhiHicdMI]u@f@"},"start_location":{"lat":48.874354,"lng":2.320051},"travel_mode":"WALKING"},{"distance":{"text":"30 m","value":30},"duration":{"text":"1 minute","value":26},"end_location":{"lat":48.87465510000001,"lng":2.3204094},"html_instructions":"Prendre <b>à droite</b> sur <b>Place Saint-Augustin</b>","maneuver":"turn-right","polyline":{"points":"uyhiH_cdM@qA"},"start_location":{"lat":48.8746655,"lng":2.3200047},"travel_mode":"WALKING"},{"distance":{"text":"0,2 km","value":174},"duration":{"text":"2 minutes","value":123},"end_location":{"lat":48.8743906,"lng":2.3227511},"html_instructions":"Continuer sur <b>Boulevard Haussmann</b>","polyline":{"points":"syhiHqedMt@sM"},"start_location":{"lat":48.87465510000001,"lng":2.3204094},"travel_mode":"WALKING"},{"distance":{"text":"49 m","value":49},"duration":{"text":"1 minute","value":41},"end_location":{"lat":48.8748221,"lng":2.3228933},"html_instructions":"Prendre <b>à gauche</b> sur <b>Rue d'Anjou</b><div style=\"font-size:0.9em\">Votre destination se trouvera sur la gauche.</div>","maneuver":"turn-left","polyline":{"points":"}whiHetdMuA["},"start_location":{"lat":48.8743906,"lng":2.3227511},"travel_mode":"WALKING"}],"travel_mode":"WALKING"}],"traffic_speed_entry":[],"via_waypoint":[]}],"overview_polyline":{"points":"__liHsa{LdAcC`FnGHJNa@JLrGiQpFij@~Cgi@AeOKgBuGwKxRwRl\\o\\~FaLhFai@hJuR|Cu`@I]u@f@@qAt@sMuA["},"summary":"","warnings":["Le calcul d'itinéraires piétons est en bêta. Faites attention – Cet itinéraire n'est peut-être pas complètement aménagé pour les piétons."],"waypoint_order":[]},{"bounds":{"northeast":{"lat":48.8976367,"lng":2.3269075},"southwest":{"lat":48.8748221,"lng":2.273696}},"copyrights":"Données cartographiques ©2016 Google","legs":[{"arrival_time":{"text":"10:37","time_zone":"Europe/Paris","value":1472719064},"departure_time":{"text":"10:02","time_zone":"Europe/Paris","value":1472716966},"distance":{"text":"6,2 km","value":6167},"duration":{"text":"35 minutes","value":2098},"end_address":"73 Rue d'Anjou, 75008 Paris, France","end_location":{"lat":48.8748221,"lng":2.3228933},"start_address":"21-27 Rue Chauveau, 92200 Neuilly-sur-Seine, France","start_location":{"lat":48.8908803,"lng":2.273696},"steps":[{"distance":{"text":"0,7 km","value":668},"duration":{"text":"8 minutes","value":494},"end_location":{"lat":48.89031199999999,"lng":2.279963},"html_instructions":"Marcher jusqu'à Voltaire - Villiers","polyline":{"points":"__liHsa{Lj@sAXo@oCuDLM`A}@gA}DMe@YaAEOEMEMEIOUS[S[MSf@c@r@s@xAaBp@s@hAoARUWcAJG"},"start_location":{"lat":48.8908803,"lng":2.273696},"steps":[{"distance":{"text":"62 m","value":62},"duration":{"text":"1 minute","value":45},"end_location":{"lat":48.8905329,"lng":2.2743579},"html_instructions":"Prendre la direction <b>sud-est</b> sur <b>Rue Chauveau</b> vers <b>Rue de Chézy</b>","polyline":{"points":"__liHsa{Lj@sAXo@"},"start_location":{"lat":48.8908803,"lng":2.273696},"travel_mode":"WALKING"},{"distance":{"text":"0,1 km","value":104},"duration":{"text":"1 minute","value":76},"end_location":{"lat":48.8912541,"lng":2.2752707},"html_instructions":"Prendre <b>à gauche</b> sur <b>Rue de Chézy</b>","maneuver":"turn-left","polyline":{"points":"y|kiHwe{LoCuD"},"start_location":{"lat":48.8905329,"lng":2.2743579},"travel_mode":"WALKING"},{"distance":{"text":"53 m","value":53},"duration":{"text":"1 minute","value":38},"end_location":{"lat":48.8908454,"lng":2.2756539},"html_instructions":"Prendre <b>à droite</b> sur <b>Boulevard Victor Hugo</b>","maneuver":"turn-right","polyline":{"points":"ialiHmk{LLM`A}@"},"start_location":{"lat":48.8912541,"lng":2.2752707},"travel_mode":"WALKING"},{"distance":{"text":"0,2 km","value":201},"duration":{"text":"3 minutes","value":150},"end_location":{"lat":48.8918805,"lng":2.277881},"html_instructions":"Prendre <b>à gauche</b> sur <b>Rue Saint-Paul</b>","maneuver":"turn-left","polyline":{"points":"y~kiHym{LgA}DMe@YaAEOEMEMEIOUS[S[MS"},"start_location":{"lat":48.8908454,"lng":2.2756539},"travel_mode":"WALKING"},{"distance":{"text":"0,2 km","value":220},"duration":{"text":"3 minutes","value":159},"end_location":{"lat":48.8902459,"lng":2.2795804},"html_instructions":"Prendre <b>à droite</b> sur <b>Rue de Villiers</b>","maneuver":"turn-right","polyline":{"points":"geliHw{{Lf@c@r@s@xAaBp@s@hAoARU"},"start_location":{"lat":48.8918805,"lng":2.277881},"travel_mode":"WALKING"},{"distance":{"text":"28 m","value":28},"duration":{"text":"1 minute","value":26},"end_location":{"lat":48.89031199999999,"lng":2.279963},"html_instructions":"Prendre <b>à gauche</b> sur <b>Rue Voltaire</b><div style=\"font-size:0.9em\">Votre destination se trouvera sur la droite.</div>","maneuver":"turn-left","polyline":{"points":"a{kiHkf|LWcAJG"},"start_location":{"lat":48.8902459,"lng":2.2795804},"travel_mode":"WALKING"}],"travel_mode":"WALKING"},{"distance":{"text":"1,6 km","value":1635},"duration":{"text":"6 minutes","value":360},"end_location":{"lat":48.896547,"lng":2.298494},"html_instructions":"Bus vers Saint-Denis RER","polyline":{"points":"m{kiHwh|LwHmYqGgSaAmOtCyLaJwVgKcN"},"start_location":{"lat":48.89031199999999,"lng":2.279963},"transit_details":{"arrival_stop":{"location":{"lat":48.896547,"lng":2.298494},"name":"Gare de Clichy - Levallois"},"arrival_time":{"text":"10:17","time_zone":"Europe/Paris","value":1472717820},"departure_stop":{"location":{"lat":48.89031199999999,"lng":2.279963},"name":"Voltaire - Villiers"},"departure_time":{"text":"10:11","time_zone":"Europe/Paris","value":1472717460},"headsign":"Saint-Denis RER","line":{"agencies":[{"name":"STIF","url":"http://www.vianavigo.com/"}],"color":"#f21300","short_name":"274","text_color":"#ffffff","vehicle":{"icon":"//maps.gstatic.com/mapfiles/transit/iw2/6/bus2.png","name":"Bus","type":"BUS"}},"num_stops":6},"travel_mode":"TRANSIT"},{"distance":{"text":"0,1 km","value":144},"duration":{"text":"2 minutes","value":131},"end_location":{"lat":48.897637,"lng":2.29742},"html_instructions":"Marcher jusqu'à Gare de Clichy Levallois","polyline":{"points":"mbmiHq|_MyEtE"},"start_location":{"lat":48.896547,"lng":2.298494},"steps":[{"distance":{"text":"0,1 km","value":144},"duration":{"text":"2 minutes","value":131},"end_location":{"lat":48.897637,"lng":2.29742},"polyline":{"points":"mbmiHq|_MyEtE"},"start_location":{"lat":48.896547,"lng":2.298494},"travel_mode":"WALKING"}],"travel_mode":"WALKING"},{"distance":{"text":"3,3 km","value":3254},"duration":{"text":"6 minutes","value":360},"end_location":{"lat":48.8771131,"lng":2.3267826},"html_instructions":"Train vers Gare St Lazare","polyline":{"points":"gimiH{u_MpBqEhAgClAgCfBwDrAoCjByDxFeLxC}FxFkLbH}N|CuGpAkCfCiFj@kAbBmDrA{Bz@qAfAqAvAaBtA{ApByB|C}CnAmAfCeCrCoC|B{BbCgCdAcA|@y@t@k@p@a@pAo@`Bm@fAc@rAk@hAk@fAo@`CkBu@wK"},"start_location":{"lat":48.897637,"lng":2.29742},"transit_details":{"arrival_stop":{"location":{"lat":48.8771131,"lng":2.3267826},"name":"Gare Saint-Lazare"},"arrival_time":{"text":"10:32","time_zone":"Europe/Paris","value":1472718720},"departure_stop":{"location":{"lat":48.897637,"lng":2.29742},"name":"Gare de Clichy Levallois"},"departure_time":{"text":"10:26","time_zone":"Europe/Paris","value":1472718360},"headsign":"Gare St Lazare","line":{"agencies":[{"name":"STIF","url":"http://www.vianavigo.com/"}],"color":"#7986cb","short_name":"L","text_color":"#ffffff","vehicle":{"icon":"//maps.gstatic.com/mapfiles/transit/iw2/6/rail2.png","name":"Train","type":"HEAVY_RAIL"}},"num_stops":2},"travel_mode":"TRANSIT"},{"distance":{"text":"0,5 km","value":466},"duration":{"text":"6 minutes","value":343},"end_location":{"lat":48.8748221,"lng":2.3228933},"html_instructions":"Marcher jusqu'à 73 Rue d'Anjou, 75008 Paris, France","polyline":{"points":"}hiiHkmeMb@YpCDb@@VD@?XHJDXNBxALtAX`EPpBLzAHjDRAf@HB@"},"start_location":{"lat":48.8771131,"lng":2.3267826},"steps":[{"distance":{"text":"0,2 km","value":153},"duration":{"text":"2 minutes","value":98},"end_location":{"lat":48.8755727,"lng":2.3266794},"html_instructions":"Prendre la direction <b>sud</b> sur <b>Rue d'Amsterdam</b> vers <b>Place du Havre</b>","polyline":{"points":"}hiiHkmeMb@YpCDb@@VD@?XHJDXN"},"start_location":{"lat":48.8771131,"lng":2.3267826},"travel_mode":"WALKING"},{"distance":{"text":"33 m","value":33},"duration":{"text":"1 minute","value":27},"end_location":{"lat":48.8755459,"lng":2.3262331},"html_instructions":"Prendre <b>à droite</b> sur <b>Place du Havre</b>","maneuver":"turn-right","polyline":{"points":"i_iiHwleMBxA"},"start_location":{"lat":48.8755727,"lng":2.3266794},"travel_mode":"WALKING"},{"distance":{"text":"0,1 km","value":105},"duration":{"text":"1 minute","value":75},"end_location":{"lat":48.875347,"lng":2.3248275},"html_instructions":"Continuer sur <b>Rue Saint-Lazare</b>","polyline":{"points":"e_iiH}ieMLtAX`E"},"start_location":{"lat":48.8755459,"lng":2.3262331},"travel_mode":"WALKING"},{"distance":{"text":"0,1 km","value":140},"duration":{"text":"2 minutes","value":111},"end_location":{"lat":48.8751359,"lng":2.3229397},"html_instructions":"Continuer tout droit sur <b>Rue de la Pépinière</b>/<b>Place Gabriel Péri</b><div style=\"font-size:0.9em\">Continuer de suivre Rue de la Pépinière</div>","maneuver":"straight","polyline":{"points":"}}hiHeaeMPpBLzAHjD"},"start_location":{"lat":48.875347,"lng":2.3248275},"travel_mode":"WALKING"},{"distance":{"text":"35 m","value":35},"duration":{"text":"1 minute","value":32},"end_location":{"lat":48.8748221,"lng":2.3228933},"html_instructions":"Prendre <b>à gauche</b> sur <b>Rue d'Anjou</b><div style=\"font-size:0.9em\">Votre destination se trouvera sur la droite.</div>","maneuver":"turn-left","polyline":{"points":"s|hiHkudMRAf@HB@"},"start_location":{"lat":48.8751359,"lng":2.3229397},"travel_mode":"WALKING"}],"travel_mode":"WALKING"}],"traffic_speed_entry":[],"via_waypoint":[]}],"overview_polyline":{"points":"__liHsa{LdAcCoCuDLM`A}@gA}Dg@gBWu@eAaBzAwAjCuC|AeBWcAJGwHmYqGgSaAmOtCyLaJwVgKcNyEtEzDyItD_I~DiIrKcT|Oi\\vJkSnCyFnCmE~CsDfEuEhOaO`GcGbC}BfBmApAo@`Bm@zCoAhAk@fAo@`CkBu@wKb@YpCDb@@VDZHd@TBxALtAj@rHLzAHjDRAf@HB@"},"summary":"","warnings":["Le calcul d'itinéraires piétons est en bêta. Faites attention – Cet itinéraire n'est peut-être pas complètement aménagé pour les piétons."],"waypoint_order":[]}],"status":"OK"},"gobs":{"geocoded_waypoints":[{"geocoder_status":"OK","place_id":"EjMyMS0yNyBSdWUgQ2hhdXZlYXUsIDkyMjAwIE5ldWlsbHktc3VyLVNlaW5lLCBGcmFuY2U","types":["route","street_address"]},{"geocoder_status":"OK","place_id":"ChIJS8pekPJx5kcRxS0S3NXQsW4","types":["street_address"]}],"routes":[{"bounds":{"northeast":{"lat":48.8915612,"lng":2.3548511},"southwest":{"lat":48.836921,"lng":2.26217}},"copyrights":"Données cartographiques ©2016 Google","legs":[{"arrival_time":{"text":"11:05","time_zone":"Europe/Paris","value":1472720724},"departure_time":{"text":"10:00","time_zone":"Europe/Paris","value":1472716833},"distance":{"text":"11,4 km","value":11423},"duration":{"text":"1 heure 5 min","value":3891},"end_address":"73 Boulevard Saint-Marcel, 75005 Paris, France","end_location":{"lat":48.8377748,"lng":2.3548511},"start_address":"21-27 Rue Chauveau, 92200 Neuilly-sur-Seine, France","start_location":{"lat":48.8908803,"lng":2.273696},"steps":[{"distance":{"text":"0,3 km","value":334},"duration":{"text":"4 minutes","value":267},"end_location":{"lat":48.890576,"lng":2.269905},"html_instructions":"Marcher jusqu'à Bineau - Château","polyline":{"points":"__liHsa{LO^_@|@MVw@jBQ^dDvJHTb@vAON"},"start_location":{"lat":48.8908803,"lng":2.273696},"steps":[{"distance":{"text":"0,1 km","value":121},"duration":{"text":"1 minute","value":87},"end_location":{"lat":48.8915612,"lng":2.2724128},"html_instructions":"Prendre la direction <b>nord-ouest</b> sur <b>Rue Chauveau</b> vers <b>Boulevard du Château</b>/<b>D16</b>","polyline":{"points":"__liHsa{LO^_@|@MVw@jBQ^"},"start_location":{"lat":48.8908803,"lng":2.273696},"travel_mode":"WALKING"},{"distance":{"text":"0,2 km","value":213},"duration":{"text":"3 minutes","value":180},"end_location":{"lat":48.890576,"lng":2.269905},"html_instructions":"Prendre <b>à gauche</b> sur <b>Boulevard du Château</b>/<b>D16</b><div style=\"font-size:0.9em\">Continuer de suivre Boulevard du Château</div><div style=\"font-size:0.9em\">Votre destination se trouvera sur la droite.</div>","maneuver":"turn-left","polyline":{"points":"gcliHqyzLdDvJHTb@vAON"},"start_location":{"lat":48.8915612,"lng":2.2724128},"travel_mode":"WALKING"}],"travel_mode":"WALKING"},{"distance":{"text":"8,6 km","value":8642},"duration":{"text":"38 minutes","value":2280},"end_location":{"lat":48.8435,"lng":2.32382},"html_instructions":"Bus vers Luxembourg","polyline":{"points":"c}kiH{izLvIfXlElKnJrIvBoKjD{VtDgXpE_\\tJwL~OiBfD_FpBaQlM}BnOeCvNsGjLeT`JiU~EAzPdJnKkHrKxGxOkYtJ_QpF_RgPeXpC_c@zFqK`OcH`MeGnJiP~FcUtC_H"},"start_location":{"lat":48.890576,"lng":2.269905},"transit_details":{"arrival_stop":{"location":{"lat":48.8435,"lng":2.32382},"name":"Place du 18 Juin 1940"},"arrival_time":{"text":"10:43","time_zone":"Europe/Paris","value":1472719380},"departure_stop":{"location":{"lat":48.890576,"lng":2.269905},"name":"Bineau - Château"},"departure_time":{"text":"10:05","time_zone":"Europe/Paris","value":1472717100},"headsign":"Luxembourg","line":{"agencies":[{"name":"STIF","url":"http://www.vianavigo.com/"}],"color":"#e65100","short_name":"82","text_color":"#000000","vehicle":{"icon":"//maps.gstatic.com/mapfiles/transit/iw2/6/bus2.png","name":"Bus","type":"BUS"}},"num_stops":31},"travel_mode":"TRANSIT"},{"distance":{"text":"2,2 km","value":2248},"duration":{"text":"10 minutes","value":600},"end_location":{"lat":48.836921,"lng":2.352631},"html_instructions":"Bus vers Bastille","polyline":{"points":"{vbiH{zdMrHk`@nFcVfGsYvDyUvDmZfCum@"},"start_location":{"lat":48.8435,"lng":2.32382},"transit_details":{"arrival_stop":{"location":{"lat":48.836921,"lng":2.352631},"name":"Les Gobelins"},"arrival_time":{"text":"11:03","time_zone":"Europe/Paris","value":1472720580},"departure_stop":{"location":{"lat":48.8435,"lng":2.32382},"name":"Place du 18 Juin 1940"},"departure_time":{"text":"10:53","time_zone":"Europe/Paris","value":1472719980},"headsign":"Bastille","line":{"agencies":[{"name":"STIF","url":"http://www.vianavigo.com/"}],"color":"#dc9600","short_name":"91","text_color":"#000000","vehicle":{"icon":"//maps.gstatic.com/mapfiles/transit/iw2/6/bus2.png","name":"Bus","type":"BUS"}},"num_stops":6},"travel_mode":"TRANSIT"},{"distance":{"text":"0,2 km","value":199},"duration":{"text":"2 minutes","value":144},"end_location":{"lat":48.8377748,"lng":2.3548511},"html_instructions":"Marcher jusqu'à 73 Boulevard Saint-Marcel, 75005 Paris, France","polyline":{"points":"wmaiH}njMEBQ_AK[SJEWGWGYS}@WmAQ}@]{A"},"start_location":{"lat":48.836921,"lng":2.352631},"steps":[{"distance":{"text":"38 m","value":38},"duration":{"text":"1 minute","value":27},"end_location":{"lat":48.8371013,"lng":2.3530677},"html_instructions":"Prendre la direction <b>nord-est</b> vers <b>Rue Michel Peter</b>","polyline":{"points":"wmaiH}njMEBQ_AK["},"start_location":{"lat":48.836921,"lng":2.352631},"travel_mode":"WALKING"},{"distance":{"text":"11 m","value":11},"duration":{"text":"1 minute","value":8},"end_location":{"lat":48.8371962,"lng":2.3530073},"html_instructions":"Prendre <b>à gauche</b> sur <b>Rue Michel Peter</b>","maneuver":"turn-left","polyline":{"points":"{naiHuqjMSJ"},"start_location":{"lat":48.8371013,"lng":2.3530677},"travel_mode":"WALKING"},{"distance":{"text":"0,2 km","value":150},"duration":{"text":"2 minutes","value":109},"end_location":{"lat":48.8377748,"lng":2.3548511},"html_instructions":"Prendre <b>à droite</b> sur <b>Boulevard Saint-Marcel</b><div style=\"font-size:0.9em\">Votre destination se trouvera sur la droite.</div>","maneuver":"turn-right","polyline":{"points":"ooaiHiqjMEWGWGYS}@WmAQ}@]{A"},"start_location":{"lat":48.8371962,"lng":2.3530073},"travel_mode":"WALKING"}],"travel_mode":"WALKING"}],"traffic_speed_entry":[],"via_waypoint":[]}],"overview_polyline":{"points":"__liHsa{LuB`FQ^dDvJl@lBONvIfXlElKnJrIvBoKjD{VfKgu@tJwL~OiBfD_FpBaQlM}BnOeCvNsGjLeT`JiU~EAzPdJnKkHrKxGxOkYtJ_QpF_RgPeXpC_c@zFqK`OcH`MeGnJiP~FcUtC_HrHk`@nFcVfGsYvDyUvDmZfCum@EBQ_AK[SJMo@eAcF]{A"},"summary":"","warnings":["Le calcul d'itinéraires piétons est en bêta. Faites attention – Cet itinéraire n'est peut-être pas complètement aménagé pour les piétons."],"waypoint_order":[]},{"bounds":{"northeast":{"lat":48.8918805,"lng":2.3548511},"southwest":{"lat":48.834882,"lng":2.273696}},"copyrights":"Données cartographiques ©2016 Google","legs":[{"arrival_time":{"text":"11:05","time_zone":"Europe/Paris","value":1472720753},"departure_time":{"text":"10:01","time_zone":"Europe/Paris","value":1472716891},"distance":{"text":"10,5 km","value":10490},"duration":{"text":"1 heure 4 min","value":3862},"end_address":"73 Boulevard Saint-Marcel, 75005 Paris, France","end_location":{"lat":48.8377748,"lng":2.3548511},"start_address":"21-27 Rue Chauveau, 92200 Neuilly-sur-Seine, France","start_location":{"lat":48.8908803,"lng":2.273696},"steps":[{"distance":{"text":"0,5 km","value":453},"duration":{"text":"6 minutes","value":332},"end_location":{"lat":48.891578,"lng":2.277999},"html_instructions":"Marcher jusqu'à Hôpital du Perpetuel Secours","polyline":{"points":"__liHsa{Lj@sAXo@oCuDLM`A}@gA}DMe@YaAEOEMEMEIOUS[S[MSf@c@HKHV"},"start_location":{"lat":48.8908803,"lng":2.273696},"steps":[{"distance":{"text":"62 m","value":62},"duration":{"text":"1 minute","value":45},"end_location":{"lat":48.8905329,"lng":2.2743579},"html_instructions":"Prendre la direction <b>sud-est</b> sur <b>Rue Chauveau</b> vers <b>Rue de Chézy</b>","polyline":{"points":"__liHsa{Lj@sAXo@"},"start_location":{"lat":48.8908803,"lng":2.273696},"travel_mode":"WALKING"},{"distance":{"text":"0,1 km","value":104},"duration":{"text":"1 minute","value":76},"end_location":{"lat":48.8912541,"lng":2.2752707},"html_instructions":"Prendre <b>à gauche</b> sur <b>Rue de Chézy</b>","maneuver":"turn-left","polyline":{"points":"y|kiHwe{LoCuD"},"start_location":{"lat":48.8905329,"lng":2.2743579},"travel_mode":"WALKING"},{"distance":{"text":"53 m","value":53},"duration":{"text":"1 minute","value":38},"end_location":{"lat":48.8908454,"lng":2.2756539},"html_instructions":"Prendre <b>à droite</b> sur <b>Boulevard Victor Hugo</b>","maneuver":"turn-right","polyline":{"points":"ialiHmk{LLM`A}@"},"start_location":{"lat":48.8912541,"lng":2.2752707},"travel_mode":"WALKING"},{"distance":{"text":"0,2 km","value":201},"duration":{"text":"3 minutes","value":150},"end_location":{"lat":48.8918805,"lng":2.277881},"html_instructions":"Prendre <b>à gauche</b> sur <b>Rue Saint-Paul</b>","maneuver":"turn-left","polyline":{"points":"y~kiHym{LgA}DMe@YaAEOEMEMEIOUS[S[MS"},"start_location":{"lat":48.8908454,"lng":2.2756539},"travel_mode":"WALKING"},{"distance":{"text":"33 m","value":33},"duration":{"text":"1 minute","value":23},"end_location":{"lat":48.891578,"lng":2.277999},"html_instructions":"Prendre <b>à droite</b> sur <b>Rue de Villiers</b><div style=\"font-size:0.9em\">Votre destination se trouvera sur la droite.</div>","maneuver":"turn-right","polyline":{"points":"geliHw{{Lf@c@HKHV"},"start_location":{"lat":48.8918805,"lng":2.277881},"travel_mode":"WALKING"}],"travel_mode":"WALKING"},{"distance":{"text":"3,7 km","value":3652},"duration":{"text":"21 minutes","value":1260},"end_location":{"lat":48.874873,"lng":2.308102},"html_instructions":"Bus vers Invalides","polyline":{"points":"kcliHo|{LvHcIdKyK`HuF~Cgi@fAwObCkc@rCnGxQtHlOpBlDoWxCiMjKw\\MiN"},"start_location":{"lat":48.891578,"lng":2.277999},"transit_details":{"arrival_stop":{"location":{"lat":48.874873,"lng":2.308102},"name":"Haussmann - Courcelles"},"arrival_time":{"text":"10:28","time_zone":"Europe/Paris","value":1472718480},"departure_stop":{"location":{"lat":48.891578,"lng":2.277999},"name":"Hôpital du Perpetuel Secours"},"departure_time":{"text":"10:07","time_zone":"Europe/Paris","value":1472717220},"headsign":"Invalides","line":{"agencies":[{"name":"STIF","url":"http://www.vianavigo.com/"}],"color":"#81c784","short_name":"93","text_color":"#000000","vehicle":{"icon":"//maps.gstatic.com/mapfiles/transit/iw2/6/bus2.png","name":"Bus","type":"BUS"}},"num_stops":13},"travel_mode":"TRANSIT"},{"distance":{"text":"6,1 km","value":6085},"duration":{"text":"26 minutes","value":1560},"end_location":{"lat":48.83649,"lng":2.351228},"html_instructions":"Bus vers Porte d'Ivry","polyline":{"points":"}zhiHsxaM|HaJzQA`N}S~NaAxNmDpFeb@xM{LxHmH`F_GjOuDfJiBvPmKhKiHfLyKtQcQnHoHjFcCvDyUnFg[fN[qBgOoE_S"},"start_location":{"lat":48.874873,"lng":2.308102},"transit_details":{"arrival_stop":{"location":{"lat":48.83649,"lng":2.351228},"name":"Les Gobelins"},"arrival_time":{"text":"11:02","time_zone":"Europe/Paris","value":1472720520},"departure_stop":{"location":{"lat":48.874873,"lng":2.308102},"name":"Haussmann - Courcelles"},"departure_time":{"text":"10:36","time_zone":"Europe/Paris","value":1472718960},"headsign":"Porte d'Ivry","line":{"agencies":[{"name":"STIF","url":"http://www.vianavigo.com/"}],"color":"#ffb300","short_name":"83","text_color":"#000000","vehicle":{"icon":"//maps.gstatic.com/mapfiles/transit/iw2/6/bus2.png","name":"Bus","type":"BUS"}},"num_stops":22},"travel_mode":"TRANSIT"},{"distance":{"text":"0,3 km","value":300},"duration":{"text":"4 minutes","value":233},"end_location":{"lat":48.8377748,"lng":2.3548511},"html_instructions":"Marcher jusqu'à 73 Boulevard Saint-Marcel, 75005 Paris, France","polyline":{"points":"akaiHefjMIBk@cCa@uAOUQw@S_AEWGWGYS}@WmAQ}@]{A"},"start_location":{"lat":48.83649,"lng":2.351228},"steps":[{"distance":{"text":"54 m","value":54},"duration":{"text":"1 minute","value":40},"end_location":{"lat":48.8367623,"lng":2.3518696},"html_instructions":"Prendre la direction <b>nord-est</b> sur <b>Boulevard Arago</b> vers <b>Avenue des Gobelins</b>","polyline":{"points":"akaiHefjMIBk@cC"},"start_location":{"lat":48.83649,"lng":2.351228},"travel_mode":"WALKING"},{"distance":{"text":"0,2 km","value":246},"duration":{"text":"3 minutes","value":193},"end_location":{"lat":48.8377748,"lng":2.3548511},"html_instructions":"Continuer sur <b>Boulevard Saint-Marcel</b><div style=\"font-size:0.9em\">Votre destination se trouvera sur la droite.</div>","polyline":{"points":"wlaiHejjMa@uAOUQw@S_AEWGWGYS}@WmAQ}@]{A"},"start_location":{"lat":48.8367623,"lng":2.3518696},"travel_mode":"WALKING"}],"travel_mode":"WALKING"}],"traffic_speed_entry":[],"via_waypoint":[]}],"overview_polyline":{"points":"__liHsa{LdAcCoCuDLM`A}@gA}Dg@gBWu@eAaBp@o@HVvHcIdKyK`HuF~Cgi@fAwObCkc@rCnGxQtHlOpBlDoWxCiMjKw\\MiN|HaJzQA`N}S~NaAxNmDpFeb@rWiV`F_GjOuDfJiBvPmKhKiHfLyKd[sZjFcCvDyUnFg[fN[qBgOoE_SIBk@cCa@uAOUe@wBi@gCgAgF"},"summary":"","warnings":["Le calcul d'itinéraires piétons est en bêta. Faites attention – Cet itinéraire n'est peut-être pas complètement aménagé pour les piétons."],"waypoint_order":[]},{"bounds":{"northeast":{"lat":48.8915612,"lng":2.3548511},"southwest":{"lat":48.836921,"lng":2.26217}},"copyrights":"Données cartographiques ©2016 Google","legs":[{"arrival_time":{"text":"11:12","time_zone":"Europe/Paris","value":1472721144},"departure_time":{"text":"10:13","time_zone":"Europe/Paris","value":1472717613},"distance":{"text":"11,4 km","value":11423},"duration":{"text":"59 minutes","value":3531},"end_address":"73 Boulevard Saint-Marcel, 75005 Paris, France","end_location":{"lat":48.8377748,"lng":2.3548511},"start_address":"21-27 Rue Chauveau, 92200 Neuilly-sur-Seine, France","start_location":{"lat":48.8908803,"lng":2.273696},"steps":[{"distance":{"text":"0,3 km","value":334},"duration":{"text":"4 minutes","value":267},"end_location":{"lat":48.890576,"lng":2.269905},"html_instructions":"Marcher jusqu'à Bineau - Château","polyline":{"points":"__liHsa{LO^_@|@MVw@jBQ^dDvJHTb@vAON"},"start_location":{"lat":48.8908803,"lng":2.273696},"steps":[{"distance":{"text":"0,1 km","value":121},"duration":{"text":"1 minute","value":87},"end_location":{"lat":48.8915612,"lng":2.2724128},"html_instructions":"Prendre la direction <b>nord-ouest</b> sur <b>Rue Chauveau</b> vers <b>Boulevard du Château</b>/<b>D16</b>","polyline":{"points":"__liHsa{LO^_@|@MVw@jBQ^"},"start_location":{"lat":48.8908803,"lng":2.273696},"travel_mode":"WALKING"},{"distance":{"text":"0,2 km","value":213},"duration":{"text":"3 minutes","value":180},"end_location":{"lat":48.890576,"lng":2.269905},"html_instructions":"Prendre <b>à gauche</b> sur <b>Boulevard du Château</b>/<b>D16</b><div style=\"font-size:0.9em\">Continuer de suivre Boulevard du Château</div><div style=\"font-size:0.9em\">Votre destination se trouvera sur la droite.</div>","maneuver":"turn-left","polyline":{"points":"gcliHqyzLdDvJHTb@vAON"},"start_location":{"lat":48.8915612,"lng":2.2724128},"travel_mode":"WALKING"}],"travel_mode":"WALKING"},{"distance":{"text":"8,6 km","value":8642},"duration":{"text":"38 minutes","value":2280},"end_location":{"lat":48.8435,"lng":2.32382},"html_instructions":"Bus vers Luxembourg","polyline":{"points":"c}kiH{izLvIfXlElKnJrIvBoKjD{VtDgXpE_\\tJwL~OiBfD_FpBaQlM}BnOeCvNsGjLeT`JiU~EAzPdJnKkHrKxGxOkYtJ_QpF_RgPeXpC_c@zFqK`OcH`MeGnJiP~FcUtC_H"},"start_location":{"lat":48.890576,"lng":2.269905},"transit_details":{"arrival_stop":{"location":{"lat":48.8435,"lng":2.32382},"name":"Place du 18 Juin 1940"},"arrival_time":{"text":"10:56","time_zone":"Europe/Paris","value":1472720160},"departure_stop":{"location":{"lat":48.890576,"lng":2.269905},"name":"Bineau - Château"},"departure_time":{"text":"10:18","time_zone":"Europe/Paris","value":1472717880},"headsign":"Luxembourg","line":{"agencies":[{"name":"STIF","url":"http://www.vianavigo.com/"}],"color":"#e65100","short_name":"82","text_color":"#000000","vehicle":{"icon":"//maps.gstatic.com/mapfiles/transit/iw2/6/bus2.png","name":"Bus","type":"BUS"}},"num_stops":31},"travel_mode":"TRANSIT"},{"distance":{"text":"2,2 km","value":2248},"duration":{"text":"10 minutes","value":600},"end_location":{"lat":48.836921,"lng":2.352631},"html_instructions":"Bus vers Bastille","polyline":{"points":"{vbiH{zdMrHk`@nFcVfGsYvDyUvDmZfCum@"},"start_location":{"lat":48.8435,"lng":2.32382},"transit_details":{"arrival_stop":{"location":{"lat":48.836921,"lng":2.352631},"name":"Les Gobelins"},"arrival_time":{"text":"11:10","time_zone":"Europe/Paris","value":1472721000},"departure_stop":{"location":{"lat":48.8435,"lng":2.32382},"name":"Place du 18 Juin 1940"},"departure_time":{"text":"11:00","time_zone":"Europe/Paris","value":1472720400},