[{"origin":{"lat":2.275807562623615,"lng":48.86934479190779},"taff":{"geocoded_waypoints":[{"geocoder_status":"OK","place_id":"EjA0MC00NCBSdWUgZGUgbGEgRmFpc2FuZGVyaWUsIDc1MTE2IFBhcmlzLCBGcmFuY2U","types":["route","street_address"]},{"geocoder_status":"OK","place_id":"ChIJc5sm28pv5kcR0cpsawDOfSg","types":["street_address"]}],"routes":[{"bounds":{"northeast":{"lat":48.87996200000001,"lng":2.3229451},"southwest":{"lat":48.8692208,"lng":2.275285}},"copyrights":"Données cartographiques ©2016 Google","legs":[{"arrival_time":{"text":"10:35","time_zone":"Europe/Paris","value":1472718925},"departure_time":{"text":"10:08","time_zone":"Europe/Paris","value":1472717303},"distance":{"text":"4,7 km","value":4704},"duration":{"text":"27 minutes","value":1622},"end_address":"73 Rue d'Anjou, 75008 Paris, France","end_location":{"lat":48.8748221,"lng":2.3228933},"start_address":"40-44 Rue de la Faisanderie, 75116 Paris, France","start_location":{"lat":48.8692208,"lng":2.2762306},"steps":[{"distance":{"text":"0,3 km","value":272},"duration":{"text":"4 minutes","value":217},"end_location":{"lat":48.870591,"lng":2.275285},"html_instructions":"Marcher jusqu'à Avenue Foch","polyline":{"points":"swgiHmq{Lm@]aAm@mAzFkBoA]f@t@t@"},"start_location":{"lat":48.8692208,"lng":2.2762306},"steps":[{"distance":{"text":"68 m","value":68},"duration":{"text":"1 minute","value":48},"end_location":{"lat":48.8697786,"lng":2.2766057},"html_instructions":"Prendre la direction <b>nord-est</b> sur <b>Rue de la Faisanderie</b> vers <b>Rue Bénouville</b>","polyline":{"points":"swgiHmq{Lm@]aAm@"},"start_location":{"lat":48.8692208,"lng":2.2762306},"travel_mode":"WALKING"},{"distance":{"text":"0,1 km","value":102},"duration":{"text":"1 minute","value":80},"end_location":{"lat":48.87017040000001,"lng":2.2753497},"html_instructions":"Prendre <b>à gauche</b> sur <b>Villa de la Faisanderie</b>","maneuver":"turn-left","polyline":{"points":"c{giHys{LmAzF"},"start_location":{"lat":48.8697786,"lng":2.2766057},"travel_mode":"WALKING"},{"distance":{"text":"66 m","value":66},"duration":{"text":"1 minute","value":48},"end_location":{"lat":48.870865,"lng":2.275553},"html_instructions":"Prendre <b>à droite</b> sur <b>Boulevard Flandrin</b>","maneuver":"turn-right","polyline":{"points":"q}giH}k{LkBoA]f@"},"start_location":{"lat":48.87017040000001,"lng":2.2753497},"travel_mode":"WALKING"},{"distance":{"text":"36 m","value":36},"duration":{"text":"1 minute","value":41},"end_location":{"lat":48.870591,"lng":2.275285},"polyline":{"points":"{ahiHem{Lt@t@"},"start_location":{"lat":48.870865,"lng":2.275553},"travel_mode":"WALKING"}],"travel_mode":"WALKING"},{"distance":{"text":"1,3 km","value":1262},"duration":{"text":"2 minutes","value":120},"end_location":{"lat":48.878867,"lng":2.2821311},"html_instructions":"RER vers Gare de Pontoise","polyline":{"points":"e`hiHok{L@Ea@Wk@[A?{@g@CC{@e@WOEEOIUMOIw@e@WOMIiBqAoBkBiAmA_AeA]c@}@_BmAoCSe@[}@[iAaAeE{@yCWk@c@u@W_@U]m@q@a@c@SQGG]_@k@m@i@o@yEjL"},"start_location":{"lat":48.870591,"lng":2.275285},"transit_details":{"arrival_stop":{"location":{"lat":48.878867,"lng":2.2821311},"name":"Porte Maillot"},"arrival_time":{"text":"10:14","time_zone":"Europe/Paris","value":1472717640},"departure_stop":{"location":{"lat":48.870591,"lng":2.275285},"name":"Avenue Foch"},"departure_time":{"text":"10:12","time_zone":"Europe/Paris","value":1472717520},"headsign":"Gare de Pontoise","line":{"agencies":[{"name":"STIF","url":"http://www.vianavigo.com/"}],"color":"#ffd600","short_name":"RER C","text_color":"#000000","vehicle":{"icon":"//maps.gstatic.com/mapfiles/transit/iw2/6/rail2.png","local_icon":"//maps.gstatic.com/mapfiles/transit/iw2/6/fr-paris-rail.png","name":"RER","type":"COMMUTER_TRAIN"}},"num_stops":1},"travel_mode":"TRANSIT"},{"distance":{"text":"0,4 km","value":449},"duration":{"text":"5 minutes","value":297},"end_location":{"lat":48.87996200000001,"lng":2.287946},"html_instructions":"Marcher jusqu'à Pereire - Porte Maillot","polyline":{"points":"}siiHiv|L{Bu]}AuD"},"start_location":{"lat":48.878867,"lng":2.2821311},"steps":[{"distance":{"text":"0,4 km","value":365},"duration":{"text":"4 minutes","value":213},"end_location":{"lat":48.879488,"lng":2.287045},"polyline":{"points":"}siiHiv|L{Bu]"},"start_location":{"lat":48.878867,"lng":2.2821311},"travel_mode":"WALKING"},{"distance":{"text":"84 m","value":84},"duration":{"text":"1 minute","value":84},"end_location":{"lat":48.87996200000001,"lng":2.287946},"polyline":{"points":"ywiiH_u}L}AuD"},"start_location":{"lat":48.879488,"lng":2.287045},"travel_mode":"WALKING"}],"travel_mode":"WALKING"},{"distance":{"text":"2,5 km","value":2528},"duration":{"text":"10 minutes","value":600},"end_location":{"lat":48.874866,"lng":2.320814},"html_instructions":"Bus vers Gare du Nord","polyline":{"points":"wziiHuz}LrCoS~CqTlDoWxCiMlKy`@]iTg@}]t@me@"},"start_location":{"lat":48.87996200000001,"lng":2.287946},"transit_details":{"arrival_stop":{"location":{"lat":48.874866,"lng":2.320814},"name":"Saint-Augustin"},"arrival_time":{"text":"10:33","time_zone":"Europe/Paris","value":1472718780},"departure_stop":{"location":{"lat":48.87996200000001,"lng":2.287946},"name":"Pereire - Porte Maillot"},"departure_time":{"text":"10:23","time_zone":"Europe/Paris","value":1472718180},"headsign":"Gare du Nord","line":{"agencies":[{"name":"STIF","url":"http://www.vianavigo.com/"}],"color":"#f21300","short_name":"43","text_color":"#ffffff","vehicle":{"icon":"//maps.gstatic.com/mapfiles/transit/iw2/6/bus2.png","name":"Bus","type":"BUS"}},"num_stops":8},"travel_mode":"TRANSIT"},{"distance":{"text":"0,2 km","value":193},"duration":{"text":"2 minutes","value":144},"end_location":{"lat":48.8748221,"lng":2.3228933},"html_instructions":"Marcher jusqu'à 73 Rue d'Anjou, 75008 Paris, France","polyline":{"points":"}zhiHahdMQ@c@kLRAf@HB@"},"start_location":{"lat":48.874866,"lng":2.320814},"steps":[{"distance":{"text":"0,2 km","value":158},"duration":{"text":"2 minutes","value":112},"end_location":{"lat":48.8751359,"lng":2.3229397},"html_instructions":"Prendre la direction <b>est</b> sur <b>Rue de la Pépinière</b> vers <b>Rue d'Anjou</b>","polyline":{"points":"}zhiHahdMQ@c@kL"},"start_location":{"lat":48.874866,"lng":2.320814},"travel_mode":"WALKING"},{"distance":{"text":"35 m","value":35},"duration":{"text":"1 minute","value":32},"end_location":{"lat":48.8748221,"lng":2.3228933},"html_instructions":"Prendre <b>à droite</b> sur <b>Rue d'Anjou</b><div style=\"font-size:0.9em\">Votre destination se trouvera sur la droite.</div>","maneuver":"turn-right","polyline":{"points":"s|hiHkudMRAf@HB@"},"start_location":{"lat":48.8751359,"lng":2.3229397},"travel_mode":"WALKING"}],"travel_mode":"WALKING"}],"traffic_speed_entry":[],"via_waypoint":[]}],"overview_polyline":{"points":"swgiHmq{LoBkAmAzFkBoA]f@t@t@@Ea@Wm@[_Ak@iBeAuBmAwB{AoBkBiAmA}AiB}@_BmAoCo@cB}AoG{@yCWk@{@uAcAoAu@u@e@g@uA}AyEjL{Bu]}AuDrCoS~CqTlDoWxCiMlKy`@eAgs@t@me@Q@c@kLRAj@J"},"summary":"","warnings":["Le calcul d'itinéraires piétons est en bêta. Faites attention – Cet itinéraire n'est peut-être pas complètement aménagé pour les piétons."],"waypoint_order":[]},{"bounds":{"northeast":{"lat":48.88547399999999,"lng":2.3228933},"southwest":{"lat":48.8692208,"lng":2.275285}},"copyrights":"Données cartographiques ©2016 Google","legs":[{"arrival_time":{"text":"10:36","time_zone":"Europe/Paris","value":1472718993},"departure_time":{"text":"10:08","time_zone":"Europe/Paris","value":1472717303},"distance":{"text":"5,3 km","value":5282},"duration":{"text":"28 minutes","value":1690},"end_address":"73 Rue d'Anjou, 75008 Paris, France","end_location":{"lat":48.8748221,"lng":2.3228933},"start_address":"40-44 Rue de la Faisanderie, 75116 Paris, France","start_location":{"lat":48.8692208,"lng":2.2762306},"steps":[{"distance":{"text":"0,3 km","value":272},"duration":{"text":"4 minutes","value":217},"end_location":{"lat":48.870591,"lng":2.275285},"html_instructions":"Marcher jusqu'à Avenue Foch","polyline":{"points":"swgiHmq{Lm@]aAm@mAzFkBoA]f@t@t@"},"start_location":{"lat":48.8692208,"lng":2.2762306},"steps":[{"distance":{"text":"68 m","value":68},"duration":{"text":"1 minute","value":48},"end_location":{"lat":48.8697786,"lng":2.2766057},"html_instructions":"Prendre la direction <b>nord-est</b> sur <b>Rue de la Faisanderie</b> vers <b>Rue Bénouville</b>","polyline":{"points":"swgiHmq{Lm@]aAm@"},"start_location":{"lat":48.8692208,"lng":2.2762306},"travel_mode":"WALKING"},{"distance":{"text":"0,1 km","value":102},"duration":{"text":"1 minute","value":80},"end_location":{"lat":48.87017040000001,"lng":2.2753497},"html_instructions":"Prendre <b>à gauche</b> sur <b>Villa de la Faisanderie</b>","maneuver":"turn-left","polyline":{"points":"c{giHys{LmAzF"},"start_location":{"lat":48.8697786,"lng":2.2766057},"travel_mode":"WALKING"},{"distance":{"text":"66 m","value":66},"duration":{"text":"1 minute","value":48},"end_location":{"lat":48.870865,"lng":2.275553},"html_instructions":"Prendre <b>à droite</b> sur <b>Boulevard Flandrin</b>","maneuver":"turn-right","polyline":{"points":"q}giH}k{LkBoA]f@"},"start_location":{"lat":48.87017040000001,"lng":2.2753497},"travel_mode":"WALKING"},{"distance":{"text":"36 m","value":36},"duration":{"text":"1 minute","value":41},"end_location":{"lat":48.870591,"lng":2.275285},"polyline":{"points":"{ahiHem{Lt@t@"},"start_location":{"lat":48.870865,"lng":2.275553},"travel_mode":"WALKING"}],"travel_mode":"WALKING"},{"distance":{"text":"2,4 km","value":2381},"duration":{"text":"5 minutes","value":300},"end_location":{"lat":48.885404,"lng":2.298033},"html_instructions":"RER vers Gare de Pontoise","polyline":{"points":"e`hiHok{L@Ea@Wk@[A?{@g@CC{@e@WOEEOIUMOIw@e@WOMIiBqAoBkBiAmA_AeA]c@}@_BmAoCSe@[}@[iAaAeE{@yCWk@c@u@W_@U]m@q@a@c@SQGG]_@k@m@i@o@EESY_@i@{@aBkIaRwB{ESc@i@oAkAmCeA_CeAaCcEaJeDsHkDyHcA{B_AsBIQ"},"start_location":{"lat":48.870591,"lng":2.275285},"transit_details":{"arrival_stop":{"location":{"lat":48.885404,"lng":2.298033},"name":"Pereire Levallois"},"arrival_time":{"text":"10:17","time_zone":"Europe/Paris","value":1472717820},"departure_stop":{"location":{"lat":48.870591,"lng":2.275285},"name":"Avenue Foch"},"departure_time":{"text":"10:12","time_zone":"Europe/Paris","value":1472717520},"headsign":"Gare de Pontoise","line":{"agencies":[{"name":"STIF","url":"http://www.vianavigo.com/"}],"color":"#ffd600","short_name":"RER C","text_color":"#000000","vehicle":{"icon":"//maps.gstatic.com/mapfiles/transit/iw2/6/rail2.png","local_icon":"//maps.gstatic.com/mapfiles/transit/iw2/6/fr-paris-rail.png","name":"RER","type":"COMMUTER_TRAIN"}},"num_stops":2},"travel_mode":"TRANSIT"},{"distance":{"text":"0,1 km","value":106},"duration":{"text":"2 minutes","value":127},"end_location":{"lat":48.88547399999999,"lng":2.296594},"html_instructions":"Marcher jusqu'à Pereire - le Chatelier","polyline":{"points":"w|jiHuy_MBFQvG"},"start_location":{"lat":48.885404,"lng":2.298033},"steps":[{"distance":{"text":"4 m","value":4},"duration":{"text":"2 minutes","value":119},"end_location":{"lat":48.885381,"lng":2.29799},"polyline":{"points":"w|jiHuy_MBF"},"start_location":{"lat":48.885404,"lng":2.298033},"travel_mode":"WALKING"},{"distance":{"text":"0,1 km","value":102},"duration":{"text":"1 minute","value":8},"end_location":{"lat":48.88547399999999,"lng":2.296594},"polyline":{"points":"s|jiHmy_MQvG"},"start_location":{"lat":48.885381,"lng":2.29799},"travel_mode":"WALKING"}],"travel_mode":"WALKING"},{"distance":{"text":"2,2 km","value":2237},"duration":{"text":"9 minutes","value":540},"end_location":{"lat":48.874354,"lng":2.320051},"html_instructions":"Bus vers Pantheon","polyline":{"points":"e}jiHup_MnGsGxL_MrNoN~FaLhFai@hJuR|Cu`@"},"start_location":{"lat":48.88547399999999,"lng":2.296594},"transit_details":{"arrival_stop":{"location":{"lat":48.874354,"lng":2.320051},"name":"Saint-Augustin"},"arrival_time":{"text":"10:33","time_zone":"Europe/Paris","value":1472718780},"departure_stop":{"location":{"lat":48.88547399999999,"lng":2.296594},"name":"Pereire - le Chatelier"},"departure_time":{"text":"10:24","time_zone":"Europe/Paris","value":1472718240},"headsign":"Pantheon","line":{"agencies":[{"name":"STIF","url":"http://www.vianavigo.com/"}],"color":"#ce93d8","short_name":"84","text_color":"#000000","vehicle":{"icon":"//maps.gstatic.com/mapfiles/transit/iw2/6/bus2.png","name":"Bus","type":"BUS"}},"num_stops":7},"travel_mode":"TRANSIT"},{"distance":{"text":"0,3 km","value":286},"duration":{"text":"4 minutes","value":213},"end_location":{"lat":48.8748221,"lng":2.3228933},"html_instructions":"Marcher jusqu'à 73 Rue d'Anjou, 75008 Paris, France","polyline":{"points":"uwhiHicdMI]u@f@@qAt@sMuA["},"start_location":{"lat":48.874354,"lng":2.320051},"steps":[{"distance":{"text":"33 m","value":33},"duration":{"text":"1 minute","value":23},"end_location":{"lat":48.8746655,"lng":2.3200047},"html_instructions":"Prendre la direction <b>nord-ouest</b> sur <b>Boulevard Malesherbes</b> vers <b>Place Saint-Augustin</b>","polyline":{"points":"uwhiHicdMI]u@f@"},"start_location":{"lat":48.874354,"lng":2.320051},"travel_mode":"WALKING"},{"distance":{"text":"30 m","value":30},"duration":{"text":"1 minute","value":26},"end_location":{"lat":48.87465510000001,"lng":2.3204094},"html_instructions":"Prendre <b>à droite</b> sur <b>Place Saint-Augustin</b>","maneuver":"turn-right","polyline":{"points":"uyhiH_cdM@qA"},"start_location":{"lat":48.8746655,"lng":2.3200047},"travel_mode":"WALKING"},{"distance":{"text":"0,2 km","value":174},"duration":{"text":"2 minutes","value":123},"end_location":{"lat":48.8743906,"lng":2.3227511},"html_instructions":"Continuer sur <b>Boulevard Haussmann</b>","polyline":{"points":"syhiHqedMt@sM"},"start_location":{"lat":48.87465510000001,"lng":2.3204094},"travel_mode":"WALKING"},{"distance":{"text":"49 m","value":49},"duration":{"text":"1 minute","value":41},"end_location":{"lat":48.8748221,"lng":2.3228933},"html_instructions":"Prendre <b>à gauche</b> sur <b>Rue d'Anjou</b><div style=\"font-size:0.9em\">Votre destination se trouvera sur la gauche.</div>","maneuver":"turn-left","polyline":{"points":"}whiHetdMuA["},"start_location":{"lat":48.8743906,"lng":2.3227511},"travel_mode":"WALKING"}],"travel_mode":"WALKING"}],"traffic_speed_entry":[],"via_waypoint":[]}],"overview_polyline":{"points":"swgiHmq{LoBkAmAzFkBoA]f@t@t@@Ea@Wm@[_Ak@iBeAuBmAwB{AoBkBiAmA}AiB}@_BmAoCo@cB}AoG{@yCWk@{@uAcAoAu@u@e@g@uA}Ay@iA{@aBkIaRkC_GaG_NcTqe@BFQvGnGsGl\\o\\~FaLhFai@hJuR|Cu`@I]u@f@@qAt@sMuA["},"summary":"","warnings":["Le calcul d'itinéraires piétons est en bêta. Faites attention – Cet itinéraire n'est peut-être pas complètement aménagé pour les piétons."],"waypoint_order":[]},{"bounds":{"northeast":{"lat":48.88135399999999,"lng":2.3229451},"southwest":{"lat":48.8688846,"lng":2.2739849}},"copyrights":"Données cartographiques ©2016 Google","legs":[{"arrival_time":{"text":"10:35","time_zone":"Europe/Paris","value":1472718925},"departure_time":{"text":"10:10","time_zone":"Europe/Paris","value":1472717453},"distance":{"text":"4,9 km","value":4886},"duration":{"text":"25 minutes","value":1472},"end_address":"73 Rue d'Anjou, 75008 Paris, France","end_location":{"lat":48.8748221,"lng":2.3228933},"start_address":"40-44 Rue de la Faisanderie, 75116 Paris, France","start_location":{"lat":48.8692208,"lng":2.2762306},"steps":[{"distance":{"text":"0,4 km","value":394},"duration":{"text":"5 minutes","value":306},"end_location":{"lat":48.870807,"lng":2.27523},"html_instructions":"Marcher jusqu'à Porte Dauphine - Maréchal de Lattre de Tassigny","polyline":{"points":"swgiHmq{LbAl@sAbG[vA?B@B@B@@D@BB@@@B?B?DABENi@_@IUCCIGQOoBkAoAu@OKDY"},"start_location":{"lat":48.8692208,"lng":2.2762306},"steps":[{"distance":{"text":"41 m","value":41},"duration":{"text":"1 minute","value":30},"end_location":{"lat":48.8688846,"lng":2.2760028},"html_instructions":"Prendre la direction <b>sud-ouest</b> sur <b>Rue de la Faisanderie</b> vers <b>Rue du Général Appert</b>","polyline":{"points":"swgiHmq{LbAl@"},"start_location":{"lat":48.8692208,"lng":2.2762306},"travel_mode":"WALKING"},{"distance":{"text":"0,2 km","value":169},"duration":{"text":"2 minutes","value":138},"end_location":{"lat":48.8693793,"lng":2.2739849},"html_instructions":"Prendre <b>à droite</b> sur <b>Rue du Général Appert</b>","maneuver":"turn-right","polyline":{"points":"ougiH_p{LsAbG[vA?B@B@B@@D@BB@@@B?B?DABEN"},"start_location":{"lat":48.8688846,"lng":2.2760028},"travel_mode":"WALKING"},{"distance":{"text":"27 m","value":27},"duration":{"text":"1 minute","value":18},"end_location":{"lat":48.8695938,"lng":2.2741444},"html_instructions":"Prendre <b>à droite</b> sur <b>Boulevards des Maréchaux</b>/<b>Passage Henri Gaillard</b>","maneuver":"turn-right","polyline":{"points":"sxgiHkc{Li@_@"},"start_location":{"lat":48.8693793,"lng":2.2739849},"travel_mode":"WALKING"},{"distance":{"text":"0,2 km","value":157},"duration":{"text":"2 minutes","value":120},"end_location":{"lat":48.870807,"lng":2.27523},"html_instructions":"Prendre légèrement <b>à droite</b> sur <b>Boulevard Lannes</b><div style=\"font-size:0.9em\">Votre destination se trouvera sur la droite.</div>","maneuver":"turn-slight-right","polyline":{"points":"}ygiHkd{LIUCCIGQOoBkAoAu@OKDY"},"start_location":{"lat":48.8695938,"lng":2.2741444},"travel_mode":"WALKING"}],"travel_mode":"WALKING"},{"distance":{"text":"1,4 km","value":1440},"duration":{"text":"4 minutes","value":240},"end_location":{"lat":48.88135399999999,"lng":2.285029},"html_instructions":"Bus vers Porte de Champerret","polyline":{"points":"qahiHek{LaYiX{GaS{LsA_FKaI{K"},"start_location":{"lat":48.870807,"lng":2.27523},"transit_details":{"arrival_stop":{"location":{"lat":48.88135399999999,"lng":2.285029},"name":"Général Koening - Palais des Congrès"},"arrival_time":{"text":"10:20","time_zone":"Europe/Paris","value":1472718000},"departure_stop":{"location":{"lat":48.870807,"lng":2.27523},"name":"Porte Dauphine - Maréchal de Lattre de Tassigny"},"departure_time":{"text":"10:16","time_zone":"Europe/Paris","value":1472717760},"headsign":"Porte de Champerret","line":{"agencies":[{"name":"STIF","url":"http://www.vianavigo.com/"}],"color":"#640082","short_name":"PC1","text_color":"#ffffff","vehicle":{"icon":"//maps.gstatic.com/mapfiles/transit/iw2/6/bus2.png","name":"Bus","type":"BUS"}},"num_stops":5},"travel_mode":"TRANSIT"},{"distance":{"text":"73 m","value":73},"duration":{"text":"1 minute","value":64},"end_location":{"lat":48.880743,"lng":2.284634},"html_instructions":"Marcher jusqu'à Général Koenig - Palais des Congrès","polyline":{"points":"mcjiHmh}LxBnA"},"start_location":{"lat":48.88135399999999,"lng":2.285029},"steps":[{"distance":{"text":"73 m","value":73},"duration":{"text":"1 minute","value":64},"end_location":{"lat":48.880743,"lng":2.284634},"polyline":{"points":"mcjiHmh}LxBnA"},"start_location":{"lat":48.88135399999999,"lng":2.285029},"travel_mode":"WALKING"}],"travel_mode":"WALKING"},{"distance":{"text":"2,8 km","value":2786},"duration":{"text":"11 minutes","value":660},"end_location":{"lat":48.874866,"lng":2.320814},"html_instructions":"Bus vers Gare du Nord","polyline":{"points":"s_jiH}e}LzCwSrCoS~CqTlDoWxCiMlKy`@]iTg@}]t@me@"},"start_location":{"lat":48.880743,"lng":2.284634},"transit_details":{"arrival_stop":{"location":{"lat":48.874866,"lng":2.320814},"name":"Saint-Augustin"},"arrival_time":{"text":"10:33","time_zone":"Europe/Paris","value":1472718780},"departure_stop":{"location":{"lat":48.880743,"lng":2.284634},"name":"Général Koenig - Palais des Congrès"},"departure_time":{"text":"10:22","time_zone":"Europe/Paris","value":1472718120},"headsign":"Gare du Nord","line":{"agencies":[{"name":"STIF","url":"http://www.vianavigo.com/"}],"color":"#f21300","short_name":"43","text_color":"#ffffff","vehicle":{"icon":"//maps.gstatic.com/mapfiles/transit/iw2/6/bus2.png","name":"Bus","type":"BUS"}},"num_stops":9},"travel_mode":"TRANSIT"},{"distance":{"text":"0,2 km","value":193},"duration":{"text":"2 minutes","value":144},"end_location":{"lat":48.8748221,"lng":2.3228933},"html_instructions":"Marcher jusqu'à 73 Rue d'Anjou, 75008 Paris, France","polyline":{"points":"}zhiHahdMQ@c@kLRAf@HB@"},"start_location":{"lat":48.874866,"lng":2.320814},"steps":[{"distance":{"text":"0,2 km","value":158},"duration":{"text":"2 minutes","value":112},"end_location":{"lat":48.8751359,"lng":2.3229397},"html_instructions":"Prendre la direction <b>est</b> sur <b>Rue de la Pépinière</b> vers <b>Rue d'Anjou</b>","polyline":{"points":"}zhiHahdMQ@c@kL"},"start_location":{"lat":48.874866,"lng":2.320814},"travel_mode":"WALKING"},{"distance":{"text":"35 m","value":35},"duration":{"text":"1 minute","value":32},"end_location":{"lat":48.8748221,"lng":2.3228933},"html_instructions":"Prendre <b>à droite</b> sur <b>Rue d'Anjou</b><div style=\"font-size:0.9em\">Votre destination se trouvera sur la droite.</div>","maneuver":"turn-right","polyline":{"points":"s|hiHkudMRAf@HB@"},"start_location":{"lat":48.8751359,"lng":2.3229397},"travel_mode":"WALKING"}],"travel_mode":"WALKING"}],"traffic_speed_entry":[],"via_waypoint":[]}],"overview_polyline":{"points":"swgiHmq{LbAl@sAbG[zABFFBDD@FAHENi@_@MY[W_EaCOKDYaYiX{GaS{LsA_FKaI{KxBnAnHgh@~CqTlDoWxCiMlKy`@eAgs@t@me@Q@c@kLRAj@J"},"summary":"","warnings":["Le calcul d'itinéraires piétons est en bêta. Faites attention – Cet itinéraire n'est peut-être pas complètement aménagé pour les piétons."],"waypoint_order":[]},{"bounds":{"northeast":{"lat":48.88728,"lng":2.3228933},"southwest":{"lat":48.8688846,"lng":2.2739849}},"copyrights":"Données cartographiques ©2016 Google","legs":[{"arrival_time":{"text":"10:36","time_zone":"Europe/Paris","value":1472718993},"departure_time":{"text":"10:01","time_zone":"Europe/Paris","value":1472716913},"distance":{"text":"5,6 km","value":5616},"duration":{"text":"35 minutes","value":2080},"end_address":"73 Rue d'Anjou, 75008 Paris, France","end_location":{"lat":48.8748221,"lng":2.3228933},"start_address":"40-44 Rue de la Faisanderie, 75116 Paris, France","start_location":{"lat":48.8692208,"lng":2.2762306},"steps":[{"distance":{"text":"0,4 km","value":394},"duration":{"text":"5 minutes","value":306},"end_location":{"lat":48.870807,"lng":2.27523},"html_instructions":"Marcher jusqu'à Porte Dauphine - Maréchal de Lattre de Tassigny","polyline":{"points":"swgiHmq{LbAl@sAbG[vA?B@B@B@@D@BB@@@B?B?DABENi@_@IUCCIGQOoBkAoAu@OKDY"},"start_location":{"lat":48.8692208,"lng":2.2762306},"steps":[{"distance":{"text":"41 m","value":41},"duration":{"text":"1 minute","value":30},"end_location":{"lat":48.8688846,"lng":2.2760028},"html_instructions":"Prendre la direction <b>sud-ouest</b> sur <b>Rue de la Faisanderie</b> vers <b>Rue du Général Appert</b>","polyline":{"points":"swgiHmq{LbAl@"},"start_location":{"lat":48.8692208,"lng":2.2762306},"travel_mode":"WALKING"},{"distance":{"text":"0,2 km","value":169},"duration":{"text":"2 minutes","value":138},"end_location":{"lat":48.8693793,"lng":2.2739849},"html_instructions":"Prendre <b>à droite</b> sur <b>Rue du Général Appert</b>","maneuver":"turn-right","polyline":{"points":"ougiH_p{LsAbG[vA?B@B@B@@D@BB@@@B?B?DABEN"},"start_location":{"lat":48.8688846,"lng":2.2760028},"travel_mode":"WALKING"},{"distance":{"text":"27 m","value":27},"duration":{"text":"1 minute","value":18},"end_location":{"lat":48.8695938,"lng":2.2741444},"html_instructions":"Prendre <b>à droite</b> sur <b>Boulevards des Maréchaux</b>/<b>Passage Henri Gaillard</b>","maneuver":"turn-right","polyline":{"points":"sxgiHkc{Li@_@"},"start_location":{"lat":48.8693793,"lng":2.2739849},"travel_mode":"WALKING"},{"distance":{"text":"0,2 km","value":157},"duration":{"text":"2 minutes","value":120},"end_location":{"lat":48.870807,"lng":2.27523},"html_instructions":"Prendre légèrement <b>à droite</b> sur <b>Boulevard Lannes</b><div style=\"font-size:0.9em\">Votre destination se trouvera sur la droite.</div>","maneuver":"turn-slight-right","polyline":{"points":"}ygiHkd{LIUCCIGQOoBkAoAu@OKDY"},"start_location":{"lat":48.8695938,"lng":2.2741444},"travel_mode":"WALKING"}],"travel_mode":"WALKING"},{"distance":{"text":"2,2 km","value":2215},"duration":{"text":"9 minutes","value":540},"end_location":{"lat":48.886147,"lng":2.292724},"html_instructions":"Bus vers Porte de Champerret","polyline":{"points":"qahiHek{LaYiX{GaS{LsA_FKaI{KgO{XwLeU"},"start_location":{"lat":48.870807,"lng":2.27523},"transit_details":{"arrival_stop":{"location":{"lat":48.886147,"lng":2.292724},"name":"Porte de Champerret"},"arrival_time":{"text":"10:16","time_zone":"Europe/Paris","value":1472717760},"departure_stop":{"location":{"lat":48.870807,"lng":2.27523},"name":"Porte Dauphine - Maréchal de Lattre de Tassigny"},"departure_time":{"text":"10:07","time_zone":"Europe/Paris","value":1472717220},"headsign":"Porte de Champerret","line":{"agencies":[{"name":"STIF","url":"http://www.vianavigo.com/"}],"color":"#640082","short_name":"PC1","text_color":"#ffffff","vehicle":{"icon":"//maps.gstatic.com/mapfiles/transit/iw2/6/bus2.png","name":"Bus","type":"BUS"}},"num_stops":7},"travel_mode":"TRANSIT"},{"distance":{"text":"29 m","value":29},"duration":{"text":"1 minute","value":29},"end_location":{"lat":48.885887,"lng":2.292765},"html_instructions":"Marcher jusqu'à Porte de Champerret","polyline":{"points":"makiHox~Lr@I"},"start_location":{"lat":48.886147,"lng":2.292724},"steps":[{"distance":{"text":"29 m","value":29},"duration":{"text":"1 minute","value":29},"end_location":{"lat":48.885887,"lng":2.292765},"polyline":{"points":"makiHox~Lr@I"},"start_location":{"lat":48.886147,"lng":2.292724},"travel_mode":"WALKING"}],"travel_mode":"WALKING"},{"distance":{"text":"2,7 km","value":2692},"duration":{"text":"12 minutes","value":720},"end_location":{"lat":48.874354,"lng":2.320051},"html_instructions":"Bus vers Pantheon","polyline":{"points":"y_kiHyx~LuGwKhJcJnGsGxL_MrNoN~FaLhFai@hJuR|Cu`@"},"start_location":{"lat":48.885887,"lng":2.292765},"transit_details":{"arrival_stop":{"location":{"lat":48.874354,"lng":2.320051},"name":"Saint-Augustin"},"arrival_time":{"text":"10:33","time_zone":"Europe/Paris","value":1472718780},"departure_stop":{"location":{"lat":48.885887,"lng":2.292765},"name":"Porte de Champerret"},"departure_time":{"text":"10:21","time_zone":"Europe/Paris","value":1472718060},"headsign":"Pantheon","line":{"agencies":[{"name":"STIF","url":"http://www.vianavigo.com/"}],"color":"#ce93d8","short_name":"84","text_color":"#000000","vehicle":{"icon":"//maps.gstatic.com/mapfiles/transit/iw2/6/bus2.png","name":"Bus","type":"BUS"}},"num_stops":9},"travel_mode":"TRANSIT"},{"distance":{"text":"0,3 km","value":286},"duration":{"text":"4 minutes","value":213},"end_location":{"lat":48.8748221,"lng":2.3228933},"html_instructions":"Marcher jusqu'à 73 Rue d'Anjou, 75008 Paris, France","polyline":{"points":"uwhiHicdMI]u@f@@qAt@sMuA["},"start_location":{"lat":48.874354,"lng":2.320051},"steps":[{"distance":{"text":"33 m","value":33},"duration":{"text":"1 minute","value":23},"end_location":{"lat":48.8746655,"lng":2.3200047},"html_instructions":"Prendre la direction <b>nord-ouest</b> sur <b>Boulevard Malesherbes</b> vers <b>Place Saint-Augustin</b>","polyline":{"points":"uwhiHicdMI]u@f@"},"start_location":{"lat":48.874354,"lng":2.320051},"travel_mode":"WALKING"},{"distance":{"text":"30 m","value":30},"duration":{"text":"1 minute","value":26},"end_location":{"lat":48.87465510000001,"lng":2.3204094},"html_instructions":"Prendre <b>à droite</b> sur <b>Place Saint-Augustin</b>","maneuver":"turn-right","polyline":{"points":"uyhiH_cdM@qA"},"start_location":{"lat":48.8746655,"lng":2.3200047},"travel_mode":"WALKING"},{"distance":{"text":"0,2 km","value":174},"duration":{"text":"2 minutes","value":123},"end_location":{"lat":48.8743906,"lng":2.3227511},"html_instructions":"Continuer sur <b>Boulevard Haussmann</b>","polyline":{"points":"syhiHqedMt@sM"},"start_location":{"lat":48.87465510000001,"lng":2.3204094},"travel_mode":"WALKING"},{"distance":{"text":"49 m","value":49},"duration":{"text":"1 minute","value":41},"end_location":{"lat":48.8748221,"lng":2.3228933},"html_instructions":"Prendre <b>à gauche</b> sur <b>Rue d'Anjou</b><div style=\"font-size:0.9em\">Votre destination se trouvera sur la gauche.</div>","maneuver":"turn-left","polyline":{"points":"}whiHetdMuA["},"start_location":{"lat":48.8743906,"lng":2.3227511},"travel_mode":"WALKING"}],"travel_mode":"WALKING"}],"traffic_speed_entry":[],"via_waypoint":[]}],"overview_polyline":{"points":"swgiHmq{LbAl@sAbG[zABFFBDD@FAHENi@_@MY[W_EaCOKDYaYiX{GaS{LsA_FKaI{KgO{XwLeUr@IuGwKhJcJhUsUrNoN~FaLhFai@hJuR|Cu`@I]u@f@@qAt@sMuA["},"summary":"","warnings":["Le calcul d'itinéraires piétons est en bêta. Faites attention – Cet itinéraire n'est peut-être pas complètement aménagé pour les piétons."],"waypoint_order":[]}],"status":"OK"},"gobs":{"geocoded_waypoints":[{"geocoder_status":"OK","place_id":"EjA0MC00NCBSdWUgZGUgbGEgRmFpc2FuZGVyaWUsIDc1MTE2IFBhcmlzLCBGcmFuY2U","types":["route","street_address"]},{"geocoder_status":"OK","place_id":"ChIJS8pekPJx5kcRxS0S3NXQsW4","types":["street_address"]}],"routes":[{"bounds":{"northeast":{"lat":48.8692208,"lng":2.3548511},"southwest":{"lat":48.836391,"lng":2.2728779}},"copyrights":"Données cartographiques ©2016 Google","legs":[{"arrival_time":{"text":"10:51","time_zone":"Europe/Paris","value":1472719896},"departure_time":{"text":"10:00","time_zone":"Europe/Paris","value":1472716830},"distance":{"text":"8,7 km","value":8732},"duration":{"text":"51 minutes","value":3066},"end_address":"73 Boulevard Saint-Marcel, 75005 Paris, France","end_location":{"lat":48.8377748,"lng":2.3548511},"start_address":"40-44 Rue de la Faisanderie, 75116 Paris, France","start_location":{"lat":48.8692208,"lng":2.2762306},"steps":[{"distance":{"text":"0,6 km","value":640},"duration":{"text":"8 minutes","value":509},"end_location":{"lat":48.864065,"lng":2.273154},"html_instructions":"Marcher jusqu'à Victor Hugo - Henri Martin","polyline":{"points":"swgiHmq{LbAl@rC`B|A~@dAp@NFpBpAnBfAvGzDl@Z`@RJ@JDRDEs@JA"},"start_location":{"lat":48.8692208,"lng":2.2762306},"steps":[{"distance":{"text":"0,6 km","value":576},"duration":{"text":"7 minutes","value":441},"end_location":{"lat":48.8644784,"lng":2.2730473},"html_instructions":"Prendre la direction <b>sud-ouest</b> sur <b>Rue de la Faisanderie</b> vers <b>Rue du Général Appert</b>","polyline":{"points":"swgiHmq{LbAl@rC`B|A~@dAp@NFpBpAnBfAvGzDl@Z"},"start_location":{"lat":48.8692208,"lng":2.2762306},"travel_mode":"WALKING"},{"distance":{"text":"45 m","value":45},"duration":{"text":"1 minute","value":49},"end_location":{"lat":48.8640865,"lng":2.2728779},"html_instructions":"Continuer sur <b>Avenue Henri Martin</b>/<b>Avenue Victor Hugo</b>","polyline":{"points":"_zfiHq}zL`@RJ@JDRD"},"start_location":{"lat":48.8644784,"lng":2.2730473},"travel_mode":"WALKING"},{"distance":{"text":"19 m","value":19},"duration":{"text":"1 minute","value":19},"end_location":{"lat":48.864065,"lng":2.273154},"html_instructions":"Prendre <b>à gauche</b> sur <b>Avenue Henri Martin</b><div style=\"font-size:0.9em\">Votre destination se trouvera sur la droite.</div>","maneuver":"turn-left","polyline":{"points":"qwfiHo|zLEs@JA"},"start_location":{"lat":48.8640865,"lng":2.2728779},"travel_mode":"WALKING"}],"travel_mode":"WALKING"},{"distance":{"text":"6,0 km","value":6014},"duration":{"text":"25 minutes","value":1500},"end_location":{"lat":48.850601,"lng":2.346003},"html_instructions":"Bus vers Gare de Lyon","polyline":{"points":"kwfiHe~zLn@u^zAyXlA{TM_NwCkPkDmV]}b@nOsMMeRgAa`@_@_SpFeb@xM{LxHmHvG{HzHyXtE}YhDmUlBoMdEaXpBeM"},"start_location":{"lat":48.864065,"lng":2.273154},"transit_details":{"arrival_stop":{"location":{"lat":48.850601,"lng":2.346003},"name":"Dante"},"arrival_time":{"text":"10:34","time_zone":"Europe/Paris","value":1472718840},"departure_stop":{"location":{"lat":48.864065,"lng":2.273154},"name":"Victor Hugo - Henri Martin"},"departure_time":{"text":"10:09","time_zone":"Europe/Paris","value":1472717340},"headsign":"Gare de Lyon","line":{"agencies":[{"name":"STIF","url":"http://www.vianavigo.com/"}],"color":"#d2d200","short_name":"63","text_color":"#000000","vehicle":{"icon":"//maps.gstatic.com/mapfiles/transit/iw2/6/bus2.png","name":"Bus","type":"BUS"}},"num_stops":21},"travel_mode":"TRANSIT"},{"distance":{"text":"1,8 km","value":1792},"duration":{"text":"7 minutes","value":420},"end_location":{"lat":48.836391,"lng":2.351936},"html_instructions":"Bus vers Fort du Kremlin Bicêtre","polyline":{"points":"gcdiHoeiMlFoS~RyMtOyA`O`AxKtExNwF"},"start_location":{"lat":48.850601,"lng":2.346003},"transit_details":{"arrival_stop":{"location":{"lat":48.836391,"lng":2.351936},"name":"Les Gobelins"},"arrival_time":{"text":"10:48","time_zone":"Europe/Paris","value":1472719680},"departure_stop":{"location":{"lat":48.850601,"lng":2.346003},"name":"Dante"},"departure_time":{"text":"10:41","time_zone":"Europe/Paris","value":1472719260},"headsign":"Fort du Kremlin Bicêtre","line":{"agencies":[{"name":"STIF","url":"http://www.vianavigo.com/"}],"color":"#ff80ab","short_name":"47","text_color":"#000000","vehicle":{"icon":"//maps.gstatic.com/mapfiles/transit/iw2/6/bus2.png","name":"Bus","type":"BUS"}},"num_stops":6},"travel_mode":"TRANSIT"},{"distance":{"text":"0,3 km","value":286},"duration":{"text":"4 minutes","value":215},"end_location":{"lat":48.8377748,"lng":2.3548511},"html_instructions":"Marcher jusqu'à 73 Boulevard Saint-Marcel, 75005 Paris, France","polyline":{"points":"mjaiHsjjMI_@c@X[Ra@uAOUQw@S_AEWGWGYS}@WmAQ}@]{A"},"start_location":{"lat":48.836391,"lng":2.351936},"steps":[{"distance":{"text":"40 m","value":40},"duration":{"text":"1 minute","value":27},"end_location":{"lat":48.8367623,"lng":2.3518696},"html_instructions":"Prendre la direction <b>nord-ouest</b> sur <b>Avenue des Gobelins</b> vers <b>Boulevard Arago</b>","polyline":{"points":"mjaiHsjjMI_@c@X[R"},"start_location":{"lat":48.836391,"lng":2.351936},"travel_mode":"WALKING"},{"distance":{"text":"0,2 km","value":246},"duration":{"text":"3 minutes","value":188},"end_location":{"lat":48.8377748,"lng":2.3548511},"html_instructions":"Prendre <b>à droite</b> sur <b>Boulevard Saint-Marcel</b><div style=\"font-size:0.9em\">Votre destination se trouvera sur la droite.</div>","maneuver":"turn-right","polyline":{"points":"wlaiHejjMa@uAOUQw@S_AEWGWGYS}@WmAQ}@]{A"},"start_location":{"lat":48.8367623,"lng":2.3518696},"travel_mode":"WALKING"}],"travel_mode":"WALKING"}],"traffic_speed_entry":[],"via_waypoint":[]}],"overview_polyline":{"points":"swgiHmq{LzJ`GhO|InAn@VFRDEs@JAn@u^hDun@M_NwCkPkDmV]}b@nOsMMeRgAa`@_@_SpFeb@xM{LxHmHvG{HzHyXtE}YvG}c@vHgf@lFoS~RyMtOyA`O`AxKtExNwFI_@c@X[Ra@uAOUQw@YwAOq@{AeH"},"summary":"","warnings":["Le calcul d'itinéraires piétons est en bêta. Faites attention – Cet itinéraire n'est peut-être pas complètement aménagé pour les piétons."],"waypoint_order":[]},{"bounds":{"northeast":{"lat":48.8692208,"lng":2.3548511},"southwest":{"lat":48.836391,"lng":2.2728779}},"copyrights":"Données cartographiques ©2016 Google","legs":[{"arrival_time":{"text":"10:59","time_zone":"Europe/Paris","value":1472720376},"departure_time":{"text":"10:08","time_zone":"Europe/Paris","value":1472717310},"distance":{"text":"9,1 km","value":9055},"duration":{"text":"51 minutes","value":3066},"end_address":"73 Boulevard Saint-Marcel, 75005 Paris, France","end_location":{"lat":48.8377748,"lng":2.3548511},"start_address":"40-44 Rue de la Faisanderie, 75116 Paris, France","start_location":{"lat":48.8692208,"lng":2.2762306},"steps":[{"distance":{"text":"0,6 km","value":640},"duration":{"text":"8 minutes","value":509},"end_location":{"lat":48.864065,"lng":2.273154},"html_instructions":"Marcher jusqu'à Victor Hugo - Henri Martin","polyline":{"points":"swgiHmq{LbAl@rC`B|A~@dAp@NFpBpAnBfAvGzDl@Z`@RJ@JDRDEs@JA"},"start_location":{"lat":48.8692208,"lng":2.2762306},"steps":[{"distance":{"text":"0,6 km","value":576},"duration":{"text":"7 minutes","value":441},"end_location":{"lat":48.8644784,"lng":2.2730473},"html_instructions":"Prendre la direction <b>sud-ouest</b> sur <b>Rue de la Faisanderie</b> vers <b>Rue du Général Appert</b>","polyline":{"points":"swgiHmq{LbAl@rC`B|A~@dAp@NFpBpAnBfAvGzDl@Z"},"start_location":{"lat":48.8692208,"lng":2.2762306},"travel_mode":"WALKING"},{"distance":{"text":"45 m","value":45},"duration":{"text":"1 minute","value":49},"end_location":{"lat":48.8640865,"lng":2.2728779},"html_instructions":"Continuer sur <b>Avenue Henri Martin</b>/<b>Avenue Victor Hugo</b>","polyline":{"points":"_zfiHq}zL`@RJ@JDRD"},"start_location":{"lat":48.8644784,"lng":2.2730473},"travel_mode":"WALKING"},{"distance":{"text":"19 m","value":19},"duration":{"text":"1 minute","value":19},"end_location":{"lat":48.864065,"lng":2.273154},"html_instructions":"Prendre <b>à gauche</b> sur <b>Avenue Henri Martin</b><div style=\"font-size:0.9em\">Votre destination se trouvera sur la droite.</div>","maneuver":"turn-left","polyline":{"points":"qwfiHo|zLEs@JA"},"start_location":{"lat":48.8640865,"lng":2.2728779},"travel_mode":"WALKING"}],"travel_mode":"WALKING"},{"distance":{"text":"5,8 km","value":5836},"duration":{"text":"24 minutes","value":1440},"end_location":{"lat":48.851167,"lng":2.343728},"html_instructions":"Bus vers Gare de Lyon","polyline":{"points":"kwfiHe~zLn@u^zAyXlA{TM_NwCkPkDmV]}b@nOsMMeRgAa`@_@_SpFeb@xM{LxHmHvG{HzHyXtE}YhDmUlBoMdEaX"},"start_location":{"lat":48.864065,"lng":2.273154},"transit_details":{"arrival_stop":{"location":{"lat":48.851167,"lng":2.343728},"name":"Cluny"},"arrival_time":{"text":"10:41","time_zone":"Europe/Paris","value":1472719260},"departure_stop":{"location":{"lat":48.864065,"lng":2.273154},"name":"Victor Hugo - Henri Martin"},"departure_time":{"text":"10:17","time_zone":"Europe/Paris","value":1472717820},"headsign":"Gare de Lyon","line":{"agencies":[{"name":"STIF","url":"http://www.vianavigo.com/"}],"color":"#d2d200","short_name":"63","text_color":"#000000","vehicle":{"icon":"//maps.gstatic.com/mapfiles/transit/iw2/6/bus2.png","name":"Bus","type":"BUS"}},"num_stops":20},"travel_mode":"TRANSIT"},{"distance":{"text":"0,1 km","value":146},"duration":{"text":"2 minutes","value":146},"end_location":{"lat":48.852479,"lng":2.343538},"html_instructions":"Marcher jusqu'à Saint-Michel - Saint-Germain","polyline":{"points":"yfdiHiwhMeGd@"},"start_location":{"lat":48.851167,"lng":2.343728},"steps":[{"distance":{"text":"0,1 km","value":146},"duration":{"text":"2 minutes","value":146},"end_location":{"lat":48.852479,"lng":2.343538},"polyline":{"points":"yfdiHiwhMeGd@"},"start_location":{"lat":48.851167,"lng":2.343728},"travel_mode":"WALKING"}],"travel_mode":"WALKING"},{"distance":{"text":"2,1 km","value":2147},"duration":{"text":"11 minutes","value":660},"end_location":{"lat":48.836391,"lng":2.351936},"html_instructions":"Bus vers Porte d'Ivry","polyline":{"points":"_odiHcvhMxOzGrTxFnN{FnLyEjIwR~GmVvLiJ"},"start_location":{"lat":48.852479,"lng":2.343538},"transit_details":{"arrival_stop":{"location":{"lat":48.836391,"lng":2.351936},"name":"Les Gobelins"},"arrival_time":{"text":"10:56","time_zone":"Europe/Paris","value":1472720160},"departure_stop":{"location":{"lat":48.852479,"lng":2.343538},"name":"Saint-Michel - Saint-Germain"},"departure_time":{"text":"10:45","time_zone":"Europe/Paris","value":1472719500},"headsign":"Porte d'Ivry","line":{"agencies":[{"name":"STIF","url":"http://www.vianavigo.com/"}],"color":"#e65100","short_name":"27","text_color":"#000000","vehicle":{"icon":"//maps.gstatic.com/mapfiles/transit/iw2/6/bus2.png","name":"Bus","type":"BUS"}},"num_stops":7},"travel_mode":"TRANSIT"},{"distance":{"text":"0,3 km","value":286},"duration":{"text":"4 minutes","value":215},"end_location":{"lat":48.8377748,"lng":2.3548511},"html_instructions":"Marcher jusqu'à 73 Boulevard Saint-Marcel, 75005 Paris, France","polyline":{"points":"mjaiHsjjMI_@c@X[Ra@uAOUQw@S_AEWGWGYS}@WmAQ}@]{A"},"start_location":{"lat":48.836391,"lng":2.351936},"steps":[{"distance":{"text":"40 m","value":40},"duration":{"text":"1 minute","value":27},"end_location":{"lat":48.8367623,"lng":2.3518696},"html_instructions":"Prendre la direction <b>nord-ouest</b> sur <b>Avenue des Gobelins</b> vers <b>Boulevard Arago</b>","polyline":{"points":"mjaiHsjjMI_@c@X[R"},"start_location":{"lat":48.836391,"lng":2.351936},"travel_mode":"WALKING"},{"distance":{"text":"0,2 km","value":246},"duration":{"text":"3 minutes","value":188},"end_location":{"lat":48.8377748,"lng":2.3548511},"html_instructions":"Prendre <b>à droite</b> sur <b>Boulevard Saint-Marcel</b><div style=\"font-size:0.9em\">Votre destination se trouvera sur la droite.</div>","maneuver":"turn-right","polyline":{"points":"wlaiHejjMa@uAOUQw@S_AEWGWGYS}@WmAQ}@]{A"},"start_location":{"lat":48.8367623,"lng":2.3518696},"travel_mode":"WALKING"}],"travel_mode":"WALKING"}],"traffic_speed_entry":[],"via_waypoint":[]}],"overview_polyline":{"points":"swgiHmq{LzJ`GhO|InAn@VFRDEs@JAn@u^hDun@M_NwCkPkDmV]}b@nOsMMeRgAa`@_@_SpFeb@xM{LxHmHvG{HzHyXtE}YvG}c@dEaXeGd@xOzGrTxF~[uMjIwR~GmVvLiJI_@_Al@a@uAOUe@wBMo@eAcF]{A"},"summary":"","warnings":["Le calcul d'itinéraires piétons est en bêta. Faites attention – Cet itinéraire n'est peut-être pas complètement aménagé pour les piétons."],"waypoint_order":[]},{"bounds":{"northeast":{"lat":48.8692208,"lng":2.3548511},"southwest":{"lat":48.836391,"lng":2.2728779}},"copyrights":"Données cartographiques ©2016 Google","legs":[{"arrival_time":{"text":"11:03","time_zone":"Europe/Paris","value":1472720616},"departure_time":{"text":"10:15","time_zone":"Europe/Paris","value":1472717730},"distance":{"text":"8,7 km","value":8732},"duration":{"text":"48 minutes","value":2886},"end_address":"73 Boulevard Saint-Marcel, 75005 Paris, France","end_location":{"lat":48.8377748,"lng":2.3548511},"start_address":"40-44 Rue de la Faisanderie, 75116 Paris, France","start_location":{"lat":48.8692208,"lng":2.2762306},"steps":[{"distance":{"text":"0,6 km","value":640},"duration":{"text":"8 minutes","value":509},"end_location":{"lat":48.864065,"lng":2.273154},"html_instructions":"Marcher jusqu'à Victor Hugo - Henri Martin","polyline":{"points":"swgiHmq{LbAl@rC`B|A~@dAp@NFpBpAnBfAvGzDl@Z`@RJ@JDRDEs@JA"},"start_location":{"lat":48.8692208,"lng":2.2762306},"steps":[{"distance":{"text":"0,6 km","value":576},"duration":{"text":"7 minutes","value":441},"end_location":{"lat":48.8644784,"lng":2.2730473},"html_instructions":"Prendre la direction <b>sud-ouest</b> sur <b>Rue de la Faisanderie</b> vers <b>Rue du Général Appert</b>","polyline":{"points":"swgiHmq{LbAl@rC`B|A~@dAp@NFpBpAnBfAvGzDl@Z"},"start_location":{"lat":48.8692208,"lng":2.2762306},"travel_mode":"WALKING"},{"distance":{"text":"45 m","value":45},"duration":{"text":"1 minute","value":49},"end_location":{"lat":48.8640865,"lng":2.2728779},"html_instructions":"Continuer sur <b>Avenue Henri Martin</b>/<b>Avenue Victor Hugo</b>","polyline":{"points":"_zfiHq}zL`@RJ@JDRD"},"start_location":{"lat":48.8644784,"lng":2.2730473},"travel_mode":"WALKING"},{"distance":{"text":"19 m","value":19},"duration":{"text":"1 minute","value":19},"end_location":{"lat":48.864065,"lng":2.273154},"html_instructions":"Prendre <b>à gauche</b> sur <b>Avenue Henri Martin</b><div style=\"font-size:0.9em\">Votre destination se trouvera sur la droite.</div>","maneuver":"turn-left","polyline":{"points":"qwfiHo|zLEs@JA"},"start_location":{"lat":48.8640865,"lng":2.2728779},"travel_mode":"WALKING"}],"travel_mode":"WALKING"},{"distance":{"text":"6,0 km","value":6014},"duration":{"text":"25 minutes","value":1500},"end_location":{"lat":48.850601,"lng":2.346003},"html_instructions":"Bus vers Gare de Lyon","polyline":{"points":"kwfiHe~zLn@u^zAyXlA{TM_NwCkPkDmV]}b@nOsMMeRgAa`@_@_SpFeb@xM{LxHmHvG{HzHyXtE}YhDmUlBoMdEaXpBeM"},"start_location":{"lat":48.864065,"lng":2.273154},"transit_details":{"arrival_stop":{"location":{"lat":48.850601,"lng":2.346003},"name":"Dante"},"arrival_time":{"text":"10:49","time_zone":"Europe/Paris","value":1472719740},"departure_stop":{"location":{"lat":48.864065,"lng":2.273154},"name":"Victor Hugo - Henri Martin"},"departure_time":{"text":"10:24","time_zone":"Europe/Paris","value":1472718240},"headsign":"Gare de Lyon","line":{"agencies":[{"name":"STIF","url":"http://www.vianavigo.com/"}],"color":"#d2d200","short_name":"63","text_color":"#000000","vehicle":{"icon":"//maps.gstatic.com/mapfiles/transit/iw2/6/bus2.png","name":"Bus","type":"BUS"}},"num_stops":21},"travel_mode":"TRANSIT"},{"distance":{"text":"1,8 km","value":1792},"duration":{"text":"7 minutes","value":420},"end_location":{"lat":48.836391,"lng":2.351936},"html_instructions":"Bus vers Fort du Kremlin Bicêtre","polyline":{"points":"gcdiHoeiMlFoS~RyMtOyA`O`AxKtExNwF"},"start_location":{"lat":48.850601,"lng":2.346003},"transit_details":{"arrival_stop":{"location":{"lat":48.836391,"lng":2.351936},"name":"Les Gobelins"},"arrival_time":{"text":"11:00","time_zone":"Europe/Paris","value":1472720400},"departure_stop":{"location":{"lat":48.850601,"lng":2.346003},"name":"Dante"},"departure_time":{"text":"10:53","time_zone":"Europe/Paris","value":1472719980},"headsign":"Fort du Kremlin Bicêtre","line":{"agencies":[{"name":"STIF","url":"http://www.vianavigo.com/"}],"color":"#ff80ab","short_name":"47","text_color":"#000000","vehicle":{"icon":"//maps.gstatic.com/mapfiles/transit/iw2/6/bus2.png","name":"Bus","type":"BUS"}},"num_stops":6},"travel_mode":"TRANSIT"},{"distance":{"text":"0,3 km","value":286},"duration":{"text":"4 minutes","value":215},"end_location":{"lat":48.8377748,"lng":2.3548511},"html_instructions":"Marcher jusqu'à 73 Boulevard Saint-Marcel, 75005 Paris, France","polyline":{"points":"mjaiHsjjMI_@c@X[Ra@uAOUQw@S_AEWGWGYS}@WmAQ}@]{A"},"start_location":{"lat":48.836391,"lng":2.351936},"steps":[{"distance":{"text":"40 m","value":40},"duration":{"text":"1 minute","value":27},"end_location":{"lat":48.8367623,"lng":2.3518696},"html_instructions":"Prendre la direction <b>nord-ouest</b> sur <b>Avenue des Gobelins</b> vers <b>Boulevard Arago</b>","polyline":{"points":"mjaiHsjjMI_@c@X[R"},"start_location":{"lat":48.836391,"lng":2.351936},"travel_mode":"WALKING"},{"distance":{"text":"0,2 km","value":246},"duration":{"text":"3 minutes","value":188},"end_location":{"lat":48.8377748,"lng":2.3548511},"html_instructions":"Prendre <b>à droite</b> sur <b>Boulevard Saint-Marcel</b><div style=\"font-size:0.9em\">Votre destination se trouvera sur la droite.</div>","maneuver":"turn-right","polyline":{"points":"wlaiHejjMa@uAOUQw@S_AEWGWGYS}@WmAQ}@]{A"},"start_location":{"lat":48.8367623,"lng":2.3518696},"travel_mode":"WALKING"}],"travel_mode":"WALKING"}],"traffic_speed_entry":[],"via_waypoint":[]}],"overview_polyline":{"points":"swgiHmq{LzJ`GhO|InAn@VFRDEs@JAn@u^hDun@M_NwCkPkDmV]}b@nOsMMeRgAa`@_@_SpFeb@xM{LxHmHvG{HzHyXtE}YvG}c@vHgf@lFoS~RyMtOyA`O`AxKtExNwFI_@c@X[Ra@uAOUQw@YwAOq@{AeH"},"summary":"","warnings":["Le calcul d'itinéraires piétons est en bêta. Faites attention – Cet itinéraire n'est peut-être pas complètement aménagé pour les piétons."],"waypoint_order":[]},{"bounds":{"northeast":{"lat":48.874873,"lng":2.3548511},"southwest":{"lat":48.834882,"lng":2.275514}},"copyrights":"Données cartographiques ©2016 Google","legs":[{"arrival_time":{"text":"11:05","time_zone":"Europe/Paris","value":1472720753},"departure_time":{"text":"10:09","time_zone":"Europe/Paris","value":1472717381},"distance":{"text":"9,2 km","value":9153},"duration":{"text":"56 minutes","value":3372},"end_address":"73 Boulevard Saint-Marcel, 75005 Paris, France","end_location":{"lat":48.8377748,"lng":2.3548511},"start_address":"40-44 Rue de la Faisanderie, 75116 Paris, France","start_location":{"lat":48.8692208,"lng":2.2762306},"steps":[{"distance":{"text":"0,6 km","value":637},"duration":{"text":"8 minutes","value":498},"end_location":{"lat":48.86797,"lng":2.281582},"html_instructions":"Marcher jusqu'à Place Jean Monnet","polyline":{"points":"swgiHmq{LbAl@rC`Bx@iDj@aCx@gDhA}EK]u@}BsAaE[kAOc@So@LM"},"start_location":{"lat":48.8692208,"lng":2.2762306},"steps":[{"distance":{"text":"0,1 km","value":131},"duration":{"text":"2 minutes","value":97},"end_location":{"lat":48.8681435,"lng":2.275514},"html_instructions":"Prendre la direction <b>sud-ouest</b> sur <b>Rue de la Faisanderie</b> vers <b>Rue du Général Appert</b>","polyline":{"points":"swgiHmq{LbAl@rC`B"},"start_location":{"lat":48.8692208,"lng":2.2762306},"travel_mode":"WALKING"},{"distance":{"text":"0,3 km","value":284},"duration":{"text":"4 minutes","value":228},"end_location":{"lat":48.8669656,"lng":2.2789572},"html_instructions":"Prendre <b>à gauche</b> sur <b>Rue de Longchamp</b>","maneuver":"turn-left","polyline":{"points":"{pgiH}l{Lx@iDj@aCx@gDhA}E"},"start_location":{"lat":48.8681435,"lng":2.275514},"travel_mode":"WALKING"},{"distance":{"text":"0,2 km","value":222},"duration":{"text":"3 minutes","value":173},"end_location":{"lat":48.86797,"lng":2.281582},"html_instructions":"Prendre <b>à gauche</b> sur <b>Avenue Victor Hugo</b><div style=\"font-size:0.9em\">Votre destination se trouvera sur la droite.</div>","maneuver":"turn-left","polyline":{"points":"qigiHob|LK]u@}BsAaE[kAOc@So@LM"},"start_location":{"lat":48.8669656,"lng":2.2789572},"travel_mode":"WALKING"}],"travel_mode":"WALKING"},{"distance":{"text":"2,1 km","value":2131},"duration":{"text":"9 minutes","value":540},"end_location":{"lat":48.874873,"lng":2.308102},"html_instructions":"Bus vers Opera Rue de la Paix","polyline":{"points":"yogiH{r|LqJaZaGyRiL{]oB{N}B}a@iA{TMiN"},"start_location":{"lat":48.86797,"lng":2.281582},"transit_details":{"arrival_stop":{"location":{"lat":48.874873,"lng":2.308102},"name":"Haussmann - Courcelles"},"arrival_time":{"text":"10:27","time_zone":"Europe/Paris","value":1472718420},"departure_stop":{"location":{"lat":48.86797,"lng":2.281582},"name":"Place Jean Monnet"},"departure_time":{"text":"10:18","time_zone":"Europe/Paris","value":1472717880},"headsign":"Opera Rue de la Paix","line":{"agencies":[{"name":"STIF","url":"http://www.vianavigo.com/"}],"color":"#80deea","short_name":"52","text_color":"#000000","vehicle":{"icon":"//maps.gstatic.com/mapfiles/transit/iw2/6/bus2.png","name":"Bus","type":"BUS"}},"num_stops":7},"travel_mode":"TRANSIT"},{"distance":{"text":"6,1 km","value":6085},"duration":{"text":"26 minutes","value":1560},"end_location":{"lat":48.83649,"lng":2.351228},"html_instructions":"Bus vers Porte d'Ivry","polyline":{"points":"}zhiHsxaM|HaJzQA`N}S~NaAxNmDpFeb@xM{LxHmH`F_GjOuDfJiBvPmKhKiHfLyKtQcQnHoHjFcCvDyUnFg[fN[qBgOoE_S"},"start_location":{"lat":48.874873,"lng":2.308102},"transit_details":{"arrival_stop":{"location":{"lat":48.83649,"lng":2.351228},"name":"Les Gobelins"},"arrival_time":{"text":"11:02","time_zone":"Europe/Paris","value":1472720520},"departure_stop":{"location":{"lat":48.874873,"lng":2.308102},"name":"Haussmann - Courcelles"},"departure_time":{"text":"10:36","time_zone":"Europe/Paris","value":1472718960},"headsign":"Porte d'Ivry","line":{"agencies":[{"name":"STIF","url":"http://www.vianavigo.com/"}],"color":"#ffb300","short_name":"83","text_color":"#000000","vehicle":{"icon":"//maps.gstatic.com/mapfiles/transit/iw2/6/bus2.png","name":"Bus","type":"BUS"}},"num_stops":22},"travel_mode":"TRANSIT"},{"distance":{"text":"0,3 km","value":300},"duration":{"text":"4 minutes","value":233},"end_location":{"lat":48.8377748,"lng":2.3548511},"html_instructions":"Marcher jusqu'à 73 Boulevard Saint-Marcel, 75005 Paris, France","polyline":{"points":"akaiHefjMIBk@cCa@uAOUQw@S_AEWGWGYS}@WmAQ}@]{A"},"start_location":{"lat":48.83649,"lng":2.351228},"steps":[{"distance":{"text":"54 m","value":54},"duration":{"text":"1 minute","value":40},"end_location":{"lat":48.8367623,"lng":2.3518696},"html_instructions":"Prendre la direction <b>nord-est</b> sur <b>Boulevard Arago</b> vers <b>Avenue des Gobelins</b>","polyline":{"points":"akaiHefjMIBk@cC"},"start_location":{"lat":48.83649,"lng":2.351228},"travel_mode":"WALKING"},{"distance":{"text":"0,2 km","value":246},"duration":{"text":"3 minutes","value":193},"end_location":{"lat":48.8377748,"lng":2.3548511},"html_instructions":"Continuer sur <b>Boulevard Saint-Marcel</b><div style=\"font-size:0.9em\">Votre destination se trouvera sur la droite.</div>","polyline":{"points":"wlaiHejjMa@uAOUQw@S_AEWGWGYS}@WmAQ}@]{A"},"start_location":{"lat":48.8367623,"lng":2.3518696},"travel_mode":"WALKING"}],"travel_mode":"WALKING"}],"traffic_speed_entry":[],"via_waypoint":[]}],"overview_polyline":{"points":"swgiHmq{LvEnCdBkHbCeKaA{CsCaJLMqJaZaGyRiL{]oB{N}B}a@iA{TMiN|HaJzQA`N}S~NaAxNmDpFeb@rWiV`F_GjOuDfJiBvPmKhKiHfLyKd[sZjFcCvDyUnFg[fN[qBgOoE_SIBk@cCa@uAOUe@wBi@gCgAgF"},"summary":"","warnings":["Le calcul d'itinéraires piétons est en bêta. Faites attention – Cet itinéraire n'est peut-être pas complètement aménagé pour les piétons."],"waypoint_order":[]}],"status":"OK"}},null,{"origin":{"lat":2.2630364750526333,"lng":48.81045356559413},"taff":{"geocoded_waypoints":[{"geocoder_status":"OK","place_id":"Eik0MS00MyBSdWUgUGVydGh1aXMsIDkyMTQwIENsYW1hcnQsIEZyYW5jZQ","types":["route","street_address"]},{"geocoder_status":"OK","place_id":"ChIJc5sm28pv5kcR0cpsawDOfSg","types":["street_address"]}],"routes":[{"bounds":{"northeast":{"lat":48.876691,"lng":2.323997},"southwest":{"lat":48.8102014,"lng":2.2630691}},"copyrights":"Données cartographiques ©2016 Google","legs":[{"arrival_time":{"text":"11:04","time_zone":"Europe/Paris","value":1472720658},"departure_time":{"text":"10:06","time_zone":"Europe/Paris","value":1472717193},"distance":{"text":"11,6 km","value":11601},"duration":{"text":"58 minutes","value":3465},"end_address":"73 Rue d'Anjou, 75008 Paris, France","end_location":{"lat":48.8748221,"lng":2.3228933},"start_address":"41-43 Rue Perthuis, 92140 Clamart, France","start_location":{"lat":48.8105013,"lng":2.2630691},"steps":[{"distance":{"text":"1,1 km","value":1070},"duration":{"text":"12 minutes","value":747},"end_location":{"lat":48.814239,"lng":2.27449},"html_instructions":"Marcher jusqu'à Gare de Clamart","polyline":{"points":"sh|hHe_yLP{@h@oC}@cAiBgBuBmBk@k@w@o@iFuEMGWEGCMCME_@MUQQK?SAq@QgFGqBEcBCm@WuHI_D?}@MgCGiAEi@x@iA"},"start_location":{"lat":48.8105013,"lng":2.2630691},"steps":[{"distance":{"text":"82 m","value":82},"duration":{"text":"1 minute","value":57},"end_location":{"lat":48.8102014,"lng":2.2640903},"html_instructions":"Prendre la direction <b>sud-est</b> sur <b>Rue Perthuis</b> vers <b>Villa Perthuis</b>","polyline":{"points":"sh|hHe_yLP{@h@oC"},"start_location":{"lat":48.8105013,"lng":2.2630691},"travel_mode":"WALKING"},{"distance":{"text":"0,1 km","value":112},"duration":{"text":"1 minute","value":74},"end_location":{"lat":48.8110352,"lng":2.2649466},"html_instructions":"Prendre <b>à gauche</b> sur <b>Rue Emmanuel Sarty</b>","maneuver":"turn-left","polyline":{"points":"wf|hHqeyL}@cAiBgB"},"start_location":{"lat":48.8102014,"lng":2.2640903},"travel_mode":"WALKING"},{"distance":{"text":"0,4 km","value":380},"duration":{"text":"5 minutes","value":282},"end_location":{"lat":48.8140258,"lng":2.267389},"html_instructions":"Continuer sur <b>Rue Brissard</b>","polyline":{"points":"_l|hH}jyLuBmBk@k@w@o@iFuEMGWEGCMCME_@MUQQK"},"start_location":{"lat":48.8110352,"lng":2.2649466},"travel_mode":"WALKING"},{"distance":{"text":"0,4 km","value":380},"duration":{"text":"4 minutes","value":259},"end_location":{"lat":48.8143911,"lng":2.2725515},"html_instructions":"Prendre <b>à droite</b> sur <b>Rue du Chemin Vert</b>","maneuver":"turn-right","polyline":{"points":"u~|hHezyL?SAq@QgFGqBEcBCm@WuHI_D"},"start_location":{"lat":48.8140258,"lng":2.267389},"travel_mode":"WALKING"},{"distance":{"text":"0,1 km","value":116},"duration":{"text":"1 minute","value":75},"end_location":{"lat":48.814239,"lng":2.27449},"html_instructions":"Continuer sur <b>Rue du Clos Montholon</b><div style=\"font-size:0.9em\">Votre destination se trouvera sur la droite.</div>","polyline":{"points":"}`}hHmzzL?}@MgCGiAEi@x@iA"},"start_location":{"lat":48.8143911,"lng":2.2725515},"travel_mode":"WALKING"}],"travel_mode":"WALKING"},{"distance":{"text":"4,7 km","value":4674},"duration":{"text":"7 minutes","value":420},"end_location":{"lat":48.84118700000001,"lng":2.320509},"html_instructions":"Train vers Gare Montparnasse","polyline":{"points":"_`}hHqf{LSqFa@mKSsFIyBKyBGiAIeAKgAIaA[uCQiBS{AOqA_@eCe@kC{@kEa@qBg@{Bk@_Cg@mBq@}B}@sCm@gBuA}De@kAi@kAs@aBqAiCqBsDwAcCiAaB_BwBkAuAyAiBuBkCuAgBcFwGiFgHkLgO_H{IsDyEyC{DqHiKyBqCcAsAeAsAuBoCmEeGwEqGq@}@k@w@eAoAoEeFkAqAyEcGoK_N"},"start_location":{"lat":48.814239,"lng":2.27449},"transit_details":{"arrival_stop":{"location":{"lat":48.84118700000001,"lng":2.320509},"name":"Gare Montparnasse"},"arrival_time":{"text":"10:26","time_zone":"Europe/Paris","value":1472718360},"departure_stop":{"location":{"lat":48.814239,"lng":2.27449},"name":"Gare de Clamart"},"departure_time":{"text":"10:19","time_zone":"Europe/Paris","value":1472717940},"headsign":"Gare Montparnasse","line":{"agencies":[{"name":"STIF","url":"http://www.vianavigo.com/"}],"color":"#009688","short_name":"N","text_color":"#ffffff","vehicle":{"icon":"//maps.gstatic.com/mapfiles/transit/iw2/6/rail2.png","name":"Train","type":"HEAVY_RAIL"}},"num_stops":2},"travel_mode":"TRANSIT"},{"distance":{"text":"88 m","value":88},"duration":{"text":"1 minute","value":88},"end_location":{"lat":48.84107299999999,"lng":2.32171},"html_instructions":"Marcher jusqu'à Gare Montparnasse","polyline":{"points":"mhbiHefdMVoF"},"start_location":{"lat":48.84118700000001,"lng":2.320509},"steps":[{"distance":{"text":"88 m","value":88},"duration":{"text":"1 minute","value":88},"end_location":{"lat":48.84107299999999,"lng":2.32171},"polyline":{"points":"mhbiHefdMVoF"},"start_location":{"lat":48.84118700000001,"lng":2.320509},"travel_mode":"WALKING"}],"travel_mode":"WALKING"},{"distance":{"text":"5,5 km","value":5539},"duration":{"text":"27 minutes","value":1620},"end_location":{"lat":48.876691,"lng":2.321986},"html_instructions":"Bus vers Gare Saint-Lazare","polyline":{"points":"ugbiHumdMqJiMgHnG{HzX{BpQcClSwVbDk@f[{ImHqHnMgMkTqHgCsW_AoQPgRTaFeEwUkTqGd@oAkViJcV"},"start_location":{"lat":48.84107299999999,"lng":2.32171},"transit_details":{"arrival_stop":{"location":{"lat":48.876691,"lng":2.321986},"name":"Gare Saint-Lazare"},"arrival_time":{"text":"11:02","time_zone":"Europe/Paris","value":1472720520},"departure_stop":{"location":{"lat":48.84107299999999,"lng":2.32171},"name":"Gare Montparnasse"},"departure_time":{"text":"10:35","time_zone":"Europe/Paris","value":1472718900},"headsign":"Gare Saint-Lazare","line":{"agencies":[{"name":"STIF","url":"http://www.vianavigo.com/"}],"color":"#ff80ab","short_name":"28","text_color":"#000000","vehicle":{"icon":"//maps.gstatic.com/mapfiles/transit/iw2/6/bus2.png","name":"Bus","type":"BUS"}},"num_stops":19},"travel_mode":"TRANSIT"},{"distance":{"text":"0,2 km","value":230},"duration":{"text":"3 minutes","value":159},"end_location":{"lat":48.8748221,"lng":2.3228933},"html_instructions":"Marcher jusqu'à 73 Rue d'Anjou, 75008 Paris, France","polyline":{"points":"ifiiHmodMDJjBgC\\g@@CBAZQbCARAf@HB@"},"start_location":{"lat":48.876691,"lng":2.321986},"steps":[{"distance":{"text":"0,1 km","value":122},"duration":{"text":"1 minute","value":75},"end_location":{"lat":48.8757961,"lng":2.3229334},"html_instructions":"Prendre la direction <b>sud-est</b> sur <b>Rue du Rocher</b> vers <b>Rue de Laborde</b>","polyline":{"points":"ifiiHmodMDJjBgC\\g@@CBAZQ"},"start_location":{"lat":48.876691,"lng":2.321986},"travel_mode":"WALKING"},{"distance":{"text":"73 m","value":73},"duration":{"text":"1 minute","value":47},"end_location":{"lat":48.8751359,"lng":2.3229397},"html_instructions":"Prendre légèrement <b>à droite</b> sur <b>Rue Joseph Sansboeuf</b>","maneuver":"turn-slight-right","polyline":{"points":"w`iiHiudMbCA"},"start_location":{"lat":48.8757961,"lng":2.3229334},"travel_mode":"WALKING"},{"distance":{"text":"35 m","value":35},"duration":{"text":"1 minute","value":37},"end_location":{"lat":48.8748221,"lng":2.3228933},"html_instructions":"Continuer sur <b>Rue d'Anjou</b><div style=\"font-size:0.9em\">Votre destination se trouvera sur la droite.</div>","polyline":{"points":"s|hiHkudMRAf@HB@"},"start_location":{"lat":48.8751359,"lng":2.3229397},"travel_mode":"WALKING"}],"travel_mode":"WALKING"}],"traffic_speed_entry":[],"via_waypoint":[]}],"overview_polyline":{"points":"sh|hHe_yLz@kEgDkDaDyCaHeG{@Um@Sg@]AeAYyIk@gR?}@MgCMsBx@iAu@_Sq@qPUmCe@wEe@eEo@wEaBwIiAmFsAmFoBqGcCeHoAwCs@aBcE}HwAcCiAaB_BwBkAuAoEuFyH_KiFgHkLgOsMuPyC{DqHiK}DeF{DcFcOmSuGuHkAqAyEcGoK_NVoFqJiMgHnG{HzX_G~e@wVbDk@f[{ImHqHnMgMkTqHgCsW_AoQPgRTaFeEwUkTqGd@oAkViJcVDJjBgC^k@^SvCCj@J"},"summary":"","warnings":["Le calcul d'itinéraires piétons est en bêta. Faites attention – Cet itinéraire n'est peut-être pas complètement aménagé pour les piétons."],"waypoint_order":[]},{"bounds":{"northeast":{"lat":48.87711299999999,"lng":2.335189},"southwest":{"lat":48.8102014,"lng":2.2630691}},"copyrights":"Données cartographiques ©2016 Google","legs":[{"arrival_time":{"text":"11:04","time_zone":"Europe/Paris","value":1472720690},"departure_time":{"text":"10:06","time_zone":"Europe/Paris","value":1472717193},"distance":{"text":"10,7 km","value":10747},"duration":{"text":"58 minutes","value":3497},"end_address":"73 Rue d'Anjou, 75008 Paris, France","end_location":{"lat":48.8748221,"lng":2.3228933},"start_address":"41-43 Rue Perthuis, 92140 Clamart, France","start_location":{"lat":48.8105013,"lng":2.2630691},"steps":[{"distance":{"text":"1,1 km","value":1070},"duration":{"text":"12 minutes","value":747},"end_location":{"lat":48.814239,"lng":2.27449},"html_instructions":"Marcher jusqu'à Gare de Clamart","polyline":{"points":"sh|hHe_yLP{@h@oC}@cAiBgBuBmBk@k@w@o@iFuEMGWEGCMCME_@MUQQK?SAq@QgFGqBEcBCm@WuHI_D?}@MgCGiAEi@x@iA"},"start_location":{"lat":48.8105013,"lng":2.2630691},"steps":[{"distance":{"text":"82 m","value":82},"duration":{"text":"1 minute","value":57},"end_location":{"lat":48.8102014,"lng":2.2640903},"html_instructions":"Prendre la direction <b>sud-est</b> sur <b>Rue Perthuis</b> vers <b>Villa Perthuis</b>","polyline":{"points":"sh|hHe_yLP{@h@oC"},"start_location":{"lat":48.8105013,"lng":2.2630691},"travel_mode":"WALKING"},{"distance":{"text":"0,1 km","value":112},"duration":{"text":"1 minute","value":74},"end_location":{"lat":48.8110352,"lng":2.2649466},"html_instructions":"Prendre <b>à gauche</b> sur <b>Rue Emmanuel Sarty</b>","maneuver":"turn-left","polyline":{"points":"wf|hHqeyL}@cAiBgB"},"start_location":{"lat":48.8102014,"lng":2.2640903},"travel_mode":"WALKING"},{"distance":{"text":"0,4 km","value":380},"duration":{"text":"5 minutes","value":282},"end_location":{"lat":48.8140258,"lng":2.267389},"html_instructions":"Continuer sur <b>Rue Brissard</b>","polyline":{"points":"_l|hH}jyLuBmBk@k@w@o@iFuEMGWEGCMCME_@MUQQK"},"start_location":{"lat":48.8110352,"lng":2.2649466},"travel_mode":"WALKING"},{"distance":{"text":"0,4 km","value":380},"duration":{"text":"4 minutes","value":259},"end_location":{"lat":48.8143911,"lng":2.2725515},"html_instructions":"Prendre <b>à droite</b> sur <b>Rue du Chemin Vert</b>","maneuver":"turn-right","polyline":{"points":"u~|hHezyL?SAq@QgFGqBEcBCm@WuHI_D"},"start_location":{"lat":48.8140258,"lng":2.267389},"travel_mode":"WALKING"},{"distance":{"text":"0,1 km","value":116},"duration":{"text":"1 minute","value":75},"end_location":{"lat":48.814239,"lng":2.27449},"html_instructions":"Continuer sur <b>Rue du Clos Montholon</b><div style=\"font-size:0.9em\">Votre destination se trouvera sur la droite.</div>","polyline":{"points":"}`}hHmzzL?}@MgCGiAEi@x@iA"},"start_location":{"lat":48.8143911,"lng":2.2725515},"travel_mode":"WALKING"}],"travel_mode":"WALKING"},{"distance":{"text":"4,7 km","value":4674},"duration":{"text":"7 minutes","value":420},"end_location":{"lat":48.84118700000001,"lng":2.320509},"html_instructions":"Train vers Gare Montparnasse","polyline":{"points":"_`}hHqf{LSqFa@mKSsFIyBKyBGiAIeAKgAIaA[uCQiBS{AOqA_@eCe@kC{@kEa@qBg@{Bk@_Cg@mBq@}B}@sCm@gBuA}De@kAi@kAs@aBqAiCqBsDwAcCiAaB_BwBkAuAyAiBuBkCuAgBcFwGiFgHkLgO_H{IsDyEyC{DqHiKyBqCcAsAeAsAuBoCmEeGwEqGq@}@k@w@eAoAoEeFkAqAyEcGoK_N"},"start_location":{"lat":48.814239,"lng":2.27449},"transit_details":{"arrival_stop":{"location":{"lat":48.84118700000001,"lng":2.320509},"name":"Gare Montparnasse"},"arrival_time":{"text":"10:26","time_zone":"Europe/Paris","value":1472718360},"departure_stop":{"location":{"lat":48.814239,"lng":2.27449},"name":"Gare de Clamart"},"departure_time":{"text":"10:19","time_zone":"Europe/Paris","value":1472717940},"headsign":"Gare Montparnasse","line":{"agencies":[{"name":"STIF","url":"http://www.vianavigo.com/"}],"color":"#009688","short_name":"N","text_color":"#ffffff","vehicle":{"icon":"//maps.gstatic.com/mapfiles/transit/iw2/6/rail2.png","name":"Train","type":"HEAVY_RAIL"}},"num_stops":2},"travel_mode":"TRANSIT"},{"distance":{"text":"80 m","value":80},"duration":{"text":"1 minute","value":80},"end_location":{"lat":48.841855,"lng":2.320089},"html_instructions":"Marcher jusqu'à Gare Montparnasse","polyline":{"points":"mhbiHefdMeCrA"},"start_location":{"lat":48.84118700000001,"lng":2.320509},"steps":[{"distance":{"text":"80 m","value":80},"duration":{"text":"1 minute","value":80},"end_location":{"lat":48.841855,"lng":2.320089},"polyline":{"points":"mhbiHefdMeCrA"},"start_location":{"lat":48.84118700000001,"lng":2.320509},"travel_mode":"WALKING"}],"travel_mode":"WALKING"},{"distance":{"text":"4,6 km","value":4603},"duration":{"text":"29 minutes","value":1740},"end_location":{"lat":48.87711299999999,"lng":2.323253},"html_instructions":"Bus vers Porte de Montmartre","polyline":{"points":"slbiHqcdMgIiVqEuDoJaJeP}NqLmKcRqO_JaDkLxCaOu@oTmFgKbDcKdD_IhC{Eh@gGdOgGtMmUxZ"},"start_location":{"lat":48.841855,"lng":2.320089},"transit_details":{"arrival_stop":{"location":{"lat":48.87711299999999,"lng":2.323253},"name":"Gare Saint-Lazare"},"arrival_time":{"text":"11:01","time_zone":"Europe/Paris","value":1472720460},"departure_stop":{"location":{"lat":48.841855,"lng":2.320089},"name":"Gare Montparnasse"},"departure_time":{"text":"10:32","time_zone":"Europe/Paris","value":1472718720},"headsign":"Porte de Montmartre","line":{"agencies":[{"name":"STIF","url":"http://www.vianavigo.com/"}],"color":"#5a230a","short_name":"95","text_color":"#ffffff","vehicle":{"icon":"//maps.gstatic.com/mapfiles/transit/iw2/6/bus2.png","name":"Bus","type":"BUS"}},"num_stops":17},"travel_mode":"TRANSIT"},{"distance":{"text":"0,3 km","value":320},"duration":{"text":"4 minutes","value":230},"end_location":{"lat":48.8748221,"lng":2.3228933},"html_instructions":"Marcher jusqu'à 73 Rue d'Anjou, 75008 Paris, France","polyline":{"points":"}hiiHiwdMBV~@[pB}@ZO|@a@ZQb@H\\DPFHjDRAf@HB@"},"start_location":{"lat":48.87711299999999,"lng":2.323253},"steps":[{"distance":{"text":"0,2 km","value":222},"duration":{"text":"2 minutes","value":148},"end_location":{"lat":48.875186,"lng":2.3238002},"html_instructions":"Prendre la direction <b>sud</b> sur <b>Rue de Rome</b> vers <b>Cour de Rome</b>","polyline":{"points":"}hiiHiwdMBV~@[pB}@ZO|@a@ZQb@H\\DPF"},"start_location":{"lat":48.87711299999999,"lng":2.323253},"travel_mode":"WALKING"},{"distance":{"text":"63 m","value":63},"duration":{"text":"1 minute","value":50},"end_location":{"lat":48.8751359,"lng":2.3229397},"html_instructions":"Prendre <b>à droite</b> sur <b>Rue de la Pépinière</b>","maneuver":"turn-right","polyline":{"points":"}|hiHwzdMHjD"},"start_location":{"lat":48.875186,"lng":2.3238002},"travel_mode":"WALKING"},{"distance":{"text":"35 m","value":35},"duration":{"text":"1 minute","value":32},"end_location":{"lat":48.8748221,"lng":2.3228933},"html_instructions":"Prendre <b>à gauche</b> sur <b>Rue d'Anjou</b><div style=\"font-size:0.9em\">Votre destination se trouvera sur la droite.</div>","maneuver":"turn-left","polyline":{"points":"s|hiHkudMRAf@HB@"},"start_location":{"lat":48.8751359,"lng":2.3229397},"travel_mode":"WALKING"}],"travel_mode":"WALKING"}],"traffic_speed_entry":[],"via_waypoint":[]}],"overview_polyline":{"points":"sh|hHe_yLz@kEgDkDaDyCaHeG{@Um@Sg@]AeAYyIk@gR?}@MgCMsBx@iAu@_Sq@qPUmCe@wEe@eEo@wEaBwIiAmFsAmFoBqGcCeHoAwCs@aBcE}HwAcCiAaB_BwBkAuAoEuFyH_KiFgHkLgOsMuPyC{DqHiK}DeF{DcFcOmSuGuHkAqAyEcGoK_NeCrAgIiVqEuDoJaJw]k[cRqO_JaDkLxCaOu@oTmFgKbDcUnH{Eh@gGdOgGtMmUxZBV~@[lCmAxAs@`ANPFHjDRAf@HB@"},"summary":"","warnings":["Le calcul d'itinéraires piétons est en bêta. Faites attention – Cet itinéraire n'est peut-être pas complètement aménagé pour les piétons."],"waypoint_order":[]},{"bounds":{"northeast":{"lat":48.8748221,"lng":2.327809},"southwest":{"lat":48.8102014,"lng":2.2630691}},"copyrights":"Données cartographiques ©2016 Google","legs":[{"arrival_time":{"text":"11:08","time_zone":"Europe/Paris","value":1472720910},"departure_time":{"text":"10:06","time_zone":"Europe/Paris","value":1472717193},"distance":{"text":"10,1 km","value":10113},"duration":{"text":"1 heure 2 min","value":3717},"end_address":"73 Rue d'Anjou, 75008 Paris, France","end_location":{"lat":48.8748221,"lng":2.3228933},"start_address":"41-43 Rue Perthuis, 92140 Clamart, France","start_location":{"lat":48.8105013,"lng":2.2630691},"steps":[{"distance":{"text":"1,1 km","value":1070},"duration":{"text":"12 minutes","value":747},"end_location":{"lat":48.814239,"lng":2.27449},"html_instructions":"Marcher jusqu'à Gare de Clamart","polyline":{"points":"sh|hHe_yLP{@h@oC}@cAiBgBuBmBk@k@w@o@iFuEMGWEGCMCME_@MUQQK?SAq@QgFGqBEcBCm@WuHI_D?}@MgCGiAEi@x@iA"},"start_location":{"lat":48.8105013,"lng":2.2630691},"steps":[{"distance":{"text":"82 m","value":82},"duration":{"text":"1 minute","value":57},"end_location":{"lat":48.8102014,"lng":2.2640903},"html_instructions":"Prendre la direction <b>sud-est</b> sur <b>Rue Perthuis</b> vers <b>Villa Perthuis</b>","polyline":{"points":"sh|hHe_yLP{@h@oC"},"start_location":{"lat":48.8105013,"lng":2.2630691},"travel_mode":"WALKING"},{"distance":{"text":"0,1 km","value":112},"duration":{"text":"1 minute","value":74},"end_location":{"lat":48.8110352,"lng":2.2649466},"html_instructions":"Prendre <b>à gauche</b> sur <b>Rue Emmanuel Sarty</b>","maneuver":"turn-left","polyline":{"points":"wf|hHqeyL}@cAiBgB"},"start_location":{"lat":48.8102014,"lng":2.2640903},"travel_mode":"WALKING"},{"distance":{"text":"0,4 km","value":380},"duration":{"text":"5 minutes","value":282},"end_location":{"lat":48.8140258,"lng":2.267389},"html_instructions":"Continuer sur <b>Rue Brissard</b>","polyline":{"points":"_l|hH}jyLuBmBk@k@w@o@iFuEMGWEGCMCME_@MUQQK"},"start_location":{"lat":48.8110352,"lng":2.2649466},"travel_mode":"WALKING"},{"distance":{"text":"0,4 km","value":380},"duration":{"text":"4 minutes","value":259},"end_location":{"lat":48.8143911,"lng":2.2725515},"html_instructions":"Prendre <b>à droite</b> sur <b>Rue du Chemin Vert</b>","maneuver":"turn-right","polyline":{"points":"u~|hHezyL?SAq@QgFGqBEcBCm@WuHI_D"},"start_location":{"lat":48.8140258,"lng":2.267389},"travel_mode":"WALKING"},{"distance":{"text":"0,1 km","value":116},"duration":{"text":"1 minute","value":75},"end_location":{"lat":48.814239,"lng":2.27449},"html_instructions":"Continuer sur <b>Rue du Clos Montholon</b><div style=\"font-size:0.9em\">Votre destination se trouvera sur la droite.</div>","polyline":{"points":"}`}hHmzzL?}@MgCGiAEi@x@iA"},"start_location":{"lat":48.8143911,"lng":2.2725515},"travel_mode":"WALKING"}],"travel_mode":"WALKING"},{"distance":{"text":"4,7 km","value":4674},"duration":{"text":"7 minutes","value":420},"end_location":{"lat":48.84118700000001,"lng":2.320509},"html_instructions":"Train vers Gare Montparnasse","polyline":{"points":"_`}hHqf{LSqFa@mKSsFIyBKyBGiAIeAKgAIaA[uCQiBS{AOqA_@eCe@kC{@kEa@qBg@{Bk@_Cg@mBq@}B}@sCm@gBuA}De@kAi@kAs@aBqAiCqBsDwAcCiAaB_BwBkAuAyAiBuBkCuAgBcFwGiFgHkLgO_H{IsDyEyC{DqHiKyBqCcAsAeAsAuBoCmEeGwEqGq@}@k@w@eAoAoEeFkAqAyEcGoK_N"},"start_location":{"lat":48.814239,"lng":2.27449},"transit_details":{"arrival_stop":{"location":{"lat":48.84118700000001,"lng":2.320509},"name":"Gare Montparnasse"},"arrival_time":{"text":"10:26","time_zone":"Europe/Paris","value":1472718360},"departure_stop":{"location":{"lat":48.814239,"lng":2.27449},"name":"Gare de Clamart"},"departure_time":{"text":"10:19","time_zone":"Europe/Paris","value":1472717940},"headsign":"Gare Montparnasse","line":{"agencies":[{"name":"STIF","url":"http://www.vianavigo.com/"}],"color":"#009688","short_name":"N","text_color":"#ffffff","vehicle":{"icon":"//maps.gstatic.com/mapfiles/transit/iw2/6/rail2.png","name":"Train","type":"HEAVY_RAIL"}},"num_stops":2},"travel_mode":"TRANSIT"},{"distance":{"text":"89 m","value":89},"duration":{"text":"1 minute","value":89},"end_location":{"lat":48.84199,"lng":2.320593},"html_instructions":"Marcher jusqu'à Gare Montparnasse","polyline":{"points":"mhbiHefdM_DO"},"start_location":{"lat":48.84118700000001,"lng":2.320509},"steps":[{"distance":{"text":"89 m","value":89},"duration":{"text":"1 minute","value":89},"end_location":{"lat":48.84199,"lng":2.320593},"polyline":{"points":"mhbiHefdM_DO"},"start_location":{"lat":48.84118700000001,"lng":2.320509},"travel_mode":"WALKING"}],"travel_mode":"WALKING"},{"distance":{"text":"4,2 km","value":4165},"duration":{"text":"23 minutes","value":1380},"end_location":{"lat":48.87432700000001,"lng":2.323648},"html_instructions":"Bus vers Louison Bobet","polyline":{"points":"mmbiHufdM{IiPcDqGoJaJaMeGaGnAkKnB{IzAeO|BuK~L{LfLuFdFk_@aLcR}QkSqH}EhS"},"start_location":{"lat":48.84199,"lng":2.320593},"transit_details":{"arrival_stop":{"location":{"lat":48.87432700000001,"lng":2.323648},"name":"Pasquier - Anjou"},"arrival_time":{"text":"11:07","time_zone":"Europe/Paris","value":1472720820},"departure_stop":{"location":{"lat":48.84199,"lng":2.320593},"name":"Gare Montparnasse"},"departure_time":{"text":"10:44","time_zone":"Europe/Paris","value":1472719440},"headsign":"Louison Bobet","line":{"agencies":[{"name":"STIF","url":"http://www.vianavigo.com/"}],"color":"#a0006e","short_name":"94","text_color":"#ffffff","vehicle":{"icon":"//maps.gstatic.com/mapfiles/transit/iw2/6/bus2.png","name":"Bus","type":"BUS"}},"num_stops":15},"travel_mode":"TRANSIT"},{"distance":{"text":"0,1 km","value":115},"duration":{"text":"1 minute","value":89},"end_location":{"lat":48.8748221,"lng":2.3228933},"html_instructions":"Marcher jusqu'à 73 Rue d'Anjou, 75008 Paris, France","polyline":{"points":"qwhiHyydMJBWnDuA["},"start_location":{"lat":48.87432700000001,"lng":2.323648},"steps":[{"distance":{"text":"66 m","value":66},"duration":{"text":"1 minute","value":48},"end_location":{"lat":48.8743906,"lng":2.3227511},"html_instructions":"Prendre la direction <b>ouest</b> sur <b>Boulevard Haussmann</b> vers <b>Rue d'Anjou</b>","polyline":{"points":"qwhiHyydMJBWnD"},"start_location":{"lat":48.87432700000001,"lng":2.323648},"travel_mode":"WALKING"},{"distance":{"text":"49 m","value":49},"duration":{"text":"1 minute","value":41},"end_location":{"lat":48.8748221,"lng":2.3228933},"html_instructions":"Prendre <b>à droite</b> sur <b>Rue d'Anjou</b><div style=\"font-size:0.9em\">Votre destination se trouvera sur la gauche.</div>","maneuver":"turn-right","polyline":{"points":"}whiHetdMuA["},"start_location":{"lat":48.8743906,"lng":2.3227511},"travel_mode":"WALKING"}],"travel_mode":"WALKING"}],"traffic_speed_entry":[],"via_waypoint":[]}],"overview_polyline":{"points":"sh|hHe_yLz@kEgDkDaDyCaHeG{@Um@Sg@]AeAYyIk@gR?}@MgCMsBx@iAu@_Sq@qPUmCe@wEe@eEo@wEaBwIiAmFsAmFoBqGcCeHoAwCs@aBcE}HwAcCiAaB_BwBkAuAoEuFyH_KiFgHkLgOsMuPyC{DqHiK}DeF{DcFcOmSuGuHkAqAyEcGoK_N_DO{IiPcDqGoJaJaMeGaGnAgVjEeO|BuK~LqTlSk_@aLcR}QkSqH}EhSJBWnDuA["},"summary":"","warnings":["Le calcul d'itinéraires piétons est en bêta. Faites attention – Cet itinéraire n'est peut-être pas complètement aménagé pour les piétons."],"waypoint_order":[]},{"bounds":{"northeast":{"lat":48.8751359,"lng":2.3229451},"southwest":{"lat":48.8105013,"lng":2.257768}},"copyrights":"Données cartographiques ©2016 Google","legs":[{"arrival_time":{"text":"11:14","time_zone":"Europe/Paris","value":1472721265},"departure_time":{"text":"10:03","time_zone":"Europe/Paris","value":1472717004},"distance":{"text":"12,6 km","value":12585},"duration":{"text":"1 heure 11 min","value":4261},"end_address":"73 Rue d'Anjou, 75008 Paris, France","end_location":{"lat":48.8748221,"lng":2.3228933},"start_address":"41-43 Rue Perthuis, 92140 Clamart, France","start_location":{"lat":48.8105013,"lng":2.2630691},"steps":[{"distance":{"text":"0,5 km","value":465},"duration":{"text":"6 minutes","value":336},"end_location":{"lat":48.811488,"lng":2.258303},"html_instructions":"Marcher jusqu'à Fleury","polyline":{"points":"sh|hHe_yLa@pBUlA]bBOj@g@dAMTCFIHMJmA`A`BxHb@xBcAJAQ"},"start_location":{"lat":48.8105013,"lng":2.2630691},"steps":[{"distance":{"text":"0,2 km","value":249},"duration":{"text":"3 minutes","value":168},"end_location":{"lat":48.811808,"lng":2.2604509},"html_instructions":"Prendre la direction <b>nord-ouest</b> sur <b>Rue Perthuis</b> vers <b>Allée Condorcet</b>","polyline":{"points":"sh|hHe_yLa@pBUlA]bBOj@g@dAMTCFIHMJmA`A"},"start_location":{"lat":48.8105013,"lng":2.2630691},"travel_mode":"WALKING"},{"distance":{"text":"0,2 km","value":177},"duration":{"text":"2 minutes","value":139},"end_location":{"lat":48.8111358,"lng":2.2582671},"html_instructions":"Prendre <b>à gauche</b> sur <b>Rue de Fleury</b>","maneuver":"turn-left","polyline":{"points":"yp|hHynxL`BxHb@xB"},"start_location":{"lat":48.811808,"lng":2.2604509},"travel_mode":"WALKING"},{"distance":{"text":"39 m","value":39},"duration":{"text":"1 minute","value":29},"end_location":{"lat":48.811488,"lng":2.258303},"html_instructions":"Prendre <b>à droite</b> sur <b>Avenue Henri Barbusse</b>/<b>D2</b><div style=\"font-size:0.9em\">Votre destination se trouvera sur la droite.</div>","maneuver":"turn-right","polyline":{"points":"sl|hHeaxLcAJAQ"},"start_location":{"lat":48.8111358,"lng":2.2582671},"travel_mode":"WALKING"}],"travel_mode":"WALKING"},{"distance":{"text":"3,8 km","value":3815},"duration":{"text":"17 minutes","value":1020},"end_location":{"lat":48.828377,"lng":2.274994},"html_instructions":"Bus vers Hôpital Européen Georges Pompidou","polyline":{"points":"yn|hHkaxLiShBeMmS_MaWlKQjMf@rA{p@oM}K_O`AkTdDoH~DsRqBoDuI"},"start_location":{"lat":48.811488,"lng":2.258303},"transit_details":{"arrival_stop":{"location":{"lat":48.828377,"lng":2.274994},"name":"Maison de Retraite"},"arrival_time":{"text":"10:26","time_zone":"Europe/Paris","value":1472718360},"departure_stop":{"location":{"lat":48.811488,"lng":2.258303},"name":"Fleury"},"departure_time":{"text":"10:09","time_zone":"Europe/Paris","value":1472717340},"headsign":"Hôpital Européen Georges Pompidou","line":{"agencies":[{"name":"STIF","url":"http://www.vianavigo.com/"}],"color":"#81c784","short_name":"169","text_color":"#000000","vehicle":{"icon":"//maps.gstatic.com/mapfiles/transit/iw2/6/bus2.png","name":"Bus","type":"BUS"}},"num_stops":12},"travel_mode":"TRANSIT"},{"distance":{"text":"1,8 km","value":1790},"duration":{"text":"7 minutes","value":420},"end_location":{"lat":48.835584,"lng":2.293134},"html_instructions":"Bus vers Gare du Nord","polyline":{"points":"kx_iHui{LiMuTiFmKsPaXoE{LQuObHmIyFeL"},"start_location":{"lat":48.828377,"lng":2.274994},"transit_details":{"arrival_stop":{"location":{"lat":48.835584,"lng":2.293134},"name":"Hôpital de Vaugirard"},"arrival_time":{"text":"10:37","time_zone":"Europe/Paris","value":1472719020},"departure_stop":{"location":{"lat":48.828377,"lng":2.274994},"name":"Maison de Retraite"},"departure_time":{"text":"10:30","time_zone":"Europe/Paris","value":1472718600},"headsign":"Gare du Nord","line":{"agencies":[{"name":"STIF","url":"http://www.vianavigo.com/"}],"color":"#a0006e","short_name":"39","text_color":"#ffffff","vehicle":{"icon":"//maps.gstatic.com/mapfiles/transit/iw2/6/bus2.png","name":"Bus","type":"BUS"}},"num_stops":7},"travel_mode":"TRANSIT"},{"distance":{"text":"6,3 km","value":6322},"duration":{"text":"31 minutes","value":1860},"end_location":{"lat":48.874866,"lng":2.320814},"html_instructions":"Bus vers Mairie du 18e - Jules Joffrin","polyline":{"points":"keaiHa{~LcJuViEsJuFgQwEyNmJ`MhCzP_KhEcITyQoPuEdMkKqQoOcWsPlCuLlEwQfHoRyEcKwVaF}KqF{LwUkTqGd@mAcf@"},"start_location":{"lat":48.835584,"lng":2.293134},"transit_details":{"arrival_stop":{"location":{"lat":48.874866,"lng":2.320814},"name":"Saint-Augustin"},"arrival_time":{"text":"11:12","time_zone":"Europe/Paris","value":1472721120},"departure_stop":{"location":{"lat":48.835584,"lng":2.293134},"name":"Hôpital de Vaugirard"},"departure_time":{"text":"10:41","time_zone":"Europe/Paris","value":1472719260},"headsign":"Mairie du 18e - Jules Joffrin","line":{"agencies":[{"name":"STIF","url":"http://www.vianavigo.com/"}],"color":"#ff80ab","short_name":"80","text_color":"#000000","vehicle":{"icon":"//maps.gstatic.com/mapfiles/transit/iw2/6/bus2.png","name":"Bus","type":"BUS"}},"num_stops":22},"travel_mode":"TRANSIT"},{"distance":{"text":"0,2 km","value":193},"duration":{"text":"2 minutes","value":144},"end_location":{"lat":48.8748221,"lng":2.3228933},"html_instructions":"Marcher jusqu'à 73 Rue d'Anjou, 75008 Paris, France","polyline":{"points":"}zhiHahdMQ@c@kLRAf@HB@"},"start_location":{"lat":48.874866,"lng":2.320814},"steps":[{"distance":{"text":"0,2 km","value":158},"duration":{"text":"2 minutes","value":112},"end_location":{"lat":48.8751359,"lng":2.3229397},"html_instructions":"Prendre la direction <b>est</b> sur <b>Rue de la Pépinière</b> vers <b>Rue d'Anjou</b>","polyline":{"points":"}zhiHahdMQ@c@kL"},"start_location":{"lat":48.874866,"lng":2.320814},"travel_mode":"WALKING"},{"distance":{"text":"35 m","value":35},"duration":{"text":"1 minute","value":32},"end_location":{"lat":48.8748221,"lng":2.3228933},"html_instructions":"Prendre <b>à droite</b> sur <b>Rue d'Anjou</b><div style=\"font-size:0.9em\">Votre destination se trouvera sur la droite.</div>","maneuver":"turn-right","polyline":{"points":"s|hiHkudMRAf@HB@"},"start_location":{"lat":48.8751359,"lng":2.3229397},"travel_mode":"WALKING"}],"travel_mode":"WALKING"}],"traffic_speed_entry":[],"via_waypoint":[]}],"overview_polyline":{"points":"sh|hHe_yLw@~Dm@nCu@zAMP{AlAdCrLcAJAQiShBeMmS_MaWlKQjMf@rA{p@oM}K_O`AkTdDoH~DsRqBoDuIiMuTiFmKsPaXoE{LQuObHmIyFeLcJuViEsJuFgQwEyNmJ`MhCzP_KhEcITyQoPuEdMkKqQoOcWsPlCuLlEwQfHoRyEcKwVsMyYwUkTqGd@mAcf@Q@c@kLRAj@J"},"summary":"","warnings":["Le calcul d'itinéraires piétons est en bêta. Faites attention – Cet itinéraire n'est peut-être pas complètement aménagé pour les piétons."],"waypoint_order":[]}],"status":"OK"},"gobs":{"geocoded_waypoints":[{"geocoder_status":"OK","place_id":"Eik0MS00MyBSdWUgUGVydGh1aXMsIDkyMTQwIENsYW1hcnQsIEZyYW5jZQ","types":["route","street_address"]},{"geocoder_status":"OK","place_id":"ChIJS8pekPJx5kcRxS0S3NXQsW4","types":["street_address"]}],"routes":[{"bounds":{"northeast":{"lat":48.8435,"lng":2.3548511},"southwest":{"lat":48.8102014,"lng":2.2630691}},"copyrights":"Données cartographiques ©2016 Google","legs":[{"arrival_time":{"text":"10:50","time_zone":"Europe/Paris","value":1472719824},"departure_time":{"text":"10:06","time_zone":"Europe/Paris","value":1472717193},"distance":{"text":"8,6 km","value":8585},"duration":{"text":"44 minutes","value":2631},"end_address":"73 Boulevard Saint-Marcel, 75005 Paris, France","end_location":{"lat":48.8377748,"lng":2.3548511},"start_address":"41-43 Rue Perthuis, 92140 Clamart, France","start_location":{"lat":48.8105013,"lng":2.2630691},"steps":[{"distance":{"text":"1,1 km","value":1070},"duration":{"text":"12 minutes","value":747},"end_location":{"lat":48.814239,"lng":2.27449},"html_instructions":"Marcher jusqu'à Gare de Clamart","polyline":{"points":"sh|hHe_yLP{@h@oC}@cAiBgBuBmBk@k@w@o@iFuEMGWEGCMCME_@MUQQK?SAq@QgFGqBEcBCm@WuHI_D?}@MgCGiAEi@x@iA"},"start_location":{"lat":48.8105013,"lng":2.2630691},"steps":[{"distance":{"text":"82 m","value":82},"duration":{"text":"1 minute","value":57},"end_location":{"lat":48.8102014,"lng":2.2640903},"html_instructions":"Prendre la direction <b>sud-est</b> sur <b>Rue Perthuis</b> vers <b>Villa Perthuis</b>","polyline":{"points":"sh|hHe_yLP{@h@oC"},"start_location":{"lat":48.8105013,"lng":2.2630691},"travel_mode":"WALKING"},{"distance":{"text":"0,1 km","value":112},"duration":{"text":"1 minute","value":74},"end_location":{"lat":48.8110352,"lng":2.2649466},"html_instructions":"Prendre <b>à gauche</b> sur <b>Rue Emmanuel Sarty</b>","maneuver":"turn-left","polyline":{"points":"wf|hHqeyL}@cAiBgB"},"start_location":{"lat":48.8102014,"lng":2.2640903},"travel_mode":"WALKING"},{"distance":{"text":"0,4 km","value":380},"duration":{"text":"5 minutes","value":282},"end_location":{"lat":48.8140258,"lng":2.267389},"html_instructions":"Continuer sur <b>Rue Brissard</b>","polyline":{"points":"_l|hH}jyLuBmBk@k@w@o@iFuEMGWEGCMCME_@MUQQK"},"start_location":{"lat":48.8110352,"lng":2.2649466},"travel_mode":"WALKING"},{"distance":{"text":"0,4 km","value":380},"duration":{"text":"4 minutes","value":259},"end_location":{"lat":48.8143911,"lng":2.2725515},"html_instructions":"Prendre <b>à droite</b> sur <b>Rue du Chemin Vert</b>","maneuver":"turn-right","polyline":{"points":"u~|hHezyL?SAq@QgFGqBEcBCm@WuHI_D"},"start_location":{"lat":48.8140258,"lng":2.267389},"travel_mode":"WALKING"},{"distance":{"text":"0,1 km","value":116},"duration":{"text":"1 minute","value":75},"end_location":{"lat":48.814239,"lng":2.27449},"html_instructions":"Continuer sur <b>Rue du Clos Montholon</b><div style=\"font-size:0.9em\">Votre destination se trouvera sur la droite.</div>","polyline":{"points":"}`}hHmzzL?}@MgCGiAEi@x@iA"},"start_location":{"lat":48.8143911,"lng":2.2725515},"travel_mode":"WALKING"}],"travel_mode":"WALKING"},{"distance":{"text":"4,7 km","value":4674},"duration":{"text":"7 minutes","value":420},"end_location":{"lat":48.84118700000001,"lng":2.320509},"html_instructions":"Train vers Gare Montparnasse","polyline":{"points":"_`}hHqf{LSqFa@mKSsFIyBKyBGiAIeAKgAIaA[uCQiBS{AOqA_@eCe@kC{@kEa@qBg@{Bk@_Cg@mBq@}B}@sCm@gBuA}De@kAi@kAs@aBqAiCqBsDwAcCiAaB_BwBkAuAyAiBuBkCuAgBcFwGiFgHkLgO_H{IsDyEyC{DqHiKyBqCcAsAeAsAuBoCmEeGwEqGq@}@k@w@eAoAoEeFkAqAyEcGoK_N"},"start_location":{"lat":48.814239,"lng":2.27449},"transit_details":{"arrival_stop":{"location":{"lat":48.84118700000001,"lng":2.320509},"name":"Gare Montparnasse"},"arrival_time":{"text":"10:26","time_zone":"Europe/Paris","value":1472718360},"departure_stop":{"location":{"lat":48.814239,"lng":2.27449},"name":"Gare de Clamart"},"departure_time":{"text":"10:19","time_zone":"Europe/Paris","value":1472717940},"headsign":"Gare Montparnasse","line":{"agencies":[{"name":"STIF","url":"http://www.vianavigo.com/"}],"color":"#009688","short_name":"N","text_color":"#ffffff","vehicle":{"icon":"//maps.gstatic.com/mapfiles/transit/iw2/6/rail2.png","name":"Train","type":"HEAVY_RAIL"}},"num_stops":2},"travel_mode":"TRANSIT"},{"distance":{"text":"79 m","value":79},"duration":{"text":"1 minute","value":79},"end_location":{"lat":48.841882,"lng":2.32028},"html_instructions":"Marcher jusqu'à Gare Montparnasse","polyline":{"points":"mhbiHefdMiCl@"},"start_location":{"lat":48.84118700000001,"lng":2.320509},"steps":[{"distance":{"text":"79 m","value":79},"duration":{"text":"1 minute","value":79},"end_location":{"lat":48.841882,"lng":2.32028},"polyline":{"points":"mhbiHefdMiCl@"},"start_location":{"lat":48.84118700000001,"lng":2.320509},"travel_mode":"WALKING"}],"travel_mode":"WALKING"},{"distance":{"text":"2,6 km","value":2563},"duration":{"text":"13 minutes","value":780},"end_location":{"lat":48.836921,"lng":2.352631},"html_instructions":"Bus vers Bastille","polyline":{"points":"wlbiHwddMcIcUrHk`@nFcVfGsYvDyUvDmZfCum@"},"start_location":{"lat":48.841882,"lng":2.32028},"transit_details":{"arrival_stop":{"location":{"lat":48.836921,"lng":2.352631},"name":"Les Gobelins"},"arrival_time":{"text":"10:48","time_zone":"Europe/Paris","value":1472719680},"departure_stop":{"location":{"lat":48.841882,"lng":2.32028},"name":"Gare Montparnasse"},"departure_time":{"text":"10:35","time_zone":"Europe/Paris","value":1472718900},"headsign":"Bastille","line":{"agencies":[{"name":"STIF","url":"http://www.vianavigo.com/"}],"color":"#dc9600","short_name":"91","text_color":"#000000","vehicle":{"icon":"//maps.gstatic.com/mapfiles/transit/iw2/6/bus2.png","name":"Bus","type":"BUS"}},"num_stops":7},"travel_mode":"TRANSIT"},{"distance":{"text":"0,2 km","value":199},"duration":{"text":"2 minutes","value":144},"end_location":{"lat":48.8377748,"lng":2.3548511},"html_instructions":"Marcher jusqu'à 73 Boulevard Saint-Marcel, 75005 Paris, France","polyline":{"points":"wmaiH}njMEBQ_AK[SJEWGWGYS}@WmAQ}@]{A"},"start_location":{"lat":48.836921,"lng":2.352631},"steps":[{"distance":{"text":"38 m","value":38},"duration":{"text":"1 minute","value":27},"end_location":{"lat":48.8371013,"lng":2.3530677},"html_instructions":"Prendre la direction <b>nord-est</b> vers <b>Rue Michel Peter</b>","polyline":{"points":"wmaiH}njMEBQ_AK["},"start_location":{"lat":48.836921,"lng":2.352631},"travel_mode":"WALKING"},{"distance":{"text":"11 m","value":11},"duration":{"text":"1 minute","value":8},"end_location":{"lat":48.8371962,"lng":2.3530073},"html_instructions":"Prendre <b>à gauche</b> sur <b>Rue Michel Peter</b>","maneuver":"turn-left","polyline":{"points":"{naiHuqjMSJ"},"start_location":{"lat":48.8371013,"lng":2.3530677},"travel_mode":"WALKING"},{"distance":{"text":"0,2 km","value":150},"duration":{"text":"2 minutes","value":109},"end_location":{"lat":48.8377748,"lng":2.3548511},"html_instructions":"Prendre <b>à droite</b> sur <b>Boulevard Saint-Marcel</b><div style=\"font-size:0.9em\">Votre destination se trouvera sur la droite.</div>","maneuver":"turn-right","polyline":{"points":"ooaiHiqjMEWGWGYS}@WmAQ}@]{A"},"start_location":{"lat":48.8371962,"lng":2.3530073},"travel_mode":"WALKING"}],"travel_mode":"WALKING"}],"traffic_speed_entry":[],"via_waypoint":[]}],"overview_polyline":{"points":"sh|hHe_yLz@kEgDkDaDyCaHeG{@Um@Sg@]AeAYyIk@gR?}@MgCMsBx@iAu@_Sq@qPUmCe@wEe@eEo@wEaBwIiAmFsAmFoBqGcCeHoAwCs@aBcE}HwAcCiAaB_BwBkAuAoEuFyH_KiFgHkLgOsMuPyC{DqHiK}DeF{DcFcOmSuGuHkAqAyEcGoK_NiCl@cIcUrHk`@nFcVfGsYvDyUvDmZfCum@EBQ_AK[SJMo@eAcF]{A"},"summary":"","warnings":["Le calcul d'itinéraires piétons est en bêta. Faites attention – Cet itinéraire n'est peut-être pas complètement aménagé pour les piétons."],"waypoint_order":[]},{"bounds":{"northeast":{"lat":48.8435,"lng":2.3548511},"southwest":{"lat":48.8102014,"lng":2.2630691}},"copyrights":"Données cartographiques ©2016 Google","legs":[{"arrival_time":{"text":"11:05","time_zone":"Europe/Paris","value":1472720724},"departure_time":{"text":"10:21","time_zone":"Europe/Paris","value":1472718093},"distance":{"text":"8,6 km","value":8585},"duration":{"text":"44 minutes","value":2631},"end_address":"73 Boulevard Saint-Marcel, 75005 Paris, France","end_location":{"lat":48.8377748,"lng":2.3548511},"start_address":"41-43 Rue Perthuis, 92140 Clamart, France","start_location":{"lat":48.8105013,"lng":2.2630691},"steps":[{"distance":{"text":"1,1 km","value":1070},"duration":{"text":"12 minutes","value":747},"end_location":{"lat":48.814239,"lng":2.27449},"html_instructions":"Marcher jusqu'à Gare de Clamart","polyline":{"points":"sh|hHe_yLP{@h@oC}@cAiBgBuBmBk@k@w@o@iFuEMGWEGCMCME_@MUQQK?SAq@QgFGqBEcBCm@WuHI_D?}@MgCGiAEi@x@iA"},"start_location":{"lat":48.8105013,"lng":2.2630691},"steps":[{"distance":{"text":"82 m","value":82},"duration":{"text":"1 minute","value":57},"end_location":{"lat":48.8102014,"lng":2.2640903},"html_instructions":"Prendre la direction <b>sud-est</b> sur <b>Rue Perthuis</b> vers <b>Villa Perthuis</b>","polyline":{"points":"sh|hHe_yLP{@h@oC"},"start_location":{"lat":48.8105013,"lng":2.2630691},"travel_mode":"WALKING"},{"distance":{"text":"0,1 km","value":112},"duration":{"text":"1 minute","value":74},"end_location":{"lat":48.8110352,"lng":2.2649466},"html_instructions":"Prendre <b>à gauche</b> sur <b>Rue Emmanuel Sarty</b>","maneuver":"turn-left","polyline":{"points":"wf|hHqeyL}@cAiBgB"},"start_location":{"lat":48.8102014,"lng":2.2640903},"travel_mode":"WALKING"},{"distance":{"text":"0,4 km","value":380},"duration":{"text":"5 minutes","value":282},"end_location":{"lat":48.8140258,"lng":2.267389},"html_instructions":"Continuer sur <b>Rue Brissard</b>","polyline":{"points":"_l|hH}jyLuBmBk@k@w@o@iFuEMGWEGCMCME_@MUQQK"},"start_location":{"lat":48.8110352,"lng":2.2649466},"travel_mode":"WALKING"},{"distance":{"text":"0,4 km","value":380},"duration":{"text":"4 minutes","value":259},"end_location":{"lat":48.8143911,"lng":2.2725515},"html_instructions":"Prendre <b>à droite</b> sur <b>Rue du Chemin Vert</b>","maneuver":"turn-right","polyline":{"points":"u~|hHezyL?SAq@QgFGqBEcBCm@WuHI_D"},"start_location":{"lat":48.8140258,"lng":2.267389},"travel_mode":"WALKING"},{"distance":{"text":"0,1 km","value":116},"duration":{"text":"1 minute","value":75},"end_location":{"lat":48.814239,"lng":2.27449},"html_instructions":"Continuer sur <b>Rue du Clos Montholon</b><div style=\"font-size:0.9em\">Votre destination se trouvera sur la droite.</div>","polyline":{"points":"}`}hHmzzL?}@MgCGiAEi@x@iA"},"start_location":{"lat":48.8143911,"lng":2.2725515},"travel_mode":"WALKING"}],"travel_mode":"WALKING"},{"distance":{"text":"4,7 km","value":4674},"duration":{"text":"7 minutes","value":420},"end_location":{"lat":48.84118700000001,"lng":2.320509},"html_instructions":"Train vers Gare Montparnasse","polyline":{"points":"_`}hHqf{LSqFa@mKSsFIyBKyBGiAIeAKgAIaA[uCQiBS{AOqA_@eCe@kC{@kEa@qBg@{Bk@_Cg@mBq@}B}@sCm@gBuA}De@kAi@kAs@aBqAiCqBsDwAcCiAaB_BwBkAuAyAiBuBkCuAgBcFwGiFgHkLgO_H{IsDyEyC{DqHiKyBqCcAsAeAsAuBoCmEeGwEqGq@}@k@w@eAoAoEeFkAqAyEcGoK_N"},"start_location":{"lat":48.814239,"lng":2.27449},"transit_details":{"arrival_stop":{"location":{"lat":48.84118700000001,"lng":2.320509},"name":"Gare Montparnasse"},"arrival_time":{"text":"10:41","time_zone":"Europe/Paris","value":1472719260},"departure_stop":{"location":{"lat":48.814239,"lng":2.27449},"name":"Gare de Clamart"},"departure_time":{"text":"10:34","time_zone":"Europe/Paris","value":1472718840},"headsign":"Gare Montparnasse","line":{"agencies":[{"name":"STIF","url":"http://www.vianavigo.com/"}],"color":"#009688","short_name":"N","text_color":"#ffffff","vehicle":{"icon":"//maps.gstatic.com/mapfiles/transit/iw2/6/rail2.png","name":"Train","type":"HEAVY_RAIL"}},"num_stops":2},"travel_mode":"TRANSIT"},{"distance":{"text":"79 m","value":79},"duration":{"text":"1 minute","value":79},"end_location":{"lat":48.841882,"lng":2.32028},"html_instructions":"Marcher jusqu'à Gare Montparnasse","polyline":{"points":"mhbiHefdMiCl@"},"start_location":{"lat":48.84118700000001,"lng":2.320509},"steps":[{"distance":{"text":"79 m","value":79},"duration":{"text":"1 minute","value":79},"end_location":{"lat":48.841882,"lng":2.32028},"polyline":{"points":"mhbiHefdMiCl@"},"start_location":{"lat":48.84118700000001,"lng":2.320509},"travel_mode":"WALKING"}],"travel_mode":"WALKING"},{"distance":{"text":"2,6 km","value":2563},"duration":{"text":"13 minutes","value":780},"end_location":{"lat":48.836921,"lng":2.352631},"html_instructions":"Bus vers Bastille","polyline":{"points":"wlbiHwddMcIcUrHk`@nFcVfGsYvDyUvDmZfCum@"},"start_location":{"lat":48.841882,"lng":2.32028},"transit_details":{"arrival_stop":{"location":{"lat":48.836921,"lng":2.352631},"name":"Les Gobelins"},"arrival_time":{"text":"11:03","time_zone":"Europe/Paris","value":1472720580},"departure_stop":{"location":{"lat":48.841882,"lng":2.32028},"name":"Gare Montparnasse"},"departure_time":{"text":"10:50","time_zone":"Europe/Paris","value":1472719800},"headsign":"Bastille","line":{"agencies":[{"name":"STIF","url":"http://www.vianavigo.com/"}],"color":"#dc9600","short_name":"91","text_color":"#000000","vehicle":{"icon":"//maps.gstatic.com/mapfiles/transit/iw2/6/bus2.png","name":"Bus","type":"BUS"}},"num_stops":7},"travel_mode":"TRANSIT"},{"distance":{"text":"0,2 km","value":199},"duration":{"text":"2 minutes","value":144},"end_location":{"lat":48.8377748,"lng":2.3548511},"html_instructions":"Marcher jusqu'à 73 Boulevard Saint-Marcel, 75005 Paris, France","polyline":{"points":"wmaiH}njMEBQ_AK[SJEWGWGYS}@WmAQ}@]{A"},"start_location":{"lat":48.836921,"lng":2.352631},"steps":[{"distance":{"text":"38 m","value":38},"duration":{"text":"1 minute","value":27},"end_location":{"lat":48.8371013,"lng":2.3530677},"html_instructions":"Prendre la direction <b>nord-est</b> vers <b>Rue Michel Peter</b>","polyline":{"points":"wmaiH}njMEBQ_AK["},"start_location":{"lat":48.836921,"lng":2.352631},"travel_mode":"WALKING"},{"distance":{"text":"11 m","value":11},"duration":{"text":"1 minute","value":8},"end_location":{"lat":48.8371962,"lng":2.3530073},"html_instructions":"Prendre <b>à gauche</b> sur <b>Rue Michel Peter</b>","maneuver":"turn-left","polyline":{"points":"{naiHuqjMSJ"},"start_location":{"lat":48.8371013,"lng":2.3530677},"travel_mode":"WALKING"},{"distance":{"text":"0,2 km","value":150},"duration":{"text":"2 minutes","value":109},"end_location":{"lat":48.8377748,"lng":2.3548511},"html_instructions":"Prendre <b>à droite</b> sur <b>Boulevard Saint-Marcel</b><div style=\"font-size:0.9em\">Votre destination se trouvera sur la droite.</div>","maneuver":"turn-right","polyline":{"points":"ooaiHiqjMEWGWGYS}@WmAQ}@]{A"},"start_location":{"lat":48.8371962,"lng":2.3530073},"travel_mode":"WALKING"}],"travel_mode":"WALKING"}],"traffic_speed_entry":[],"via_waypoint":[]}],"overview_polyline":{"points":"sh|hHe_yLz@kEgDkDaDyCaHeG{@Um@Sg@]AeAYyIk@gR?}@MgCMsBx@iAu@_Sq@qPUmCe@wEe@eEo@wEaBwIiAmFsAmFoBqGcCeHoAwCs@aBcE}HwAcCiAaB_BwBkAuAoEuFyH_KiFgHkLgOsMuPyC{DqHiK}DeF{DcFcOmSuGuHkAqAyEcGoK_NiCl@cIcUrHk`@nFcVfGsYvDyUvDmZfCum@EBQ_AK[SJMo@eAcF]{A"},"summary":"","warnings":["Le calcul d'itinéraires piétons est en bêta. Faites attention – Cet itinéraire n'est peut-être pas complètement aménagé pour les piétons."],"waypoint_order":[]},{"bounds":{"northeast":{"lat":48.8435,"lng":2.3548511},"southwest":{"lat":48.8102014,"lng":2.2630691}},"copyrights":"Données cartographiques ©2016 Google","legs":[{"arrival_time":{"text":"11:20","time_zone":"Europe/Paris","value":1472721624},"departure_time":{"text":"10:36","time_zone":"Europe/Paris","value":1472718993},"distance":{"text":"8,6 km","value":8585},"duration":{"text":"44 minutes","value":2631},"end_address":"73 Boulevard Saint-Marcel, 75005 Paris, France","end_location":{"lat":48.8377748,"lng":2.3548511},"start_address":"41-43 Rue Perthuis, 92140 Clamart, France","start_location":{"lat":48.8105013,"lng":2.2630691},"steps":[{"distance":{"text":"1,1 km","value":1070},"duration":{"text":"12 minutes","value":747},"end_location":{"lat":48.814239,"lng":2.27449},"html_instructions":"Marcher jusqu'à Gare de Clamart","polyline":{"points":"sh|hHe_yLP{@h@oC}@cAiBgBuBmBk@k@w@o@iFuEMGWEGCMCME_@MUQQK?SAq@QgFGqBEcBCm@WuHI_D?}@MgCGiAEi@x@iA"},"start_location":{"lat":48.8105013,"lng":2.2630691},"steps":[{"distance":{"text":"82 m","value":82},"duration":{"text":"1 minute","value":57},"end_location":{"lat":48.8102014,"lng":2.2640903},"html_instructions":"Prendre la direction <b>sud-est</b> sur <b>Rue Perthuis</b> vers <b>Villa Perthuis</b>","polyline":{"points":"sh|hHe_yLP{@h@oC"},"start_location":{"lat":48.8105013,"lng":2.2630691},"travel_mode":"WALKING"},{"distance":{"text":"0,1 km","value":112},"duration":{"text":"1 minute","value":74},"end_location":{"lat":48.8110352,"lng":2.2649466},"html_instructions":"Prendre <b>à gauche</b> sur <b>Rue Emmanuel Sarty</b>","maneuver":"turn-left","polyline":{"points":"wf|hHqeyL}@cAiBgB"},"start_location":{"lat":48.8102014,"lng":2.2640903},"travel_mode":"WALKING"},{"distance":{"text":"0,4 km","value":380},"duration":{"text":"5 minutes","value":282},"end_location":{"lat":48.8140258,"lng":2.267389},"html_instructions":"Continuer sur <b>Rue Brissard</b>","polyline":{"points":"_l|hH}jyLuBmBk@k@w@o@iFuEMGWEGCMCME_@MUQQK"},"start_location":{"lat":48.8110352,"lng":2.2649466},"travel_mode":"WALKING"},{"distance":{"text":"0,4 km","value":380},"duration":{"text":"4 minutes","value":259},"end_location":{"lat":48.8143911,"lng":2.2725515},"html_instructions":"Prendre <b>à droite</b> sur <b>Rue du Chemin Vert</b>","maneuver":"turn-right","polyline":{"points":"u~|hHezyL?SAq@QgFGqBEcBCm@WuHI_D"},"start_location":{"lat":48.8140258,"lng":2.267389},"travel_mode":"WALKING"},{"distance":{"text":"0,1 km","value":116},"duration":{"text":"1 minute","value":75},"end_location":{"lat":48.814239,"lng":2.27449},