[{"origin":{"lat":2.3325667350087325,"lng":48.83269457066619},"taff":{"geocoded_waypoints":[{"geocoder_status":"OK","place_id":"ChIJI6qWwblx5kcR1BUDGveFCEM","types":["street_address"]},{"geocoder_status":"OK","place_id":"ChIJc5sm28pv5kcR0cpsawDOfSg","types":["street_address"]}],"routes":[{"bounds":{"northeast":{"lat":48.875347,"lng":2.3460348},"southwest":{"lat":48.8327373,"lng":2.3228933}},"copyrights":"Données cartographiques ©2016 Google","legs":[{"arrival_time":{"text":"10:37","time_zone":"Europe/Paris","value":1472719069},"departure_time":{"text":"10:03","time_zone":"Europe/Paris","value":1472717017},"distance":{"text":"6,1 km","value":6079},"duration":{"text":"34 minutes","value":2052},"end_address":"73 Rue d'Anjou, 75008 Paris, France","end_location":{"lat":48.8748221,"lng":2.3228933},"start_address":"8 Avenue René Coty, 75014 Paris, France","start_location":{"lat":48.8327373,"lng":2.3328554},"steps":[{"distance":{"text":"0,3 km","value":266},"duration":{"text":"2 minutes","value":142},"end_location":{"lat":48.834293,"lng":2.332852},"html_instructions":"Marcher jusqu'à Denfert-Rochereau","polyline":{"points":"ss`iHksfMqBf@G@CACAAA?WAQ?K?C?CACAEl@BD@DqAeFpB"},"start_location":{"lat":48.8327373,"lng":2.3328554},"steps":[{"distance":{"text":"76 m","value":76},"duration":{"text":"1 minute","value":57},"end_location":{"lat":48.833403,"lng":2.3326754},"html_instructions":"Prendre la direction <b>nord</b> sur <b>Avenue René Coty</b> vers <b>Place Denfert-Rochereau</b>","polyline":{"points":"ss`iHksfMqBf@G@CACAAA"},"start_location":{"lat":48.8327373,"lng":2.3328554},"travel_mode":"WALKING"},{"distance":{"text":"27 m","value":27},"duration":{"text":"1 minute","value":26},"end_location":{"lat":48.8334291,"lng":2.3330449},"html_instructions":"Prendre <b>à droite</b> sur <b>Place Denfert-Rochereau</b>","maneuver":"turn-right","polyline":{"points":"ww`iHgrfM?WAQ?K?C?CACAE"},"start_location":{"lat":48.833403,"lng":2.3326754},"travel_mode":"WALKING"},{"distance":{"text":"29 m","value":29},"duration":{"text":"1 minute","value":25},"end_location":{"lat":48.833139,"lng":2.333416},"html_instructions":"Prendre <b>à droite</b> sur <b>Avenue René Coty</b><div style=\"font-size:0.9em\">Votre destination se trouvera sur la gauche.</div>","maneuver":"turn-right","polyline":{"points":"}w`iHotfMl@BD@DqA"},"start_location":{"lat":48.8334291,"lng":2.3330449},"travel_mode":"WALKING"},{"distance":{"text":"0,1 km","value":134},"duration":{"text":"1 minute","value":34},"end_location":{"lat":48.834293,"lng":2.332852},"polyline":{"points":"cv`iH{vfMeFpB"},"start_location":{"lat":48.833139,"lng":2.333416},"travel_mode":"WALKING"}],"travel_mode":"WALKING"},{"distance":{"text":"2,4 km","value":2362},"duration":{"text":"6 minutes","value":360},"end_location":{"lat":48.853336,"lng":2.346035},"html_instructions":"RER vers Aéroport CDG Terminal 2 TGV","polyline":{"points":"i}`iHisfM]?g@G_AYa@S[Sk@g@kAaAkAgA}@}@?AuAuAyA{Ao@s@gAiAcAaAw@k@cAg@}@Y{@YsA[iB[yA[SGWKQGuAq@wCqAiD}AqB{@kCmA}EuBmCkAyAs@oCuA_B{@oAs@_CoAsAq@qBy@u@WcA]gAe@w@i@iAeAq@aAmAuBiBqDsAkC?A"},"start_location":{"lat":48.834293,"lng":2.332852},"transit_details":{"arrival_stop":{"location":{"lat":48.853336,"lng":2.346035},"name":"Saint-Michel - Notre-Dame"},"arrival_time":{"text":"10:12","time_zone":"Europe/Paris","value":1472717520},"departure_stop":{"location":{"lat":48.834293,"lng":2.332852},"name":"Denfert-Rochereau"},"departure_time":{"text":"10:06","time_zone":"Europe/Paris","value":1472717160},"headsign":"Aéroport CDG Terminal 2 TGV","line":{"agencies":[{"name":"STIF","url":"http://www.vianavigo.com/"}],"color":"#5092c9","short_name":"RER B","text_color":"#ffffff","vehicle":{"icon":"//maps.gstatic.com/mapfiles/transit/iw2/6/rail2.png","local_icon":"//maps.gstatic.com/mapfiles/transit/iw2/6/fr-paris-rail.png","name":"RER","type":"COMMUTER_TRAIN"}},"num_stops":3},"travel_mode":"TRANSIT"},{"distance":{"text":"0,2 km","value":195},"duration":{"text":"2 minutes","value":93},"end_location":{"lat":48.85416,"lng":2.343661},"html_instructions":"Marcher jusqu'à Saint-Michel","polyline":{"points":"ktdiHweiMcCnK_@jA"},"start_location":{"lat":48.853336,"lng":2.346035},"steps":[{"distance":{"text":"0,2 km","value":163},"duration":{"text":"1 minute","value":61},"end_location":{"lat":48.854002,"lng":2.344037},"polyline":{"points":"ktdiHweiMcCnK"},"start_location":{"lat":48.853336,"lng":2.346035},"travel_mode":"WALKING"},{"distance":{"text":"32 m","value":32},"duration":{"text":"1 minute","value":32},"end_location":{"lat":48.85416,"lng":2.343661},"polyline":{"points":"oxdiHgyhM_@jA"},"start_location":{"lat":48.854002,"lng":2.344037},"travel_mode":"WALKING"}],"travel_mode":"WALKING"},{"distance":{"text":"3,0 km","value":3046},"duration":{"text":"16 minutes","value":960},"end_location":{"lat":48.875055,"lng":2.324656},"html_instructions":"Bus vers Gare Saint-Lazare","polyline":{"points":"oydiH{vhMoI|OqJxTsBhV{VqFuLq@gKbDcKdD_IhCmH~EuDnIgGtMsH~Q"},"start_location":{"lat":48.85416,"lng":2.343661},"transit_details":{"arrival_stop":{"location":{"lat":48.875055,"lng":2.324656},"name":"Gare Saint-Lazare"},"arrival_time":{"text":"10:35","time_zone":"Europe/Paris","value":1472718900},"departure_stop":{"location":{"lat":48.85416,"lng":2.343661},"name":"Saint-Michel"},"departure_time":{"text":"10:19","time_zone":"Europe/Paris","value":1472717940},"headsign":"Gare Saint-Lazare","line":{"agencies":[{"name":"STIF","url":"http://www.vianavigo.com/"}],"color":"#e65100","short_name":"27","text_color":"#000000","vehicle":{"icon":"//maps.gstatic.com/mapfiles/transit/iw2/6/bus2.png","name":"Bus","type":"BUS"}},"num_stops":12},"travel_mode":"TRANSIT"},{"distance":{"text":"0,2 km","value":210},"duration":{"text":"3 minutes","value":169},"end_location":{"lat":48.8748221,"lng":2.3228933},"html_instructions":"Marcher jusqu'à 73 Rue d'Anjou, 75008 Paris, France","polyline":{"points":"c|hiHc`eM?Dy@g@PpBLzAHjDRAf@HB@"},"start_location":{"lat":48.875055,"lng":2.324656},"steps":[{"distance":{"text":"35 m","value":35},"duration":{"text":"1 minute","value":26},"end_location":{"lat":48.875347,"lng":2.3248275},"html_instructions":"Prendre la direction <b>nord-est</b> sur <b>Place Gabriel Péri</b> vers <b>Rue Saint-Lazare</b>","polyline":{"points":"c|hiHc`eM?Dy@g@"},"start_location":{"lat":48.875055,"lng":2.324656},"travel_mode":"WALKING"},{"distance":{"text":"0,1 km","value":140},"duration":{"text":"2 minutes","value":111},"end_location":{"lat":48.8751359,"lng":2.3229397},"html_instructions":"Prendre <b>à gauche</b> sur <b>Rue de la Pépinière</b>/<b>Place Gabriel Péri</b><div style=\"font-size:0.9em\">Continuer de suivre Rue de la Pépinière</div>","maneuver":"turn-left","polyline":{"points":"}}hiHeaeMPpBLzAHjD"},"start_location":{"lat":48.875347,"lng":2.3248275},"travel_mode":"WALKING"},{"distance":{"text":"35 m","value":35},"duration":{"text":"1 minute","value":32},"end_location":{"lat":48.8748221,"lng":2.3228933},"html_instructions":"Prendre <b>à gauche</b> sur <b>Rue d'Anjou</b><div style=\"font-size:0.9em\">Votre destination se trouvera sur la droite.</div>","maneuver":"turn-left","polyline":{"points":"s|hiHkudMRAf@HB@"},"start_location":{"lat":48.8751359,"lng":2.3229397},"travel_mode":"WALKING"}],"travel_mode":"WALKING"}],"traffic_speed_entry":[],"via_waypoint":[]}],"overview_polyline":{"points":"ss`iHksfMyBh@GCAYA]CQr@DDqAeFpBeAG_AYa@SgA{@wCiC}@_AgHoHcAaAw@k@cAg@}@Y{@YsA[iB[mBc@i@SmFcC{GyCwNoGyKyFsEaCgDqAkCcAw@i@iAeAq@aAmAuB}D}HcClK_@jAoI|OqJxTsBhV{VqFuLq@kWhI_IhCmH~EuDnIgGtMsHdRy@g@PpBLzAHjDRAf@HB@"},"summary":"","warnings":["Le calcul d'itinéraires piétons est en bêta. Faites attention – Cet itinéraire n'est peut-être pas complètement aménagé pour les piétons."],"waypoint_order":[]},{"bounds":{"northeast":{"lat":48.8748221,"lng":2.333162},"southwest":{"lat":48.8327373,"lng":2.32026}},"copyrights":"Données cartographiques ©2016 Google","legs":[{"arrival_time":{"text":"10:35","time_zone":"Europe/Paris","value":1472718928},"departure_time":{"text":"10:03","time_zone":"Europe/Paris","value":1472717017},"distance":{"text":"5,3 km","value":5257},"duration":{"text":"32 minutes","value":1911},"end_address":"73 Rue d'Anjou, 75008 Paris, France","end_location":{"lat":48.8748221,"lng":2.3228933},"start_address":"8 Avenue René Coty, 75014 Paris, France","start_location":{"lat":48.8327373,"lng":2.3328554},"steps":[{"distance":{"text":"0,1 km","value":103},"duration":{"text":"1 minute","value":83},"end_location":{"lat":48.83339,"lng":2.333162},"html_instructions":"Marcher jusqu'à Denfert-Rochereau","polyline":{"points":"ss`iHksfMqBf@G@CACAAA?WAQ?K?C?CACAEFW"},"start_location":{"lat":48.8327373,"lng":2.3328554},"steps":[{"distance":{"text":"76 m","value":76},"duration":{"text":"1 minute","value":57},"end_location":{"lat":48.833403,"lng":2.3326754},"html_instructions":"Prendre la direction <b>nord</b> sur <b>Avenue René Coty</b> vers <b>Place Denfert-Rochereau</b>","polyline":{"points":"ss`iHksfMqBf@G@CACAAA"},"start_location":{"lat":48.8327373,"lng":2.3328554},"travel_mode":"WALKING"},{"distance":{"text":"27 m","value":27},"duration":{"text":"1 minute","value":26},"end_location":{"lat":48.83339,"lng":2.333162},"html_instructions":"Prendre <b>à droite</b> sur <b>Place Denfert-Rochereau</b>","maneuver":"turn-right","polyline":{"points":"ww`iHgrfM?WAQ?K?C?CACAEFW"},"start_location":{"lat":48.833403,"lng":2.3326754},"travel_mode":"WALKING"}],"travel_mode":"WALKING"},{"distance":{"text":"2,3 km","value":2308},"duration":{"text":"11 minutes","value":660},"end_location":{"lat":48.853647,"lng":2.326391},"html_instructions":"Bus vers Place de Clichy","polyline":{"points":"uw`iHgufMwK~DgUpG{NvDiR~DcXbFaGnAkKnB{IzA"},"start_location":{"lat":48.83339,"lng":2.333162},"transit_details":{"arrival_stop":{"location":{"lat":48.853647,"lng":2.326391},"name":"Varenne - Raspail"},"arrival_time":{"text":"10:16","time_zone":"Europe/Paris","value":1472717760},"departure_stop":{"location":{"lat":48.83339,"lng":2.333162},"name":"Denfert-Rochereau"},"departure_time":{"text":"10:05","time_zone":"Europe/Paris","value":1472717100},"headsign":"Place de Clichy","line":{"agencies":[{"name":"STIF","url":"http://www.vianavigo.com/"}],"color":"#ffb300","short_name":"68","text_color":"#000000","vehicle":{"icon":"//maps.gstatic.com/mapfiles/transit/iw2/6/bus2.png","name":"Bus","type":"BUS"}},"num_stops":8},"travel_mode":"TRANSIT"},{"distance":{"text":"2,5 km","value":2496},"duration":{"text":"10 minutes","value":600},"end_location":{"lat":48.872485,"lng":2.321728},"html_instructions":"Bus vers Porte de Champerret","polyline":{"points":"ivdiH}jeMiPrDqJhK}SHwD`SgZ_LcR}QwNvU"},"start_location":{"lat":48.853647,"lng":2.326391},"transit_details":{"arrival_stop":{"location":{"lat":48.872485,"lng":2.321728},"name":"Anjou - Chauveau Lagarde"},"arrival_time":{"text":"10:31","time_zone":"Europe/Paris","value":1472718660},"departure_stop":{"location":{"lat":48.853647,"lng":2.326391},"name":"Varenne - Raspail"},"departure_time":{"text":"10:21","time_zone":"Europe/Paris","value":1472718060},"headsign":"Porte de Champerret","line":{"agencies":[{"name":"STIF","url":"http://www.vianavigo.com/"}],"color":"#ce93d8","short_name":"84","text_color":"#000000","vehicle":{"icon":"//maps.gstatic.com/mapfiles/transit/iw2/6/bus2.png","name":"Bus","type":"BUS"}},"num_stops":7},"travel_mode":"TRANSIT"},{"distance":{"text":"0,4 km","value":350},"duration":{"text":"5 minutes","value":272},"end_location":{"lat":48.8748221,"lng":2.3228933},"html_instructions":"Marcher jusqu'à 73 Rue d'Anjou, 75008 Paris, France","polyline":{"points":"_lhiHymdMF\\x@i@Og@?AA??AA?cEaAi@My@UcCm@uA["},"start_location":{"lat":48.872485,"lng":2.321728},"steps":[{"distance":{"text":"36 m","value":36},"duration":{"text":"1 minute","value":26},"end_location":{"lat":48.87214549999999,"lng":2.3217873},"html_instructions":"Prendre la direction <b>sud-est</b> sur <b>Boulevard Malesherbes</b> vers <b>Rue d'Anjou</b>","polyline":{"points":"_lhiHymdMF\\x@i@"},"start_location":{"lat":48.872485,"lng":2.321728},"travel_mode":"WALKING"},{"distance":{"text":"0,3 km","value":314},"duration":{"text":"4 minutes","value":246},"end_location":{"lat":48.8748221,"lng":2.3228933},"html_instructions":"Prendre <b>à gauche</b> sur <b>Rue d'Anjou</b><div style=\"font-size:0.9em\">Votre destination se trouvera sur la gauche.</div>","maneuver":"turn-left","polyline":{"points":"}ihiHendMOg@?AA??AA?cEaAi@My@UcCm@uA["},"start_location":{"lat":48.87214549999999,"lng":2.3217873},"travel_mode":"WALKING"}],"travel_mode":"WALKING"}],"traffic_speed_entry":[],"via_waypoint":[]}],"overview_polyline":{"points":"ss`iHksfMyBh@GCAYA]CQFWwK~DgUpG{NvDiR~DcXbFaGnAkKnB{IzAiPrDqJhK}SHwD`SgZ_LcR}QwNvUF\\x@i@Oi@gEcA}HmB"},"summary":"","warnings":["Le calcul d'itinéraires piétons est en bêta. Faites attention – Cet itinéraire n'est peut-être pas complètement aménagé pour les piétons."],"waypoint_order":[]},{"bounds":{"northeast":{"lat":48.8748221,"lng":2.333162},"southwest":{"lat":48.8327373,"lng":2.320246}},"copyrights":"Données cartographiques ©2016 Google","legs":[{"arrival_time":{"text":"10:40","time_zone":"Europe/Paris","value":1472719230},"departure_time":{"text":"10:03","time_zone":"Europe/Paris","value":1472717017},"distance":{"text":"5,2 km","value":5198},"duration":{"text":"37 minutes","value":2213},"end_address":"73 Rue d'Anjou, 75008 Paris, France","end_location":{"lat":48.8748221,"lng":2.3228933},"start_address":"8 Avenue René Coty, 75014 Paris, France","start_location":{"lat":48.8327373,"lng":2.3328554},"steps":[{"distance":{"text":"0,1 km","value":103},"duration":{"text":"1 minute","value":83},"end_location":{"lat":48.83339,"lng":2.333162},"html_instructions":"Marcher jusqu'à Denfert-Rochereau","polyline":{"points":"ss`iHksfMqBf@G@CACAAA?WAQ?K?C?CACAEFW"},"start_location":{"lat":48.8327373,"lng":2.3328554},"steps":[{"distance":{"text":"76 m","value":76},"duration":{"text":"1 minute","value":57},"end_location":{"lat":48.833403,"lng":2.3326754},"html_instructions":"Prendre la direction <b>nord</b> sur <b>Avenue René Coty</b> vers <b>Place Denfert-Rochereau</b>","polyline":{"points":"ss`iHksfMqBf@G@CACAAA"},"start_location":{"lat":48.8327373,"lng":2.3328554},"travel_mode":"WALKING"},{"distance":{"text":"27 m","value":27},"duration":{"text":"1 minute","value":26},"end_location":{"lat":48.83339,"lng":2.333162},"html_instructions":"Prendre <b>à droite</b> sur <b>Place Denfert-Rochereau</b>","maneuver":"turn-right","polyline":{"points":"ww`iHgrfM?WAQ?K?C?CACAEFW"},"start_location":{"lat":48.833403,"lng":2.3326754},"travel_mode":"WALKING"}],"travel_mode":"WALKING"},{"distance":{"text":"1,7 km","value":1741},"duration":{"text":"9 minutes","value":540},"end_location":{"lat":48.848642,"lng":2.327809},"html_instructions":"Bus vers Place de Clichy","polyline":{"points":"uw`iHgufMwK~DgUpG{NvDiR~DcXbF"},"start_location":{"lat":48.83339,"lng":2.333162},"transit_details":{"arrival_stop":{"location":{"lat":48.848642,"lng":2.327809},"name":"Rennes - Raspail"},"arrival_time":{"text":"10:14","time_zone":"Europe/Paris","value":1472717640},"departure_stop":{"location":{"lat":48.83339,"lng":2.333162},"name":"Denfert-Rochereau"},"departure_time":{"text":"10:05","time_zone":"Europe/Paris","value":1472717100},"headsign":"Place de Clichy","line":{"agencies":[{"name":"STIF","url":"http://www.vianavigo.com/"}],"color":"#ffb300","short_name":"68","text_color":"#000000","vehicle":{"icon":"//maps.gstatic.com/mapfiles/transit/iw2/6/bus2.png","name":"Bus","type":"BUS"}},"num_stops":5},"travel_mode":"TRANSIT"},{"distance":{"text":"3,2 km","value":3239},"duration":{"text":"18 minutes","value":1080},"end_location":{"lat":48.87432700000001,"lng":2.323648},"html_instructions":"Bus vers Louison Bobet","polyline":{"points":"_wciHyseMaGnAkKnB{IzAeO|BuK~L{LfLuFdFk_@aLcR}QkSqH}EhS"},"start_location":{"lat":48.848642,"lng":2.327809},"transit_details":{"arrival_stop":{"location":{"lat":48.87432700000001,"lng":2.323648},"name":"Pasquier - Anjou"},"arrival_time":{"text":"10:39","time_zone":"Europe/Paris","value":1472719140},"departure_stop":{"location":{"lat":48.848642,"lng":2.327809},"name":"Rennes - Raspail"},"departure_time":{"text":"10:21","time_zone":"Europe/Paris","value":1472718060},"headsign":"Louison Bobet","line":{"agencies":[{"name":"STIF","url":"http://www.vianavigo.com/"}],"color":"#a0006e","short_name":"94","text_color":"#ffffff","vehicle":{"icon":"//maps.gstatic.com/mapfiles/transit/iw2/6/bus2.png","name":"Bus","type":"BUS"}},"num_stops":11},"travel_mode":"TRANSIT"},{"distance":{"text":"0,1 km","value":115},"duration":{"text":"1 minute","value":89},"end_location":{"lat":48.8748221,"lng":2.3228933},"html_instructions":"Marcher jusqu'à 73 Rue d'Anjou, 75008 Paris, France","polyline":{"points":"qwhiHyydMJBWnDuA["},"start_location":{"lat":48.87432700000001,"lng":2.323648},"steps":[{"distance":{"text":"66 m","value":66},"duration":{"text":"1 minute","value":48},"end_location":{"lat":48.8743906,"lng":2.3227511},"html_instructions":"Prendre la direction <b>ouest</b> sur <b>Boulevard Haussmann</b> vers <b>Rue d'Anjou</b>","polyline":{"points":"qwhiHyydMJBWnD"},"start_location":{"lat":48.87432700000001,"lng":2.323648},"travel_mode":"WALKING"},{"distance":{"text":"49 m","value":49},"duration":{"text":"1 minute","value":41},"end_location":{"lat":48.8748221,"lng":2.3228933},"html_instructions":"Prendre <b>à droite</b> sur <b>Rue d'Anjou</b><div style=\"font-size:0.9em\">Votre destination se trouvera sur la gauche.</div>","maneuver":"turn-right","polyline":{"points":"}whiHetdMuA["},"start_location":{"lat":48.8743906,"lng":2.3227511},"travel_mode":"WALKING"}],"travel_mode":"WALKING"}],"traffic_speed_entry":[],"via_waypoint":[]}],"overview_polyline":{"points":"ss`iHksfMyBh@GCAYA]CQFWwK~DgUpG{NvDiR~DcXbFaGnAkKnB{IzAeO|BuK~L{LfLuFdFk_@aLcR}QkSqH}EhSJBWnDuA["},"summary":"","warnings":["Le calcul d'itinéraires piétons est en bêta. Faites attention – Cet itinéraire n'est peut-être pas complètement aménagé pour les piétons."],"waypoint_order":[]},{"bounds":{"northeast":{"lat":48.876691,"lng":2.3328554},"southwest":{"lat":48.83135100000001,"lng":2.306111}},"copyrights":"Données cartographiques ©2016 Google","legs":[{"arrival_time":{"text":"10:54","time_zone":"Europe/Paris","value":1472720058},"departure_time":{"text":"10:08","time_zone":"Europe/Paris","value":1472717303},"distance":{"text":"7,6 km","value":7619},"duration":{"text":"46 minutes","value":2755},"end_address":"73 Rue d'Anjou, 75008 Paris, France","end_location":{"lat":48.8748221,"lng":2.3228933},"start_address":"8 Avenue René Coty, 75014 Paris, France","start_location":{"lat":48.8327373,"lng":2.3328554},"steps":[{"distance":{"text":"0,8 km","value":850},"duration":{"text":"11 minutes","value":639},"end_location":{"lat":48.83237399999999,"lng":2.32517},"html_instructions":"Marcher jusqu'à Mairie du 14e","polyline":{"points":"ss`iHksfMqBf@G@CACAAAk@fBM`@^Zz@p@x@r@hBxAh@b@nAbAvAlA@LGDeAbGw@dFWxAy@zE[vBCHGRHRh@O?K"},"start_location":{"lat":48.8327373,"lng":2.3328554},"steps":[{"distance":{"text":"76 m","value":76},"duration":{"text":"1 minute","value":57},"end_location":{"lat":48.833403,"lng":2.3326754},"html_instructions":"Prendre la direction <b>nord</b> sur <b>Avenue René Coty</b> vers <b>Place Denfert-Rochereau</b>","polyline":{"points":"ss`iHksfMqBf@G@CACAAA"},"start_location":{"lat":48.8327373,"lng":2.3328554},"travel_mode":"WALKING"},{"distance":{"text":"60 m","value":60},"duration":{"text":"1 minute","value":49},"end_location":{"lat":48.8336866,"lng":2.3319852},"html_instructions":"Prendre <b>à gauche</b> sur <b>Place Denfert-Rochereau</b>","maneuver":"turn-left","polyline":{"points":"ww`iHgrfMk@fBM`@"},"start_location":{"lat":48.833403,"lng":2.3326754},"travel_mode":"WALKING"},{"distance":{"text":"0,3 km","value":302},"duration":{"text":"4 minutes","value":226},"end_location":{"lat":48.83135100000001,"lng":2.3299145},"html_instructions":"Prendre <b>à gauche</b> sur <b>Avenue du Général Leclerc</b>","maneuver":"turn-left","polyline":{"points":"qy`iH}mfM^Zz@p@x@r@hBxAh@b@nAbAvAlA@L"},"start_location":{"lat":48.8336866,"lng":2.3319852},"travel_mode":"WALKING"},{"distance":{"text":"0,4 km","value":380},"duration":{"text":"5 minutes","value":279},"end_location":{"lat":48.832632,"lng":2.3251256},"html_instructions":"Prendre <b>à droite</b> sur <b>Rue Mouton-Duvernet</b>","maneuver":"turn-right","polyline":{"points":"}j`iH}`fMGDeAbGw@dFWxAy@zE[vBCHGR"},"start_location":{"lat":48.83135100000001,"lng":2.3299145},"travel_mode":"WALKING"},{"distance":{"text":"9 m","value":9},"duration":{"text":"1 minute","value":6},"end_location":{"lat":48.83257529999999,"lng":2.3250336},"html_instructions":"Prendre <b>à gauche</b> sur <b>Rue Gassendi</b>","maneuver":"turn-left","polyline":{"points":"}r`iHaceMHR"},"start_location":{"lat":48.832632,"lng":2.3251256},"travel_mode":"WALKING"},{"distance":{"text":"23 m","value":23},"duration":{"text":"1 minute","value":22},"end_location":{"lat":48.83237399999999,"lng":2.32517},"html_instructions":"Prendre <b>à gauche</b> sur <b>Avenue du Maine</b>","maneuver":"turn-left","polyline":{"points":"sr`iHmbeMh@O?K"},"start_location":{"lat":48.83257529999999,"lng":2.3250336},"travel_mode":"WALKING"}],"travel_mode":"WALKING"},{"distance":{"text":"6,5 km","value":6539},"duration":{"text":"33 minutes","value":1980},"end_location":{"lat":48.876691,"lng":2.321986},"html_instructions":"Bus vers Gare Saint-Lazare","polyline":{"points":"iq`iHiceMgHxBuIdC_NxDmRxFqJiMgHnG{HzX{BpQcClSwVbDk@f[{ImHqHnMgMkTqHgCsW_AoQPgRTaFeEwUkTqGd@oAkViJcV"},"start_location":{"lat":48.83237399999999,"lng":2.32517},"transit_details":{"arrival_stop":{"location":{"lat":48.876691,"lng":2.321986},"name":"Gare Saint-Lazare"},"arrival_time":{"text":"10:52","time_zone":"Europe/Paris","value":1472719920},"departure_stop":{"location":{"lat":48.83237399999999,"lng":2.32517},"name":"Mairie du 14e"},"departure_time":{"text":"10:19","time_zone":"Europe/Paris","value":1472717940},"headsign":"Gare Saint-Lazare","line":{"agencies":[{"name":"STIF","url":"http://www.vianavigo.com/"}],"color":"#ff80ab","short_name":"28","text_color":"#000000","vehicle":{"icon":"//maps.gstatic.com/mapfiles/transit/iw2/6/bus2.png","name":"Bus","type":"BUS"}},"num_stops":23},"travel_mode":"TRANSIT"},{"distance":{"text":"0,2 km","value":230},"duration":{"text":"3 minutes","value":159},"end_location":{"lat":48.8748221,"lng":2.3228933},"html_instructions":"Marcher jusqu'à 73 Rue d'Anjou, 75008 Paris, France","polyline":{"points":"ifiiHmodMDJjBgC\\g@@CBAZQbCARAf@HB@"},"start_location":{"lat":48.876691,"lng":2.321986},"steps":[{"distance":{"text":"0,1 km","value":122},"duration":{"text":"1 minute","value":75},"end_location":{"lat":48.8757961,"lng":2.3229334},"html_instructions":"Prendre la direction <b>sud-est</b> sur <b>Rue du Rocher</b> vers <b>Rue de Laborde</b>","polyline":{"points":"ifiiHmodMDJjBgC\\g@@CBAZQ"},"start_location":{"lat":48.876691,"lng":2.321986},"travel_mode":"WALKING"},{"distance":{"text":"73 m","value":73},"duration":{"text":"1 minute","value":47},"end_location":{"lat":48.8751359,"lng":2.3229397},"html_instructions":"Prendre légèrement <b>à droite</b> sur <b>Rue Joseph Sansboeuf</b>","maneuver":"turn-slight-right","polyline":{"points":"w`iiHiudMbCA"},"start_location":{"lat":48.8757961,"lng":2.3229334},"travel_mode":"WALKING"},{"distance":{"text":"35 m","value":35},"duration":{"text":"1 minute","value":37},"end_location":{"lat":48.8748221,"lng":2.3228933},"html_instructions":"Continuer sur <b>Rue d'Anjou</b><div style=\"font-size:0.9em\">Votre destination se trouvera sur la droite.</div>","polyline":{"points":"s|hiHkudMRAf@HB@"},"start_location":{"lat":48.8751359,"lng":2.3229397},"travel_mode":"WALKING"}],"travel_mode":"WALKING"}],"traffic_speed_entry":[],"via_waypoint":[]}],"overview_polyline":{"points":"ss`iHksfMyBh@GCAAk@fBM`@^ZtBdBrC|BfDpC@LGD}BhNqAtH_@`CGRHRh@O?KgHxBuIdC_NxDmRxFqJiMgHnG{HzX{BpQcClSwVbDk@f[{ImHqHnMgMkTqHgCsW_Awd@f@aFeEwUkTqGd@oAkViJcVDJhCoDDEZQbCARAf@HB@"},"summary":"","warnings":["Le calcul d'itinéraires piétons est en bêta. Faites attention – Cet itinéraire n'est peut-être pas complètement aménagé pour les piétons."],"waypoint_order":[]}],"status":"OK"},"gobs":{"geocoded_waypoints":[{"geocoder_status":"OK","place_id":"ChIJI6qWwblx5kcR1BUDGveFCEM","types":["street_address"]},{"geocoder_status":"OK","place_id":"ChIJS8pekPJx5kcRxS0S3NXQsW4","types":["street_address"]}],"routes":[{"bounds":{"northeast":{"lat":48.8377748,"lng":2.3548511},"southwest":{"lat":48.8327373,"lng":2.3326549}},"copyrights":"Données cartographiques ©2016 Google","legs":[{"distance":{"text":"1,9 km","value":1862},"duration":{"text":"23 minutes","value":1373},"end_address":"73 Boulevard Saint-Marcel, 75005 Paris, France","end_location":{"lat":48.8377748,"lng":2.3548511},"start_address":"8 Avenue René Coty, 75014 Paris, France","start_location":{"lat":48.8327373,"lng":2.3328554},"steps":[{"distance":{"text":"1,9 km","value":1862},"duration":{"text":"23 minutes","value":1373},"end_location":{"lat":48.8377748,"lng":2.3548511},"html_instructions":"Marcher jusqu'à 73 Boulevard Saint-Marcel, 75005 Paris, France","polyline":{"points":"ss`iHksfMqBf@G@CACAAAQc@EMEIEIEIEGCEEEGCECEAE?BW}@BW@I?EAEAEECCKYOaIGoE?UAWA]Ag@Ak@Ao@GkE]_TCwAAq@IiEMqICmBCu@?YA[AYEe@k@iCmAyFSs@_AmEc@oBc@qBAYQaAk@cCa@uAOUQw@S_AEWGWGYS}@WmAQ}@]{A"},"start_location":{"lat":48.8327373,"lng":2.3328554},"steps":[{"distance":{"text":"76 m","value":76},"duration":{"text":"1 minute","value":57},"end_location":{"lat":48.833403,"lng":2.3326754},"html_instructions":"Prendre la direction <b>nord</b> sur <b>Avenue René Coty</b> vers <b>Place Denfert-Rochereau</b>","polyline":{"points":"ss`iHksfMqBf@G@CACAAA"},"start_location":{"lat":48.8327373,"lng":2.3328554},"travel_mode":"WALKING"},{"distance":{"text":"64 m","value":64},"duration":{"text":"1 minute","value":57},"end_location":{"lat":48.8338183,"lng":2.3332307},"html_instructions":"Tourner à <b>droite</b> à <b>Place Denfert-Rochereau</b>","maneuver":"turn-right","polyline":{"points":"ww`iHgrfMQc@EMEIEIEIEGCEEEGCECEAE?"},"start_location":{"lat":48.833403,"lng":2.3326754},"travel_mode":"WALKING"},{"distance":{"text":"9 m","value":9},"duration":{"text":"1 minute","value":11},"end_location":{"lat":48.8338008,"lng":2.333352},"html_instructions":"Tourner à <b>droite</b> à <b>Place Denfert-Rochereau</b>","maneuver":"turn-right","polyline":{"points":"kz`iHuufMBW"},"start_location":{"lat":48.8338183,"lng":2.3332307},"travel_mode":"WALKING"},{"distance":{"text":"78 m","value":78},"duration":{"text":"1 minute","value":69},"end_location":{"lat":48.8344476,"lng":2.3335167},"html_instructions":"Prendre <b>à gauche</b> sur <b>Place Denfert-Rochereau</b>","maneuver":"turn-left","polyline":{"points":"gz`iHmvfM}@BW@I?EAEAEECCKY"},"start_location":{"lat":48.8338008,"lng":2.333352},"travel_mode":"WALKING"},{"distance":{"text":"1,3 km","value":1299},"duration":{"text":"15 minutes","value":910},"end_location":{"lat":48.83643970000001,"lng":2.3507517},"html_instructions":"Prendre légèrement <b>à droite</b> sur <b>Boulevard Arago</b>","maneuver":"turn-slight-right","polyline":{"points":"i~`iHowfMOaIGoE?UAWA]Ag@Ak@Ao@GkE]_TCwAAq@IiEMqICmBCu@?YA[AYEe@k@iCmAyFSs@_AmEc@oBc@qB"},"start_location":{"lat":48.8344476,"lng":2.3335167},"travel_mode":"WALKING"},{"distance":{"text":"90 m","value":90},"duration":{"text":"1 minute","value":76},"end_location":{"lat":48.8367623,"lng":2.3518696},"html_instructions":"Tourner légèrement à <b>droite</b> pour continuer sur <b>Boulevard Arago</b>","maneuver":"turn-slight-right","polyline":{"points":"wjaiHecjMAYQaAk@cC"},"start_location":{"lat":48.83643970000001,"lng":2.3507517},"travel_mode":"WALKING"},{"distance":{"text":"0,2 km","value":246},"duration":{"text":"3 minutes","value":193},"end_location":{"lat":48.8377748,"lng":2.3548511},"html_instructions":"Continuer sur <b>Boulevard Saint-Marcel</b><div style=\"font-size:0.9em\">Votre destination se trouvera sur la droite.</div>","polyline":{"points":"wlaiHejjMa@uAOUQw@S_AEWGWGYS}@WmAQ}@]{A"},"start_location":{"lat":48.8367623,"lng":2.3518696},"travel_mode":"WALKING"}],"travel_mode":"WALKING"}],"traffic_speed_entry":[],"via_waypoint":[]}],"overview_polyline":{"points":"ss`iHksfMyBh@GC_@}@Ua@MIKEE?BWuADOAKGO]WqOEsBgAmr@IyEG_AyBcK{CcNAYQaAmAyEOUQw@YwA{@}Do@yC"},"summary":"Boulevard Arago","warnings":["Le calcul d'itinéraires piétons est en bêta. Faites attention – Cet itinéraire n'est peut-être pas complètement aménagé pour les piétons."],"waypoint_order":[]},{"bounds":{"northeast":{"lat":48.840034,"lng":2.3548511},"southwest":{"lat":48.8327373,"lng":2.3326549}},"copyrights":"Données cartographiques ©2016 Google","legs":[{"arrival_time":{"text":"10:42","time_zone":"Europe/Paris","value":1472719344},"departure_time":{"text":"10:24","time_zone":"Europe/Paris","value":1472718277},"distance":{"text":"2,4 km","value":2425},"duration":{"text":"18 minutes","value":1067},"end_address":"73 Boulevard Saint-Marcel, 75005 Paris, France","end_location":{"lat":48.8377748,"lng":2.3548511},"start_address":"8 Avenue René Coty, 75014 Paris, France","start_location":{"lat":48.8327373,"lng":2.3328554},"steps":[{"distance":{"text":"0,3 km","value":266},"duration":{"text":"2 minutes","value":142},"end_location":{"lat":48.834293,"lng":2.332852},"html_instructions":"Marcher jusqu'à Denfert-Rochereau","polyline":{"points":"ss`iHksfMqBf@G@CACAAA?WAQ?K?C?CACAEl@BD@DqAeFpB"},"start_location":{"lat":48.8327373,"lng":2.3328554},"steps":[{"distance":{"text":"76 m","value":76},"duration":{"text":"1 minute","value":57},"end_location":{"lat":48.833403,"lng":2.3326754},"html_instructions":"Prendre la direction <b>nord</b> sur <b>Avenue René Coty</b> vers <b>Place Denfert-Rochereau</b>","polyline":{"points":"ss`iHksfMqBf@G@CACAAA"},"start_location":{"lat":48.8327373,"lng":2.3328554},"travel_mode":"WALKING"},{"distance":{"text":"27 m","value":27},"duration":{"text":"1 minute","value":26},"end_location":{"lat":48.8334291,"lng":2.3330449},"html_instructions":"Prendre <b>à droite</b> sur <b>Place Denfert-Rochereau</b>","maneuver":"turn-right","polyline":{"points":"ww`iHgrfM?WAQ?K?C?CACAE"},"start_location":{"lat":48.833403,"lng":2.3326754},"travel_mode":"WALKING"},{"distance":{"text":"29 m","value":29},"duration":{"text":"1 minute","value":25},"end_location":{"lat":48.833139,"lng":2.333416},"html_instructions":"Prendre <b>à droite</b> sur <b>Avenue René Coty</b><div style=\"font-size:0.9em\">Votre destination se trouvera sur la gauche.</div>","maneuver":"turn-right","polyline":{"points":"}w`iHotfMl@BD@DqA"},"start_location":{"lat":48.8334291,"lng":2.3330449},"travel_mode":"WALKING"},{"distance":{"text":"0,1 km","value":134},"duration":{"text":"1 minute","value":34},"end_location":{"lat":48.834293,"lng":2.332852},"polyline":{"points":"cv`iH{vfMeFpB"},"start_location":{"lat":48.833139,"lng":2.333416},"travel_mode":"WALKING"}],"travel_mode":"WALKING"},{"distance":{"text":"0,7 km","value":719},"duration":{"text":"2 minutes","value":120},"end_location":{"lat":48.840034,"lng":2.337096},"html_instructions":"RER vers Aéroport CDG Terminal 2 TGV","polyline":{"points":"i}`iHisfM]?g@G_AYa@S[Sk@g@kAaAkAgA}@}@?AuAuAyA{Ao@s@gAiAcAaAw@k@cAg@}@Y{@YsA["},"start_location":{"lat":48.834293,"lng":2.332852},"transit_details":{"arrival_stop":{"location":{"lat":48.840034,"lng":2.337096},"name":"Port-Royal"},"arrival_time":{"text":"10:29","time_zone":"Europe/Paris","value":1472718540},"departure_stop":{"location":{"lat":48.834293,"lng":2.332852},"name":"Denfert-Rochereau"},"departure_time":{"text":"10:27","time_zone":"Europe/Paris","value":1472718420},"headsign":"Aéroport CDG Terminal 2 TGV","line":{"agencies":[{"name":"STIF","url":"http://www.vianavigo.com/"}],"color":"#5092c9","short_name":"RER B","text_color":"#ffffff","vehicle":{"icon":"//maps.gstatic.com/mapfiles/transit/iw2/6/rail2.png","local_icon":"//maps.gstatic.com/mapfiles/transit/iw2/6/fr-paris-rail.png","name":"RER","type":"COMMUTER_TRAIN"}},"num_stops":1},"travel_mode":"TRANSIT"},{"distance":{"text":"66 m","value":66},"duration":{"text":"1 minute","value":65},"end_location":{"lat":48.839439,"lng":2.337123},"html_instructions":"Marcher jusqu'à Observatoire - Port Royal","polyline":{"points":"eabiH{mgMx@Bz@G"},"start_location":{"lat":48.840034,"lng":2.337096},"steps":[{"distance":{"text":"32 m","value":32},"duration":{"text":"1 minute","value":31},"end_location":{"lat":48.839744,"lng":2.33708},"polyline":{"points":"eabiH{mgMx@B"},"start_location":{"lat":48.840034,"lng":2.337096},"travel_mode":"WALKING"},{"distance":{"text":"34 m","value":34},"duration":{"text":"1 minute","value":34},"end_location":{"lat":48.839439,"lng":2.337123},"polyline":{"points":"k_biHwmgMz@G"},"start_location":{"lat":48.839744,"lng":2.33708},"travel_mode":"WALKING"}],"travel_mode":"WALKING"},{"distance":{"text":"1,2 km","value":1175},"duration":{"text":"5 minutes","value":300},"end_location":{"lat":48.836921,"lng":2.352631},"html_instructions":"Bus vers Bastille","polyline":{"points":"o}aiH_ngMvDyUvDmZfCum@"},"start_location":{"lat":48.839439,"lng":2.337123},"transit_details":{"arrival_stop":{"location":{"lat":48.836921,"lng":2.352631},"name":"Les Gobelins"},"arrival_time":{"text":"10:40","time_zone":"Europe/Paris","value":1472719200},"departure_stop":{"location":{"lat":48.839439,"lng":2.337123},"name":"Observatoire - Port Royal"},"departure_time":{"text":"10:35","time_zone":"Europe/Paris","value":1472718900},"headsign":"Bastille","line":{"agencies":[{"name":"STIF","url":"http://www.vianavigo.com/"}],"color":"#dc9600","short_name":"91","text_color":"#000000","vehicle":{"icon":"//maps.gstatic.com/mapfiles/transit/iw2/6/bus2.png","name":"Bus","type":"BUS"}},"num_stops":3},"travel_mode":"TRANSIT"},{"distance":{"text":"0,2 km","value":199},"duration":{"text":"2 minutes","value":144},"end_location":{"lat":48.8377748,"lng":2.3548511},"html_instructions":"Marcher jusqu'à 73 Boulevard Saint-Marcel, 75005 Paris, France","polyline":{"points":"wmaiH}njMEBQ_AK[SJEWGWGYS}@WmAQ}@]{A"},"start_location":{"lat":48.836921,"lng":2.352631},"steps":[{"distance":{"text":"38 m","value":38},"duration":{"text":"1 minute","value":27},"end_location":{"lat":48.8371013,"lng":2.3530677},"html_instructions":"Prendre la direction <b>nord-est</b> vers <b>Rue Michel Peter</b>","polyline":{"points":"wmaiH}njMEBQ_AK["},"start_location":{"lat":48.836921,"lng":2.352631},"travel_mode":"WALKING"},{"distance":{"text":"11 m","value":11},"duration":{"text":"1 minute","value":8},"end_location":{"lat":48.8371962,"lng":2.3530073},"html_instructions":"Prendre <b>à gauche</b> sur <b>Rue Michel Peter</b>","maneuver":"turn-left","polyline":{"points":"{naiHuqjMSJ"},"start_location":{"lat":48.8371013,"lng":2.3530677},"travel_mode":"WALKING"},{"distance":{"text":"0,2 km","value":150},"duration":{"text":"2 minutes","value":109},"end_location":{"lat":48.8377748,"lng":2.3548511},"html_instructions":"Prendre <b>à droite</b> sur <b>Boulevard Saint-Marcel</b><div style=\"font-size:0.9em\">Votre destination se trouvera sur la droite.</div>","maneuver":"turn-right","polyline":{"points":"ooaiHiqjMEWGWGYS}@WmAQ}@]{A"},"start_location":{"lat":48.8371962,"lng":2.3530073},"travel_mode":"WALKING"}],"travel_mode":"WALKING"}],"traffic_speed_entry":[],"via_waypoint":[]}],"overview_polyline":{"points":"ss`iHksfMyBh@GCAYA]CQr@DDqAeFpBeAG_AYa@SgA{@wCiC}@_AgHoHcAaAw@k@cAg@}@Y{@YsA[x@Bz@GvDyUvDmZfCum@EBQ_AK[SJMo@[wAgAgF"},"summary":"","warnings":["Le calcul d'itinéraires piétons est en bêta. Faites attention – Cet itinéraire n'est peut-être pas complètement aménagé pour les piétons."],"waypoint_order":[]},{"bounds":{"northeast":{"lat":48.840034,"lng":2.3548511},"southwest":{"lat":48.8327373,"lng":2.3326549}},"copyrights":"Données cartographiques ©2016 Google","legs":[{"arrival_time":{"text":"10:50","time_zone":"Europe/Paris","value":1472719824},"departure_time":{"text":"10:30","time_zone":"Europe/Paris","value":1472718637},"distance":{"text":"2,4 km","value":2425},"duration":{"text":"20 minutes","value":1187},"end_address":"73 Boulevard Saint-Marcel, 75005 Paris, France","end_location":{"lat":48.8377748,"lng":2.3548511},"start_address":"8 Avenue René Coty, 75014 Paris, France","start_location":{"lat":48.8327373,"lng":2.3328554},"steps":[{"distance":{"text":"0,3 km","value":266},"duration":{"text":"2 minutes","value":142},"end_location":{"lat":48.834293,"lng":2.332852},"html_instructions":"Marcher jusqu'à Denfert-Rochereau","polyline":{"points":"ss`iHksfMqBf@G@CACAAA?WAQ?K?C?CACAEl@BD@DqAeFpB"},"start_location":{"lat":48.8327373,"lng":2.3328554},"steps":[{"distance":{"text":"76 m","value":76},"duration":{"text":"1 minute","value":57},"end_location":{"lat":48.833403,"lng":2.3326754},"html_instructions":"Prendre la direction <b>nord</b> sur <b>Avenue René Coty</b> vers <b>Place Denfert-Rochereau</b>","polyline":{"points":"ss`iHksfMqBf@G@CACAAA"},"start_location":{"lat":48.8327373,"lng":2.3328554},"travel_mode":"WALKING"},{"distance":{"text":"27 m","value":27},"duration":{"text":"1 minute","value":26},"end_location":{"lat":48.8334291,"lng":2.3330449},"html_instructions":"Prendre <b>à droite</b> sur <b>Place Denfert-Rochereau</b>","maneuver":"turn-right","polyline":{"points":"ww`iHgrfM?WAQ?K?C?CACAE"},"start_location":{"lat":48.833403,"lng":2.3326754},"travel_mode":"WALKING"},{"distance":{"text":"29 m","value":29},"duration":{"text":"1 minute","value":25},"end_location":{"lat":48.833139,"lng":2.333416},"html_instructions":"Prendre <b>à droite</b> sur <b>Avenue René Coty</b><div style=\"font-size:0.9em\">Votre destination se trouvera sur la gauche.</div>","maneuver":"turn-right","polyline":{"points":"}w`iHotfMl@BD@DqA"},"start_location":{"lat":48.8334291,"lng":2.3330449},"travel_mode":"WALKING"},{"distance":{"text":"0,1 km","value":134},"duration":{"text":"1 minute","value":34},"end_location":{"lat":48.834293,"lng":2.332852},"polyline":{"points":"cv`iH{vfMeFpB"},"start_location":{"lat":48.833139,"lng":2.333416},"travel_mode":"WALKING"}],"travel_mode":"WALKING"},{"distance":{"text":"0,7 km","value":719},"duration":{"text":"2 minutes","value":120},"end_location":{"lat":48.840034,"lng":2.337096},"html_instructions":"RER vers Aéroport CDG Terminal 2 TGV","polyline":{"points":"i}`iHisfM]?g@G_AYa@S[Sk@g@kAaAkAgA}@}@?AuAuAyA{Ao@s@gAiAcAaAw@k@cAg@}@Y{@YsA["},"start_location":{"lat":48.834293,"lng":2.332852},"transit_details":{"arrival_stop":{"location":{"lat":48.840034,"lng":2.337096},"name":"Port-Royal"},"arrival_time":{"text":"10:35","time_zone":"Europe/Paris","value":1472718900},"departure_stop":{"location":{"lat":48.834293,"lng":2.332852},"name":"Denfert-Rochereau"},"departure_time":{"text":"10:33","time_zone":"Europe/Paris","value":1472718780},"headsign":"Aéroport CDG Terminal 2 TGV","line":{"agencies":[{"name":"STIF","url":"http://www.vianavigo.com/"}],"color":"#5092c9","short_name":"RER B","text_color":"#ffffff","vehicle":{"icon":"//maps.gstatic.com/mapfiles/transit/iw2/6/rail2.png","local_icon":"//maps.gstatic.com/mapfiles/transit/iw2/6/fr-paris-rail.png","name":"RER","type":"COMMUTER_TRAIN"}},"num_stops":1},"travel_mode":"TRANSIT"},{"distance":{"text":"66 m","value":66},"duration":{"text":"1 minute","value":65},"end_location":{"lat":48.839439,"lng":2.337123},"html_instructions":"Marcher jusqu'à Observatoire - Port Royal","polyline":{"points":"eabiH{mgMx@Bz@G"},"start_location":{"lat":48.840034,"lng":2.337096},"steps":[{"distance":{"text":"32 m","value":32},"duration":{"text":"1 minute","value":31},"end_location":{"lat":48.839744,"lng":2.33708},"polyline":{"points":"eabiH{mgMx@B"},"start_location":{"lat":48.840034,"lng":2.337096},"travel_mode":"WALKING"},{"distance":{"text":"34 m","value":34},"duration":{"text":"1 minute","value":34},"end_location":{"lat":48.839439,"lng":2.337123},"polyline":{"points":"k_biHwmgMz@G"},"start_location":{"lat":48.839744,"lng":2.33708},"travel_mode":"WALKING"}],"travel_mode":"WALKING"},{"distance":{"text":"1,2 km","value":1175},"duration":{"text":"5 minutes","value":300},"end_location":{"lat":48.836921,"lng":2.352631},"html_instructions":"Bus vers Bastille","polyline":{"points":"o}aiH_ngMvDyUvDmZfCum@"},"start_location":{"lat":48.839439,"lng":2.337123},"transit_details":{"arrival_stop":{"location":{"lat":48.836921,"lng":2.352631},"name":"Les Gobelins"},"arrival_time":{"text":"10:48","time_zone":"Europe/Paris","value":1472719680},"departure_stop":{"location":{"lat":48.839439,"lng":2.337123},"name":"Observatoire - Port Royal"},"departure_time":{"text":"10:43","time_zone":"Europe/Paris","value":1472719380},"headsign":"Bastille","line":{"agencies":[{"name":"STIF","url":"http://www.vianavigo.com/"}],"color":"#dc9600","short_name":"91","text_color":"#000000","vehicle":{"icon":"//maps.gstatic.com/mapfiles/transit/iw2/6/bus2.png","name":"Bus","type":"BUS"}},"num_stops":3},"travel_mode":"TRANSIT"},{"distance":{"text":"0,2 km","value":199},"duration":{"text":"2 minutes","value":144},"end_location":{"lat":48.8377748,"lng":2.3548511},"html_instructions":"Marcher jusqu'à 73 Boulevard Saint-Marcel, 75005 Paris, France","polyline":{"points":"wmaiH}njMEBQ_AK[SJEWGWGYS}@WmAQ}@]{A"},"start_location":{"lat":48.836921,"lng":2.352631},"steps":[{"distance":{"text":"38 m","value":38},"duration":{"text":"1 minute","value":27},"end_location":{"lat":48.8371013,"lng":2.3530677},"html_instructions":"Prendre la direction <b>nord-est</b> vers <b>Rue Michel Peter</b>","polyline":{"points":"wmaiH}njMEBQ_AK["},"start_location":{"lat":48.836921,"lng":2.352631},"travel_mode":"WALKING"},{"distance":{"text":"11 m","value":11},"duration":{"text":"1 minute","value":8},"end_location":{"lat":48.8371962,"lng":2.3530073},"html_instructions":"Prendre <b>à gauche</b> sur <b>Rue Michel Peter</b>","maneuver":"turn-left","polyline":{"points":"{naiHuqjMSJ"},"start_location":{"lat":48.8371013,"lng":2.3530677},"travel_mode":"WALKING"},{"distance":{"text":"0,2 km","value":150},"duration":{"text":"2 minutes","value":109},"end_location":{"lat":48.8377748,"lng":2.3548511},"html_instructions":"Prendre <b>à droite</b> sur <b>Boulevard Saint-Marcel</b><div style=\"font-size:0.9em\">Votre destination se trouvera sur la droite.</div>","maneuver":"turn-right","polyline":{"points":"ooaiHiqjMEWGWGYS}@WmAQ}@]{A"},"start_location":{"lat":48.8371962,"lng":2.3530073},"travel_mode":"WALKING"}],"travel_mode":"WALKING"}],"traffic_speed_entry":[],"via_waypoint":[]}],"overview_polyline":{"points":"ss`iHksfMyBh@GCAYA]CQr@DDqAeFpBeAG_AYa@SgA{@wCiC}@_AgHoHcAaAw@k@cAg@}@Y{@YsA[x@Bz@GvDyUvDmZfCum@EBQ_AK[SJMo@[wAgAgF"},"summary":"","warnings":["Le calcul d'itinéraires piétons est en bêta. Faites attention – Cet itinéraire n'est peut-être pas complètement aménagé pour les piétons."],"waypoint_order":[]},{"bounds":{"northeast":{"lat":48.840034,"lng":2.3548511},"southwest":{"lat":48.8327373,"lng":2.3326549}},"copyrights":"Données cartographiques ©2016 Google","legs":[{"arrival_time":{"text":"11:05","time_zone":"Europe/Paris","value":1472720753},"departure_time":{"text":"10:45","time_zone":"Europe/Paris","value":1472719537},"distance":{"text":"2,7 km","value":2726},"duration":{"text":"20 minutes","value":1216},"end_address":"73 Boulevard Saint-Marcel, 75005 Paris, France","end_location":{"lat":48.8377748,"lng":2.3548511},"start_address":"8 Avenue René Coty, 75014 Paris, France","start_location":{"lat":48.8327373,"lng":2.3328554},"steps":[{"distance":{"text":"0,3 km","value":266},"duration":{"text":"2 minutes","value":142},"end_location":{"lat":48.834293,"lng":2.332852},"html_instructions":"Marcher jusqu'à Denfert-Rochereau","polyline":{"points":"ss`iHksfMqBf@G@CACAAA?WAQ?K?C?CACAEl@BD@DqAeFpB"},"start_location":{"lat":48.8327373,"lng":2.3328554},"steps":[{"distance":{"text":"76 m","value":76},"duration":{"text":"1 minute","value":57},"end_location":{"lat":48.833403,"lng":2.3326754},"html_instructions":"Prendre la direction <b>nord</b> sur <b>Avenue René Coty</b> vers <b>Place Denfert-Rochereau</b>","polyline":{"points":"ss`iHksfMqBf@G@CACAAA"},"start_location":{"lat":48.8327373,"lng":2.3328554},"travel_mode":"WALKING"},{"distance":{"text":"27 m","value":27},"duration":{"text":"1 minute","value":26},"end_location":{"lat":48.8334291,"lng":2.3330449},"html_instructions":"Prendre <b>à droite</b> sur <b>Place Denfert-Rochereau</b>","maneuver":"turn-right","polyline":{"points":"ww`iHgrfM?WAQ?K?C?CACAE"},"start_location":{"lat":48.833403,"lng":2.3326754},"travel_mode":"WALKING"},{"distance":{"text":"29 m","value":29},"duration":{"text":"1 minute","value":25},"end_location":{"lat":48.833139,"lng":2.333416},"html_instructions":"Prendre <b>à droite</b> sur <b>Avenue René Coty</b><div style=\"font-size:0.9em\">Votre destination se trouvera sur la gauche.</div>","maneuver":"turn-right","polyline":{"points":"}w`iHotfMl@BD@DqA"},"start_location":{"lat":48.8334291,"lng":2.3330449},"travel_mode":"WALKING"},{"distance":{"text":"0,1 km","value":134},"duration":{"text":"1 minute","value":34},"end_location":{"lat":48.834293,"lng":2.332852},"polyline":{"points":"cv`iH{vfMeFpB"},"start_location":{"lat":48.833139,"lng":2.333416},"travel_mode":"WALKING"}],"travel_mode":"WALKING"},{"distance":{"text":"0,7 km","value":719},"duration":{"text":"2 minutes","value":120},"end_location":{"lat":48.840034,"lng":2.337096},"html_instructions":"RER vers Aéroport CDG Terminal 2 TGV","polyline":{"points":"i}`iHisfM]?g@G_AYa@S[Sk@g@kAaAkAgA}@}@?AuAuAyA{Ao@s@gAiAcAaAw@k@cAg@}@Y{@YsA["},"start_location":{"lat":48.834293,"lng":2.332852},"transit_details":{"arrival_stop":{"location":{"lat":48.840034,"lng":2.337096},"name":"Port-Royal"},"arrival_time":{"text":"10:50","time_zone":"Europe/Paris","value":1472719800},"departure_stop":{"location":{"lat":48.834293,"lng":2.332852},"name":"Denfert-Rochereau"},"departure_time":{"text":"10:48","time_zone":"Europe/Paris","value":1472719680},"headsign":"Aéroport CDG Terminal 2 TGV","line":{"agencies":[{"name":"STIF","url":"http://www.vianavigo.com/"}],"color":"#5092c9","short_name":"RER B","text_color":"#ffffff","vehicle":{"icon":"//maps.gstatic.com/mapfiles/transit/iw2/6/rail2.png","local_icon":"//maps.gstatic.com/mapfiles/transit/iw2/6/fr-paris-rail.png","name":"RER","type":"COMMUTER_TRAIN"}},"num_stops":1},"travel_mode":"TRANSIT"},{"distance":{"text":"66 m","value":66},"duration":{"text":"1 minute","value":65},"end_location":{"lat":48.839439,"lng":2.337123},"html_instructions":"Marcher jusqu'à Observatoire - Port Royal","polyline":{"points":"eabiH{mgMx@Bz@G"},"start_location":{"lat":48.840034,"lng":2.337096},"steps":[{"distance":{"text":"32 m","value":32},"duration":{"text":"1 minute","value":31},"end_location":{"lat":48.839744,"lng":2.33708},"polyline":{"points":"eabiH{mgMx@B"},"start_location":{"lat":48.840034,"lng":2.337096},"travel_mode":"WALKING"},{"distance":{"text":"34 m","value":34},"duration":{"text":"1 minute","value":34},"end_location":{"lat":48.839439,"lng":2.337123},"polyline":{"points":"k_biHwmgMz@G"},"start_location":{"lat":48.839744,"lng":2.33708},"travel_mode":"WALKING"}],"travel_mode":"WALKING"},{"distance":{"text":"1,4 km","value":1375},"duration":{"text":"6 minutes","value":360},"end_location":{"lat":48.83649,"lng":2.351228},"html_instructions":"Bus vers Porte d'Ivry","polyline":{"points":"o}aiH_ngMvDyUnFg[fN[qBgOoE_S"},"start_location":{"lat":48.839439,"lng":2.337123},"transit_details":{"arrival_stop":{"location":{"lat":48.83649,"lng":2.351228},"name":"Les Gobelins"},"arrival_time":{"text":"11:02","time_zone":"Europe/Paris","value":1472720520},"departure_stop":{"location":{"lat":48.839439,"lng":2.337123},"name":"Observatoire - Port Royal"},"departure_time":{"text":"10:56","time_zone":"Europe/Paris","value":1472720160},"headsign":"Porte d'Ivry","line":{"agencies":[{"name":"STIF","url":"http://www.vianavigo.com/"}],"color":"#ffb300","short_name":"83","text_color":"#000000","vehicle":{"icon":"//maps.gstatic.com/mapfiles/transit/iw2/6/bus2.png","name":"Bus","type":"BUS"}},"num_stops":5},"travel_mode":"TRANSIT"},{"distance":{"text":"0,3 km","value":300},"duration":{"text":"4 minutes","value":233},"end_location":{"lat":48.8377748,"lng":2.3548511},"html_instructions":"Marcher jusqu'à 73 Boulevard Saint-Marcel, 75005 Paris, France","polyline":{"points":"akaiHefjMIBk@cCa@uAOUQw@S_AEWGWGYS}@WmAQ}@]{A"},"start_location":{"lat":48.83649,"lng":2.351228},"steps":[{"distance":{"text":"54 m","value":54},"duration":{"text":"1 minute","value":40},"end_location":{"lat":48.8367623,"lng":2.3518696},"html_instructions":"Prendre la direction <b>nord-est</b> sur <b>Boulevard Arago</b> vers <b>Avenue des Gobelins</b>","polyline":{"points":"akaiHefjMIBk@cC"},"start_location":{"lat":48.83649,"lng":2.351228},"travel_mode":"WALKING"},{"distance":{"text":"0,2 km","value":246},"duration":{"text":"3 minutes","value":193},"end_location":{"lat":48.8377748,"lng":2.3548511},"html_instructions":"Continuer sur <b>Boulevard Saint-Marcel</b><div style=\"font-size:0.9em\">Votre destination se trouvera sur la droite.</div>","polyline":{"points":"wlaiHejjMa@uAOUQw@S_AEWGWGYS}@WmAQ}@]{A"},"start_location":{"lat":48.8367623,"lng":2.3518696},"travel_mode":"WALKING"}],"travel_mode":"WALKING"}],"traffic_speed_entry":[],"via_waypoint":[]}],"overview_polyline":{"points":"ss`iHksfMyBh@GCAYA]CQr@DDqAeFpBeAG_AYa@SgA{@wCiC}@_AgHoHcAaAw@k@cAg@}@Y{@YsA[x@Bz@GvDyUnFg[fN[qBgOoE_SIBk@cCa@uAOUe@wBi@gCgAgF"},"summary":"","warnings":["Le calcul d'itinéraires piétons est en bêta. Faites attention – Cet itinéraire n'est peut-être pas complètement aménagé pour les piétons."],"waypoint_order":[]}],"status":"OK"}},null,{"origin":{"lat":2.255132753344174,"lng":48.84490795281926},"taff":{"geocoded_waypoints":[{"geocoder_status":"OK","place_id":"EjEyIEF2ZW51ZSBkZSBsYSBQb3J0ZSBNb2xpdG9yLCA3NTAxNiBQYXJpcywgRnJhbmNl","types":["route","street_address"]},{"geocoder_status":"OK","place_id":"ChIJc5sm28pv5kcR0cpsawDOfSg","types":["street_address"]}],"routes":[{"bounds":{"northeast":{"lat":48.8751359,"lng":2.3229451},"southwest":{"lat":48.8451953,"lng":2.255127}},"copyrights":"Données cartographiques ©2016 Google","legs":[{"arrival_time":{"text":"10:41","time_zone":"Europe/Paris","value":1472719285},"departure_time":{"text":"10:03","time_zone":"Europe/Paris","value":1472717027},"distance":{"text":"6,9 km","value":6926},"duration":{"text":"38 minutes","value":2258},"end_address":"73 Rue d'Anjou, 75008 Paris, France","end_location":{"lat":48.8748221,"lng":2.3228933},"start_address":"2 Avenue de la Porte Molitor, 75016 Paris, France","start_location":{"lat":48.8451953,"lng":2.255127},"steps":[{"distance":{"text":"0,4 km","value":379},"duration":{"text":"5 minutes","value":316},"end_location":{"lat":48.847394,"lng":2.257895},"html_instructions":"Marcher jusqu'à Porte d'Auteuil","polyline":{"points":"oaciHqmwL?gAKy@]Os@a@CAg@QSGo@Qc@IOCSGSGo@W_@USOSQGG]]@[@wCL?"},"start_location":{"lat":48.8451953,"lng":2.255127},"steps":[{"distance":{"text":"49 m","value":49},"duration":{"text":"1 minute","value":45},"end_location":{"lat":48.8452628,"lng":2.2557804},"html_instructions":"Prendre la direction <b>est</b> sur <b>Avenue de la Porte Molitor</b> vers <b>Avenue du Général Sarrail</b>","polyline":{"points":"oaciHqmwL?gAKy@"},"start_location":{"lat":48.8451953,"lng":2.255127},"travel_mode":"WALKING"},{"distance":{"text":"0,3 km","value":264},"duration":{"text":"4 minutes","value":216},"end_location":{"lat":48.8474807,"lng":2.257001},"html_instructions":"Prendre <b>à gauche</b> sur <b>Avenue du Général Sarrail</b>","maneuver":"turn-left","polyline":{"points":"{aciHsqwL]Os@a@CAg@QSGo@Qc@IOCSGSGo@W_@USOSQGG]]"},"start_location":{"lat":48.8452628,"lng":2.2557804},"travel_mode":"WALKING"},{"distance":{"text":"66 m","value":66},"duration":{"text":"1 minute","value":55},"end_location":{"lat":48.847394,"lng":2.257895},"html_instructions":"Prendre <b>à droite</b> sur <b>Place de la Porte d'Auteuil</b><div style=\"font-size:0.9em\">Votre destination se trouvera sur la droite.</div>","maneuver":"turn-right","polyline":{"points":"wociHgywL@[@wCL?"},"start_location":{"lat":48.8474807,"lng":2.257001},"travel_mode":"WALKING"}],"travel_mode":"WALKING"},{"distance":{"text":"6,4 km","value":6354},"duration":{"text":"30 minutes","value":1800},"end_location":{"lat":48.874866,"lng":2.320814},"html_instructions":"Bus vers Gare de l'Est","polyline":{"points":"eociH{~wLaE{GgKqEuNuHeY_PkKeQrDwe@J{IXqJ`@kQyBkVuJqJsP{MwCkPuG_XmJqU_HcQkJmX`Dub@wUkTqGd@mAcf@"},"start_location":{"lat":48.847394,"lng":2.257895},"transit_details":{"arrival_stop":{"location":{"lat":48.874866,"lng":2.320814},"name":"Saint-Augustin"},"arrival_time":{"text":"10:39","time_zone":"Europe/Paris","value":1472719140},"departure_stop":{"location":{"lat":48.847394,"lng":2.257895},"name":"Porte d'Auteuil"},"departure_time":{"text":"10:09","time_zone":"Europe/Paris","value":1472717340},"headsign":"Gare de l'Est","line":{"agencies":[{"name":"STIF","url":"http://www.vianavigo.com/"}],"color":"#6e6e00","short_name":"32","text_color":"#ffffff","vehicle":{"icon":"//maps.gstatic.com/mapfiles/transit/iw2/6/bus2.png","name":"Bus","type":"BUS"}},"num_stops":21},"travel_mode":"TRANSIT"},{"distance":{"text":"0,2 km","value":193},"duration":{"text":"2 minutes","value":144},"end_location":{"lat":48.8748221,"lng":2.3228933},"html_instructions":"Marcher jusqu'à 73 Rue d'Anjou, 75008 Paris, France","polyline":{"points":"}zhiHahdMQ@c@kLRAf@HB@"},"start_location":{"lat":48.874866,"lng":2.320814},"steps":[{"distance":{"text":"0,2 km","value":158},"duration":{"text":"2 minutes","value":112},"end_location":{"lat":48.8751359,"lng":2.3229397},"html_instructions":"Prendre la direction <b>est</b> sur <b>Rue de la Pépinière</b> vers <b>Rue d'Anjou</b>","polyline":{"points":"}zhiHahdMQ@c@kL"},"start_location":{"lat":48.874866,"lng":2.320814},"travel_mode":"WALKING"},{"distance":{"text":"35 m","value":35},"duration":{"text":"1 minute","value":32},"end_location":{"lat":48.8748221,"lng":2.3228933},"html_instructions":"Prendre <b>à droite</b> sur <b>Rue d'Anjou</b><div style=\"font-size:0.9em\">Votre destination se trouvera sur la droite.</div>","maneuver":"turn-right","polyline":{"points":"s|hiHkudMRAf@HB@"},"start_location":{"lat":48.8751359,"lng":2.3229397},"travel_mode":"WALKING"}],"travel_mode":"WALKING"}],"traffic_speed_entry":[],"via_waypoint":[]}],"overview_polyline":{"points":"oaciHqmwL?gAKy@qAq@oBm@s@Mg@Oo@W_@Ug@a@e@e@BsDL?aE{GgKqEuNuHeY_PkKeQrDwe@J{IXqJ`@kQyBkVuJqJsP{MwCkPuG_XmJqU_HcQkJmX`Dub@wUkTqGd@mAcf@Q@c@kLRAf@HB@"},"summary":"","warnings":["Le calcul d'itinéraires piétons est en bêta. Faites attention – Cet itinéraire n'est peut-être pas complètement aménagé pour les piétons."],"waypoint_order":[]},{"bounds":{"northeast":{"lat":48.8751359,"lng":2.3229451},"southwest":{"lat":48.8451953,"lng":2.255127}},"copyrights":"Données cartographiques ©2016 Google","legs":[{"arrival_time":{"text":"10:51","time_zone":"Europe/Paris","value":1472719885},"departure_time":{"text":"10:13","time_zone":"Europe/Paris","value":1472717627},"distance":{"text":"6,9 km","value":6926},"duration":{"text":"38 minutes","value":2258},"end_address":"73 Rue d'Anjou, 75008 Paris, France","end_location":{"lat":48.8748221,"lng":2.3228933},"start_address":"2 Avenue de la Porte Molitor, 75016 Paris, France","start_location":{"lat":48.8451953,"lng":2.255127},"steps":[{"distance":{"text":"0,4 km","value":379},"duration":{"text":"5 minutes","value":316},"end_location":{"lat":48.847394,"lng":2.257895},"html_instructions":"Marcher jusqu'à Porte d'Auteuil","polyline":{"points":"oaciHqmwL?gAKy@]Os@a@CAg@QSGo@Qc@IOCSGSGo@W_@USOSQGG]]@[@wCL?"},"start_location":{"lat":48.8451953,"lng":2.255127},"steps":[{"distance":{"text":"49 m","value":49},"duration":{"text":"1 minute","value":45},"end_location":{"lat":48.8452628,"lng":2.2557804},"html_instructions":"Prendre la direction <b>est</b> sur <b>Avenue de la Porte Molitor</b> vers <b>Avenue du Général Sarrail</b>","polyline":{"points":"oaciHqmwL?gAKy@"},"start_location":{"lat":48.8451953,"lng":2.255127},"travel_mode":"WALKING"},{"distance":{"text":"0,3 km","value":264},"duration":{"text":"4 minutes","value":216},"end_location":{"lat":48.8474807,"lng":2.257001},"html_instructions":"Prendre <b>à gauche</b> sur <b>Avenue du Général Sarrail</b>","maneuver":"turn-left","polyline":{"points":"{aciHsqwL]Os@a@CAg@QSGo@Qc@IOCSGSGo@W_@USOSQGG]]"},"start_location":{"lat":48.8452628,"lng":2.2557804},"travel_mode":"WALKING"},{"distance":{"text":"66 m","value":66},"duration":{"text":"1 minute","value":55},"end_location":{"lat":48.847394,"lng":2.257895},"html_instructions":"Prendre <b>à droite</b> sur <b>Place de la Porte d'Auteuil</b><div style=\"font-size:0.9em\">Votre destination se trouvera sur la droite.</div>","maneuver":"turn-right","polyline":{"points":"wociHgywL@[@wCL?"},"start_location":{"lat":48.8474807,"lng":2.257001},"travel_mode":"WALKING"}],"travel_mode":"WALKING"},{"distance":{"text":"6,4 km","value":6354},"duration":{"text":"30 minutes","value":1800},"end_location":{"lat":48.874866,"lng":2.320814},"html_instructions":"Bus vers Gare de l'Est","polyline":{"points":"eociH{~wLaE{GgKqEuNuHeY_PkKeQrDwe@J{IXqJ`@kQyBkVuJqJsP{MwCkPuG_XmJqU_HcQkJmX`Dub@wUkTqGd@mAcf@"},"start_location":{"lat":48.847394,"lng":2.257895},"transit_details":{"arrival_stop":{"location":{"lat":48.874866,"lng":2.320814},"name":"Saint-Augustin"},"arrival_time":{"text":"10:49","time_zone":"Europe/Paris","value":1472719740},"departure_stop":{"location":{"lat":48.847394,"lng":2.257895},"name":"Porte d'Auteuil"},"departure_time":{"text":"10:19","time_zone":"Europe/Paris","value":1472717940},"headsign":"Gare de l'Est","line":{"agencies":[{"name":"STIF","url":"http://www.vianavigo.com/"}],"color":"#6e6e00","short_name":"32","text_color":"#ffffff","vehicle":{"icon":"//maps.gstatic.com/mapfiles/transit/iw2/6/bus2.png","name":"Bus","type":"BUS"}},"num_stops":21},"travel_mode":"TRANSIT"},{"distance":{"text":"0,2 km","value":193},"duration":{"text":"2 minutes","value":144},"end_location":{"lat":48.8748221,"lng":2.3228933},"html_instructions":"Marcher jusqu'à 73 Rue d'Anjou, 75008 Paris, France","polyline":{"points":"}zhiHahdMQ@c@kLRAf@HB@"},"start_location":{"lat":48.874866,"lng":2.320814},"steps":[{"distance":{"text":"0,2 km","value":158},"duration":{"text":"2 minutes","value":112},"end_location":{"lat":48.8751359,"lng":2.3229397},"html_instructions":"Prendre la direction <b>est</b> sur <b>Rue de la Pépinière</b> vers <b>Rue d'Anjou</b>","polyline":{"points":"}zhiHahdMQ@c@kL"},"start_location":{"lat":48.874866,"lng":2.320814},"travel_mode":"WALKING"},{"distance":{"text":"35 m","value":35},"duration":{"text":"1 minute","value":32},"end_location":{"lat":48.8748221,"lng":2.3228933},"html_instructions":"Prendre <b>à droite</b> sur <b>Rue d'Anjou</b><div style=\"font-size:0.9em\">Votre destination se trouvera sur la droite.</div>","maneuver":"turn-right","polyline":{"points":"s|hiHkudMRAf@HB@"},"start_location":{"lat":48.8751359,"lng":2.3229397},"travel_mode":"WALKING"}],"travel_mode":"WALKING"}],"traffic_speed_entry":[],"via_waypoint":[]}],"overview_polyline":{"points":"oaciHqmwL?gAKy@qAq@oBm@s@Mg@Oo@W_@Ug@a@e@e@BsDL?aE{GgKqEuNuHeY_PkKeQrDwe@J{IXqJ`@kQyBkVuJqJsP{MwCkPuG_XmJqU_HcQkJmX`Dub@wUkTqGd@mAcf@Q@c@kLRAf@HB@"},"summary":"","warnings":["Le calcul d'itinéraires piétons est en bêta. Faites attention – Cet itinéraire n'est peut-être pas complètement aménagé pour les piétons."],"waypoint_order":[]},{"bounds":{"northeast":{"lat":48.88135399999999,"lng":2.3229451},"southwest":{"lat":48.844931,"lng":2.255127}},"copyrights":"Données cartographiques ©2016 Google","legs":[{"arrival_time":{"text":"10:35","time_zone":"Europe/Paris","value":1472718925},"departure_time":{"text":"10:03","time_zone":"Europe/Paris","value":1472716981},"distance":{"text":"7,9 km","value":7868},"duration":{"text":"32 minutes","value":1944},"end_address":"73 Rue d'Anjou, 75008 Paris, France","end_location":{"lat":48.8748221,"lng":2.3228933},"start_address":"2 Avenue de la Porte Molitor, 75016 Paris, France","start_location":{"lat":48.8451953,"lng":2.255127},"steps":[{"distance":{"text":"0,2 km","value":213},"duration":{"text":"3 minutes","value":178},"end_location":{"lat":48.844931,"lng":2.25749},"html_instructions":"Marcher jusqu'à Porte Molitor","polyline":{"points":"oaciHqmwL?gAKy@W}ADiFp@JF@@?B?@?DCJW"},"start_location":{"lat":48.8451953,"lng":2.255127},"steps":[{"distance":{"text":"86 m","value":86},"duration":{"text":"1 minute","value":76},"end_location":{"lat":48.845377,"lng":2.2562531},"html_instructions":"Prendre la direction <b>est</b> sur <b>Avenue de la Porte Molitor</b> vers <b>Avenue du Général Sarrail</b>","polyline":{"points":"oaciHqmwL?gAKy@W}A"},"start_location":{"lat":48.8451953,"lng":2.255127},"travel_mode":"WALKING"},{"distance":{"text":"86 m","value":86},"duration":{"text":"1 minute","value":68},"end_location":{"lat":48.8453489,"lng":2.2574226},"html_instructions":"Continuer sur <b>Place de la Porte Molitor</b>","polyline":{"points":"sbciHqtwLDiF"},"start_location":{"lat":48.845377,"lng":2.2562531},"travel_mode":"WALKING"},{"distance":{"text":"41 m","value":41},"duration":{"text":"1 minute","value":34},"end_location":{"lat":48.844931,"lng":2.25749},"html_instructions":"Prendre <b>à droite</b> sur <b>Boulevard Murat</b>/<b>Boulevards des Maréchaux</b>","maneuver":"turn-right","polyline":{"points":"mbciH{{wLp@JF@@?B?@?DCJW"},"start_location":{"lat":48.8453489,"lng":2.2574226},"travel_mode":"WALKING"}],"travel_mode":"WALKING"},{"distance":{"text":"4,6 km","value":4603},"duration":{"text":"14 minutes","value":840},"end_location":{"lat":48.88135399999999,"lng":2.285029},"html_instructions":"Bus vers Porte de Champerret","polyline":{"points":"y_ciHi|wLcOkGqPsHuNuHeY_PkVyMoNoJkQeOkLgJqNmKaYiX{GaS{LsA_FKaI{K"},"start_location":{"lat":48.844931,"lng":2.25749},"transit_details":{"arrival_stop":{"location":{"lat":48.88135399999999,"lng":2.285029},"name":"Général Koening - Palais des Congrès"},"arrival_time":{"text":"10:20","time_zone":"Europe/Paris","value":1472718000},"departure_stop":{"location":{"lat":48.844931,"lng":2.25749},"name":"Porte Molitor"},"departure_time":{"text":"10:06","time_zone":"Europe/Paris","value":1472717160},"headsign":"Porte de Champerret","line":{"agencies":[{"name":"STIF","url":"http://www.vianavigo.com/"}],"color":"#640082","short_name":"PC1","text_color":"#ffffff","vehicle":{"icon":"//maps.gstatic.com/mapfiles/transit/iw2/6/bus2.png","name":"Bus","type":"BUS"}},"num_stops":14},"travel_mode":"TRANSIT"},{"distance":{"text":"73 m","value":73},"duration":{"text":"1 minute","value":64},"end_location":{"lat":48.880743,"lng":2.284634},"html_instructions":"Marcher jusqu'à Général Koenig - Palais des Congrès","polyline":{"points":"mcjiHmh}LxBnA"},"start_location":{"lat":48.88135399999999,"lng":2.285029},"steps":[{"distance":{"text":"73 m","value":73},"duration":{"text":"1 minute","value":64},"end_location":{"lat":48.880743,"lng":2.284634},"polyline":{"points":"mcjiHmh}LxBnA"},"start_location":{"lat":48.88135399999999,"lng":2.285029},"travel_mode":"WALKING"}],"travel_mode":"WALKING"},{"distance":{"text":"2,8 km","value":2786},"duration":{"text":"11 minutes","value":660},"end_location":{"lat":48.874866,"lng":2.320814},"html_instructions":"Bus vers Gare du Nord","polyline":{"points":"s_jiH}e}LzCwSrCoS~CqTlDoWxCiMlKy`@]iTg@}]t@me@"},"start_location":{"lat":48.880743,"lng":2.284634},"transit_details":{"arrival_stop":{"location":{"lat":48.874866,"lng":2.320814},"name":"Saint-Augustin"},"arrival_time":{"text":"10:33","time_zone":"Europe/Paris","value":1472718780},"departure_stop":{"location":{"lat":48.880743,"lng":2.284634},"name":"Général Koenig - Palais des Congrès"},"departure_time":{"text":"10:22","time_zone":"Europe/Paris","value":1472718120},"headsign":"Gare du Nord","line":{"agencies":[{"name":"STIF","url":"http://www.vianavigo.com/"}],"color":"#f21300","short_name":"43","text_color":"#ffffff","vehicle":{"icon":"//maps.gstatic.com/mapfiles/transit/iw2/6/bus2.png","name":"Bus","type":"BUS"}},"num_stops":9},"travel_mode":"TRANSIT"},{"distance":{"text":"0,2 km","value":193},"duration":{"text":"2 minutes","value":144},"end_location":{"lat":48.8748221,"lng":2.3228933},"html_instructions":"Marcher jusqu'à 73 Rue d'Anjou, 75008 Paris, France","polyline":{"points":"}zhiHahdMQ@c@kLRAf@HB@"},"start_location":{"lat":48.874866,"lng":2.320814},"steps":[{"distance":{"text":"0,2 km","value":158},"duration":{"text":"2 minutes","value":112},"end_location":{"lat":48.8751359,"lng":2.3229397},"html_instructions":"Prendre la direction <b>est</b> sur <b>Rue de la Pépinière</b> vers <b>Rue d'Anjou</b>","polyline":{"points":"}zhiHahdMQ@c@kL"},"start_location":{"lat":48.874866,"lng":2.320814},"travel_mode":"WALKING"},{"distance":{"text":"35 m","value":35},"duration":{"text":"1 minute","value":32},"end_location":{"lat":48.8748221,"lng":2.3228933},"html_instructions":"Prendre <b>à droite</b> sur <b>Rue d'Anjou</b><div style=\"font-size:0.9em\">Votre destination se trouvera sur la droite.</div>","maneuver":"turn-right","polyline":{"points":"s|hiHkudMRAf@HB@"},"start_location":{"lat":48.8751359,"lng":2.3229397},"travel_mode":"WALKING"}],"travel_mode":"WALKING"}],"traffic_speed_entry":[],"via_waypoint":[]}],"overview_polyline":{"points":"oaciHqmwL?gAKy@W}ADiFx@LD?FCJWcOkGqPsHuNuHeY_PkVyMoNoJkQeOkLgJqNmKaYiX{GaS{LsA_FKaI{KxBnAnHgh@~CqTlDoWxCiMlKy`@eAgs@t@me@Q@c@kLRAj@J"},"summary":"","warnings":["Le calcul d'itinéraires piétons est en bêta. Faites attention – Cet itinéraire n'est peut-être pas complètement aménagé pour les piétons."],"waypoint_order":[]},{"bounds":{"northeast":{"lat":48.8751359,"lng":2.3229451},"southwest":{"lat":48.8451953,"lng":2.255127}},"copyrights":"Données cartographiques ©2016 Google","legs":[{"arrival_time":{"text":"10:50","time_zone":"Europe/Paris","value":1472719825},"departure_time":{"text":"10:09","time_zone":"Europe/Paris","value":1472717353},"distance":{"text":"7,1 km","value":7115},"duration":{"text":"41 minutes","value":2472},"end_address":"73 Rue d'Anjou, 75008 Paris, France","end_location":{"lat":48.8748221,"lng":2.3228933},"start_address":"2 Avenue de la Porte Molitor, 75016 Paris, France","start_location":{"lat":48.8451953,"lng":2.255127},"steps":[{"distance":{"text":"0,1 km","value":111},"duration":{"text":"2 minutes","value":105},"end_location":{"lat":48.845766,"lng":2.256168},"html_instructions":"Marcher jusqu'à Porte Molitor","polyline":{"points":"oaciHqmwL?gAKy@]Os@a@CAQG@Q"},"start_location":{"lat":48.8451953,"lng":2.255127},"steps":[{"distance":{"text":"49 m","value":49},"duration":{"text":"1 minute","value":45},"end_location":{"lat":48.8452628,"lng":2.2557804},"html_instructions":"Prendre la direction <b>est</b> sur <b>Avenue de la Porte Molitor</b> vers <b>Avenue du Général Sarrail</b>","polyline":{"points":"oaciHqmwL?gAKy@"},"start_location":{"lat":48.8451953,"lng":2.255127},"travel_mode":"WALKING"},{"distance":{"text":"62 m","value":62},"duration":{"text":"1 minute","value":60},"end_location":{"lat":48.845766,"lng":2.256168},"html_instructions":"Prendre <b>à gauche</b> sur <b>Avenue du Général Sarrail</b><div style=\"font-size:0.9em\">Votre destination se trouvera sur la droite.</div>","maneuver":"turn-left","polyline":{"points":"{aciHsqwL]Os@a@CAQG@Q"},"start_location":{"lat":48.8452628,"lng":2.2557804},"travel_mode":"WALKING"}],"travel_mode":"WALKING"},{"distance":{"text":"2,2 km","value":2153},"duration":{"text":"11 minutes","value":660},"end_location":{"lat":48.855715,"lng":2.270576},"html_instructions":"Bus vers Opera Rue de la Paix","polyline":{"points":"aeciHatwLcIuJyA}ND_[a@e\\gIsJmNsK_HtRuLU"},"start_location":{"lat":48.845766,"lng":2.256168},"transit_details":{"arrival_stop":{"location":{"lat":48.855715,"lng":2.270576},"name":"Ranelagh"},"arrival_time":{"text":"10:22","time_zone":"Europe/Paris","value":1472718120},"departure_stop":{"location":{"lat":48.845766,"lng":2.256168},"name":"Porte Molitor"},"departure_time":{"text":"10:11","time_zone":"Europe/Paris","value":1472717460},"headsign":"Opera Rue de la Paix","line":{"agencies":[{"name":"STIF","url":"http://www.vianavigo.com/"}],"color":"#80deea","short_name":"52","text_color":"#000000","vehicle":{"icon":"//maps.gstatic.com/mapfiles/transit/iw2/6/bus2.png","name":"Bus","type":"BUS"}},"num_stops":8},"travel_mode":"TRANSIT"},{"distance":{"text":"4,7 km","value":4658},"duration":{"text":"19 minutes","value":1140},"end_location":{"lat":48.874866,"lng":2.320814},"html_instructions":"Bus vers Opera","polyline":{"points":"gceiHcnzLwL}UsFiSsC{OsFuVwQuYqPoKoNqJqTcN_EuK}B}a@gA}X]iT]oVj@{l@"},"start_location":{"lat":48.855715,"lng":2.270576},"transit_details":{"arrival_stop":{"location":{"lat":48.874866,"lng":2.320814},"name":"Saint-Augustin"},"arrival_time":{"text":"10:48","time_zone":"Europe/Paris","value":1472719680},"departure_stop":{"location":{"lat":48.855715,"lng":2.270576},"name":"Ranelagh"},"departure_time":{"text":"10:29","time_zone":"Europe/Paris","value":1472718540},"headsign":"Opera","line":{"agencies":[{"name":"STIF","url":"http://www.vianavigo.com/"}],"color":"#004d40","short_name":"22","text_color":"#ffffff","vehicle":{"icon":"//maps.gstatic.com/mapfiles/transit/iw2/6/bus2.png","name":"Bus","type":"BUS"}},"num_stops":14},"travel_mode":"TRANSIT"},{"distance":{"text":"0,2 km","value":193},"duration":{"text":"2 minutes","value":144},"end_location":{"lat":48.8748221,"lng":2.3228933},"html_instructions":"Marcher jusqu'à 73 Rue d'Anjou, 75008 Paris, France","polyline":{"points":"}zhiHahdMQ@c@kLRAf@HB@"},"start_location":{"lat":48.874866,"lng":2.320814},"steps":[{"distance":{"text":"0,2 km","value":158},"duration":{"text":"2 minutes","value":112},"end_location":{"lat":48.8751359,"lng":2.3229397},"html_instructions":"Prendre la direction <b>est</b> sur <b>Rue de la Pépinière</b> vers <b>Rue d'Anjou</b>","polyline":{"points":"}zhiHahdMQ@c@kL"},"start_location":{"lat":48.874866,"lng":2.320814},"travel_mode":"WALKING"},{"distance":{"text":"35 m","value":35},"duration":{"text":"1 minute","value":32},"end_location":{"lat":48.8748221,"lng":2.3228933},"html_instructions":"Prendre <b>à droite</b> sur <b>Rue d'Anjou</b><div style=\"font-size:0.9em\">Votre destination se trouvera sur la droite.</div>","maneuver":"turn-right","polyline":{"points":"s|hiHkudMRAf@HB@"},"start_location":{"lat":48.8751359,"lng":2.3229397},"travel_mode":"WALKING"}],"travel_mode":"WALKING"}],"traffic_speed_entry":[],"via_waypoint":[]}],"overview_polyline":{"points":"oaciHqmwL?gAKy@qAq@UI@QcIuJyA}ND_[a@e\\gIsJmNsK_HtRuLUwL}UsFiSsC{OsFuVwQuYqPoKoNqJqTcN_EuK}B}a@gA}X{@yk@j@{l@Q@c@kLRAj@J"},"summary":"","warnings":["Le calcul d'itinéraires piétons est en bêta. Faites attention – Cet itinéraire n'est peut-être pas complètement aménagé pour les piétons."],"waypoint_order":[]}],"status":"OK"},"gobs":{"geocoded_waypoints":[{"geocoder_status":"OK","place_id":"EjEyIEF2ZW51ZSBkZSBsYSBQb3J0ZSBNb2xpdG9yLCA3NTAxNiBQYXJpcywgRnJhbmNl","types":["route","street_address"]},{"geocoder_status":"OK","place_id":"ChIJS8pekPJx5kcRxS0S3NXQsW4","types":["street_address"]}],"routes":[{"bounds":{"northeast":{"lat":48.847811,"lng":2.359275},"southwest":{"lat":48.82575,"lng":2.255127}},"copyrights":"Données cartographiques ©2016 Google","legs":[{"arrival_time":{"text":"11:05","time_zone":"Europe/Paris","value":1472720741},"departure_time":{"text":"10:06","time_zone":"Europe/Paris","value":1472717182},"distance":{"text":"9,7 km","value":9702},"duration":{"text":"59 minutes","value":3559},"end_address":"73 Boulevard Saint-Marcel, 75005 Paris, France","end_location":{"lat":48.8377748,"lng":2.3548511},"start_address":"2 Avenue de la Porte Molitor, 75016 Paris, France","start_location":{"lat":48.8451953,"lng":2.255127},"steps":[{"distance":{"text":"0,5 km","value":537},"duration":{"text":"8 minutes","value":457},"end_location":{"lat":48.84551800000001,"lng":2.262201},"html_instructions":"Marcher jusqu'à Michel-Ange - Molitor","polyline":{"points":"oaciHqmwL?gAKy@W}ADiF@i@BaD?k@?c@FgIFwG{@q@BM"},"start_location":{"lat":48.8451953,"lng":2.255127},"steps":[{"distance":{"text":"86 m","value":86},"duration":{"text":"1 minute","value":76},"end_location":{"lat":48.845377,"lng":2.2562531},"html_instructions":"Prendre la direction <b>est</b> sur <b>Avenue de la Porte Molitor</b> vers <b>Avenue du Général Sarrail</b>","polyline":{"points":"oaciHqmwL?gAKy@W}A"},"start_location":{"lat":48.8451953,"lng":2.255127},"travel_mode":"WALKING"},{"distance":{"text":"0,1 km","value":101},"duration":{"text":"1 minute","value":88},"end_location":{"lat":48.8453419,"lng":2.2576303},"html_instructions":"Continuer sur <b>Place de la Porte Molitor</b>","polyline":{"points":"sbciHqtwLDiF@i@"},"start_location":{"lat":48.845377,"lng":2.2562531},"travel_mode":"WALKING"},{"distance":{"text":"0,3 km","value":312},"duration":{"text":"4 minutes","value":260},"end_location":{"lat":48.84524,"lng":2.2618841},"html_instructions":"Continuer sur <b>Rue Molitor</b>","polyline":{"points":"kbciHe}wLBaD?k@?c@FgIFwG"},"start_location":{"lat":48.8453419,"lng":2.2576303},"travel_mode":"WALKING"},{"distance":{"text":"38 m","value":38},"duration":{"text":"1 minute","value":33},"end_location":{"lat":48.84551800000001,"lng":2.262201},"html_instructions":"Prendre <b>à gauche</b> sur <b>Rue Michel Ange</b><div style=\"font-size:0.9em\">Votre destination se trouvera sur la droite.</div>","maneuver":"turn-left","polyline":{"points":"waciHwwxL{@q@BM"},"start_location":{"lat":48.84524,"lng":2.2618841},"travel_mode":"WALKING"}],"travel_mode":"WALKING"},{"distance":{"text":"7,3 km","value":7310},"duration":{"text":"34 minutes","value":2040},"end_location":{"lat":48.82575,"lng":2.350803},"html_instructions":"Bus vers Porte de France","polyline":{"points":"occiHwyxLiM}PrDwZ|DsQuFiHfHaUlLs\\jFsNnHgTtLe]lIsVhJef@`C_NpDiRvFcUzCsMzEyZ`HcYvE{Pn@sHBsXzA_YdDsa@fCm[Bk^"},"start_location":{"lat":48.84551800000001,"lng":2.262201},"transit_details":{"arrival_stop":{"location":{"lat":48.82575,"lng":2.350803},"name":"Bobillot - Tolbiac"},"arrival_time":{"text":"10:48","time_zone":"Europe/Paris","value":1472719680},"departure_stop":{"location":{"lat":48.84551800000001,"lng":2.262201},"name":"Michel-Ange - Molitor"},"departure_time":{"text":"10:14","time_zone":"Europe/Paris","value":1472717640},"headsign":"Porte de France","line":{"agencies":[{"name":"STIF","url":"http://www.vianavigo.com/"}],"color":"#5a230a","short_name":"62","text_color":"#ffffff","vehicle":{"icon":"//maps.gstatic.com/mapfiles/transit/iw2/6/bus2.png","name":"Bus","type":"BUS"}},"num_stops":24},"travel_mode":"TRANSIT"},{"distance":{"text":"38 m","value":38},"duration":{"text":"1 minute","value":38},"end_location":{"lat":48.8261,"lng":2.350776},"html_instructions":"Marcher jusqu'à Bobillot - Tolbiac","polyline":{"points":"}g_iHocjMeAB"},"start_location":{"lat":48.82575,"lng":2.350803},"steps":[{"distance":{"text":"38 m","value":38},"duration":{"text":"1 minute","value":38},"end_location":{"lat":48.8261,"lng":2.350776},"polyline":{"points":"}g_iHocjMeAB"},"start_location":{"lat":48.82575,"lng":2.350803},"travel_mode":"WALKING"}],"travel_mode":"WALKING"},{"distance":{"text":"1,6 km","value":1612},"duration":{"text":"7 minutes","value":420},"end_location":{"lat":48.838736,"lng":2.357016},"html_instructions":"Bus vers Pigalle","polyline":{"points":"cj_iHkcjM{LqLsM_KsHkGsLeIgK}G_N`M"},"start_location":{"lat":48.8261,"lng":2.350776},"transit_details":{"arrival_stop":{"location":{"lat":48.838736,"lng":2.357016},"name":"Saint-Marcel - Jeanne d'Arc"},"arrival_time":{"text":"11:03","time_zone":"Europe/Paris","value":1472720580},"departure_stop":{"location":{"lat":48.8261,"lng":2.350776},"name":"Bobillot - Tolbiac"},"departure_time":{"text":"10:56","time_zone":"Europe/Paris","value":1472720160},"headsign":"Pigalle","line":{"agencies":[{"name":"STIF","url":"http://www.vianavigo.com/"}],"color":"#ff80ab","short_name":"67","text_color":"#000000","vehicle":{"icon":"//maps.gstatic.com/mapfiles/transit/iw2/6/bus2.png","name":"Bus","type":"BUS"}},"num_stops":6},"travel_mode":"TRANSIT"},{"distance":{"text":"0,2 km","value":205},"duration":{"text":"3 minutes","value":159},"end_location":{"lat":48.8377748,"lng":2.3548511},"html_instructions":"Marcher jusqu'à 73 Boulevard Saint-Marcel, 75005 Paris, France","polyline":{"points":"cyaiHkjkMBL^KNCdAxEh@~B\\xA"},"start_location":{"lat":48.838736,"lng":2.357016},"steps":[{"distance":{"text":"27 m","value":27},"duration":{"text":"1 minute","value":22},"end_location":{"lat":48.8384846,"lng":2.3570328},"html_instructions":"Prendre la direction <b>sud</b> sur <b>Rue Geoffroy-Saint-Hilaire</b> vers <b>Boulevard Saint-Marcel</b>","polyline":{"points":"cyaiHkjkMBL^KNC"},"start_location":{"lat":48.838736,"lng":2.357016},"travel_mode":"WALKING"},{"distance":{"text":"0,2 km","value":178},"duration":{"text":"2 minutes","value":137},"end_location":{"lat":48.8377748,"lng":2.3548511},"html_instructions":"Prendre <b>à droite</b> sur <b>Boulevard Saint-Marcel</b><div style=\"font-size:0.9em\">Votre destination se trouvera sur la gauche.</div>","maneuver":"turn-right","polyline":{"points":"owaiHmjkMdAxEh@~B\\xA"},"start_location":{"lat":48.8384846,"lng":2.3570328},"travel_mode":"WALKING"}],"travel_mode":"WALKING"}],"traffic_speed_entry":[],"via_waypoint":[]}],"overview_polyline":{"points":"oaciHqmwL?gAKy@W}ADiFDkE?oAN_R{@q@BMiM}PrDwZ|DsQuFiHfHaUlLs\\jFsNnHgTtLe]lIsVhJef@`C_NpDiRvFcUzCsMzEyZ`HcYvE{Pn@sHBsXzA_YdDsa@fCm[Bk^eAB{LqLsM_KsHkGsLeIgK}G_N`MBLn@OnBxI\\xA"},"summary":"","warnings":["Le calcul d'itinéraires piétons est en bêta. Faites attention – Cet itinéraire n'est peut-être pas complètement aménagé pour les piétons."],"waypoint_order":[]},{"bounds":{"northeast":{"lat":48.87028,"lng":2.3548511},"southwest":{"lat":48.834882,"lng":2.255127}},"copyrights":"Données cartographiques ©2016 Google","legs":[{"arrival_time":{"text":"11:05","time_zone":"Europe/Paris","value":1472720753},"departure_time":{"text":"10:03","time_zone":"Europe/Paris","value":1472717027},"distance":{"text":"11,6 km","value":11611},"duration":{"text":"1 heure 2 min","value":3726},"end_address":"73 Boulevard Saint-Marcel, 75005 Paris, France","end_location":{"lat":48.8377748,"lng":2.3548511},"start_address":"2 Avenue de la Porte Molitor, 75016 Paris, France","start_location":{"lat":48.8451953,"lng":2.255127},"steps":[{"distance":{"text":"0,4 km","value":379},"duration":{"text":"5 minutes","value":316},"end_location":{"lat":48.847394,"lng":2.257895},"html_instructions":"Marcher jusqu'à Porte d'Auteuil","polyline":{"points":"oaciHqmwL?gAKy@]Os@a@CAg@QSGo@Qc@IOCSGSGo@W_@USOSQGG]]@[@wCL?"},"start_location":{"lat":48.8451953,"lng":2.255127},"steps":[{"distance":{"text":"49 m","value":49},"duration":{"text":"1 minute","value":45},"end_location":{"lat":48.8452628,"lng":2.2557804},"html_instructions":"Prendre la direction <b>est</b> sur <b>Avenue de la Porte Molitor</b> vers <b>Avenue du Général Sarrail</b>","polyline":{"points":"oaciHqmwL?gAKy@"},"start_location":{"lat":48.8451953,"lng":2.255127},"travel_mode":"WALKING"},{"distance":{"text":"0,3 km","value":264},"duration":{"text":"4 minutes","value":216},"end_location":{"lat":48.8474807,"lng":2.257001},"html_instructions":"Prendre <b>à gauche</b> sur <b>Avenue du Général Sarrail</b>","maneuver":"turn-left","polyline":{"points":"{aciHsqwL]Os@a@CAg@QSGo@Qc@IOCSGSGo@W_@USOSQGG]]"},"start_location":{"lat":48.8452628,"lng":2.2557804},"travel_mode":"WALKING"},{"distance":{"text":"66 m","value":66},"duration":{"text":"1 minute","value":55},"end_location":{"lat":48.847394,"lng":2.257895},"html_instructions":"Prendre <b>à droite</b> sur <b>Place de la Porte d'Auteuil</b><div style=\"font-size:0.9em\">Votre destination se trouvera sur la droite.</div>","maneuver":"turn-right","polyline":{"points":"wociHgywL@[@wCL?"},"start_location":{"lat":48.8474807,"lng":2.257001},"travel_mode":"WALKING"}],"travel_mode":"WALKING"},{"distance":{"text":"5,3 km","value":5265},"duration":{"text":"24 minutes","value":1440},"end_location":{"lat":48.86947199999999,"lng":2.31132},"html_instructions":"Bus vers Gare de l'Est","polyline":{"points":"eociH{~wLaE{GgKqEuNuHeY_PkKeQrDwe@J{IXqJ`@kQyBkVuJqJsP{MwCkPuG_XmJqU_HcQkJmX`Dub@"},"start_location":{"lat":48.847394,"lng":2.257895},"transit_details":{"arrival_stop":{"location":{"lat":48.86947199999999,"lng":2.31132},"name":"Rond-Point des Champs-Elysees - Matignon"},"arrival_time":{"text":"10:33","time_zone":"Europe/Paris","value":1472718780},"departure_stop":{"location":{"lat":48.847394,"lng":2.257895},"name":"Porte d'Auteuil"},"departure_time":{"text":"10:09","time_zone":"Europe/Paris","value":1472717340},"headsign":"Gare de l'Est","line":{"agencies":[{"name":"STIF","url":"http://www.vianavigo.com/"}],"color":"#6e6e00","short_name":"32","text_color":"#ffffff","vehicle":{"icon":"//maps.gstatic.com/mapfiles/transit/iw2/6/bus2.png","name":"Bus","type":"BUS"}},"num_stops":18},"travel_mode":"TRANSIT"},{"distance":{"text":"0,1 km","value":137},"duration":{"text":"2 minutes","value":137},"end_location":{"lat":48.870263,"lng":2.309876},"html_instructions":"Marcher jusqu'à Rond-Point des Champs-Elysees - Franklin D. Roosevelt","polyline":{"points":"eygiHwlbM}C~G"},"start_location":{"lat":48.86947199999999,"lng":2.31132},"steps":[{"distance":{"text":"0,1 km","value":137},"duration":{"text":"2 minutes","value":137},"end_location":{"lat":48.870263,"lng":2.309876},"polyline":{"points":"eygiHwlbM}C~G"},"start_location":{"lat":48.86947199999999,"lng":2.31132},"travel_mode":"WALKING"}],"travel_mode":"WALKING"},{"distance":{"text":"5,5 km","value":5530},"duration":{"text":"24 minutes","value":1440},"end_location":{"lat":48.83649,"lng":2.351228},"html_instructions":"Bus vers Porte d'Ivry","polyline":{"points":"c~giHwcbM`N}S~NaAxNmDpFeb@xM{LxHmH`F_GjOuDfJiBvPmKhKiHfLyKtQcQnHoHjFcCvDyUnFg[fN[qBgOoE_S"},"start_location":{"lat":48.870263,"lng":2.309876},"transit_details":{"arrival_stop":{"location":{"lat":48.83649,"lng":2.351228},"name":"Les Gobelins"},"arrival_time":{"text":"11:02","time_zone":"Europe/Paris","value":1472720520},"departure_stop":{"location":{"lat":48.870263,"lng":2.309876},"name":"Rond-Point des Champs-Elysees - Franklin D. Roosevelt"},"departure_time":{"text":"10:38","time_zone":"Europe/Paris","value":1472719080},"headsign":"Porte d'Ivry","line":{"agencies":[{"name":"STIF","url":"http://www.vianavigo.com/"}],"color":"#ffb300","short_name":"83","text_color":"#000000","vehicle":{"icon":"//maps.gstatic.com/mapfiles/transit/iw2/6/bus2.png","name":"Bus","type":"BUS"}},"num_stops":20},"travel_mode":"TRANSIT"},{"distance":{"text":"0,3 km","value":300},"duration":{"text":"4 minutes","value":233},"end_location":{"lat":48.8377748,"lng":2.3548511},"html_instructions":"Marcher jusqu'à 73 Boulevard Saint-Marcel, 75005 Paris, France","polyline":{"points":"akaiHefjMIBk@cCa@uAOUQw@S_AEWGWGYS}@WmAQ}@]{A"},"start_location":{"lat":48.83649,"lng":2.351228},"steps":[{"distance":{"text":"54 m","value":54},"duration":{"text":"1 minute","value":40},"end_location":{"lat":48.8367623,"lng":2.3518696},"html_instructions":"Prendre la direction <b>nord-est</b> sur <b>Boulevard Arago</b> vers <b>Avenue des Gobelins</b>","polyline":{"points":"akaiHefjMIBk@cC"},"start_location":{"lat":48.83649,"lng":2.351228},"travel_mode":"WALKING"},{"distance":{"text":"0,2 km","value":246},"duration":{"text":"3 minutes","value":193},"end_location":{"lat":48.8377748,"lng":2.3548511},"html_instructions":"Continuer sur <b>Boulevard Saint-Marcel</b><div style=\"font-size:0.9em\">Votre destination se trouvera sur la droite.</div>","polyline":{"points":"wlaiHejjMa@uAOUQw@S_AEWGWGYS}@WmAQ}@]{A"},"start_location":{"lat":48.8367623,"lng":2.3518696},"travel_mode":"WALKING"}],"travel_mode":"WALKING"}],"traffic_speed_entry":[],"via_waypoint":[]}],"overview_polyline":{"points":"oaciHqmwL?gAKy@qAq@oBm@s@Mg@Oo@W_@Ug@a@e@e@BsDL?aE{GgKqEuNuHeY_PkKeQrDwe@J{IXqJ`@kQyBkVuJqJsP{MwCkPuG_XmJqU_HcQkJmX`Dub@}C~G`N}S~NaAxNmDpFeb@rWiV`F_GjOuDfJiBvPmKhKiHfLyKd[sZjFcCvDyUnFg[fN[qBgOoE_SIBk@cCa@uAOUe@wBMo@eAcF]{A"},"summary":"","warnings":["Le calcul d'itinéraires piétons est en bêta. Faites attention – Cet itinéraire n'est peut-être pas complètement aménagé pour les piétons."],"waypoint_order":[]},{"bounds":{"northeast":{"lat":48.874873,"lng":2.3548511},"southwest":{"lat":48.834882,"lng":2.255127}},"copyrights":"Données cartographiques ©2016 Google","legs":[{"arrival_time":{"text":"11:18","time_zone":"Europe/Paris","value":1472721533},"departure_time":{"text":"10:09","time_zone":"Europe/Paris","value":1472717353},"distance":{"text":"12,4 km","value":12399},"duration":{"text":"1 heure 10 min","value":4180},"end_address":"73 Boulevard Saint-Marcel, 75005 Paris, France","end_location":{"lat":48.8377748,"lng":2.3548511},"start_address":"2 Avenue de la Porte Molitor, 75016 Paris, France","start_location":{"lat":48.8451953,"lng":2.255127},"steps":[{"distance":{"text":"0,1 km","value":111},"duration":{"text":"2 minutes","value":105},"end_location":{"lat":48.845766,"lng":2.256168},"html_instructions":"Marcher jusqu'à Porte Molitor","polyline":{"points":"oaciHqmwL?gAKy@]Os@a@CAQG@Q"},"start_location":{"lat":48.8451953,"lng":2.255127},"steps":[{"distance":{"text":"49 m","value":49},"duration":{"text":"1 minute","value":45},"end_location":{"lat":48.8452628,"lng":2.2557804},"html_instructions":"Prendre la direction <b>est</b> sur <b>Avenue de la Porte Molitor</b> vers <b>Avenue du Général Sarrail</b>","polyline":{"points":"oaciHqmwL?gAKy@"},"start_location":{"lat":48.8451953,"lng":2.255127},"travel_mode":"WALKING"},{"distance":{"text":"62 m","value":62},"duration":{"text":"1 minute","value":60},"end_location":{"lat":48.845766,"lng":2.256168},"html_instructions":"Prendre <b>à gauche</b> sur <b>Avenue du Général Sarrail</b><div style=\"font-size:0.9em\">Votre destination se trouvera sur la droite.</div>","maneuver":"turn-left","polyline":{"points":"{aciHsqwL]Os@a@CAQG@Q"},"start_location":{"lat":48.8452628,"lng":2.2557804},"travel_mode":"WALKING"}],"travel_mode":"WALKING"},{"distance":{"text":"5,9 km","value":5903},"duration":{"text":"29 minutes","value":1740},"end_location":{"lat":48.874873,"lng":2.308102},"html_instructions":"Bus vers Opera Rue de la Paix","polyline":{"points":"aeciHatwLcIuJyA}ND_[a@e\\gIsJmNsK_HtRuLUwL}UwRoFgO{IwKcNaMiKqJaZaGyRiL{]oB{N}B}a@iA{TMiN"},"start_location":{"lat":48.845766,"lng":2.256168},"transit_details":{"arrival_stop":{"location":{"lat":48.874873,"lng":2.308102},"name":"Haussmann - Courcelles"},"arrival_time":{"text":"10:40","time_zone":"Europe/Paris","value":1472719200},"departure_stop":{"location":{"lat":48.845766,"lng":2.256168},"name":"Porte Molitor"},"departure_time":{"text":"10:11","time_zone":"Europe/Paris","value":1472717460},"headsign":"Opera Rue de la Paix","line":{"agencies":[{"name":"STIF","url":"http://www.vianavigo.com/"}],"color":"#80deea","short_name":"52","text_color":"#000000","vehicle":{"icon":"//maps.gstatic.com/mapfiles/transit/iw2/6/bus2.png","name":"Bus","type":"BUS"}},"num_stops":20},"travel_mode":"TRANSIT"},{"distance":{"text":"6,1 km","value":6085},"duration":{"text":"26 minutes","value":1560},"end_location":{"lat":48.83649,"lng":2.351228},"html_instructions":"Bus vers Porte d'Ivry","polyline":{"points":"}zhiHsxaM|HaJzQA`N}S~NaAxNmDpFeb@xM{LxHmH`F_GjOuDfJiBvPmKhKiHfLyKtQcQnHoHjFcCvDyUnFg[fN[qBgOoE_S"},"start_location":{"lat":48.874873,"lng":2.308102},"transit_details":{"arrival_stop":{"location":{"lat":48.83649,"lng":2.351228},"name":"Les Gobelins"},"arrival_time":{"text":"11:15","time_zone":"Europe/Paris","value":1472721300},"departure_stop":{"location":{"lat":48.874873,"lng":2.308102},"name":"Haussmann - Courcelles"},"departure_time":{"text":"10:49","time_zone":"Europe/Paris","value":1472719740},"headsign":"Porte d'Ivry","line":{"agencies":[{"name":"STIF","url":"http://www.vianavigo.com/"}],"color":"#ffb300","short_name":"83","text_color":"#000000","vehicle":{"icon":"//maps.gstatic.com/mapfiles/transit/iw2/6/bus2.png","name":"Bus","type":"BUS"}},"num_stops":22},"travel_mode":"TRANSIT"},{"distance":{"text":"0,3 km","value":300},"duration":{"text":"4 minutes","value":233},"end_location":{"lat":48.8377748,"lng":2.3548511},"html_instructions":"Marcher jusqu'à 73 Boulevard Saint-Marcel, 75005 Paris, France","polyline":{"points":"akaiHefjMIBk@cCa@uAOUQw@S_AEWGWGYS}@WmAQ}@]{A"},"start_location":{"lat":48.83649,"lng":2.351228},"steps":[{"distance":{"text":"54 m","value":54},"duration":{"text":"1 minute","value":40},"end_location":{"lat":48.8367623,"lng":2.3518696},"html_instructions":"Prendre la direction <b>nord-est</b> sur <b>Boulevard Arago</b> vers <b>Avenue des Gobelins</b>","polyline":{"points":"akaiHefjMIBk@cC"},"start_location":{"lat":48.83649,"lng":2.351228},"travel_mode":"WALKING"},{"distance":{"text":"0,2 km","value":246},"duration":{"text":"3 minutes","value":193},"end_location":{"lat":48.8377748,"lng":2.3548511},"html_instructions":"Continuer sur <b>Boulevard Saint-Marcel</b><div style=\"font-size:0.9em\">Votre destination se trouvera sur la droite.</div>","polyline":{"points":"wlaiHejjMa@uAOUQw@S_AEWGWGYS}@WmAQ}@]{A"},"start_location":{"lat":48.8367623,"lng":2.3518696},"travel_mode":"WALKING"}],"travel_mode":"WALKING"}],"traffic_speed_entry":[],"via_waypoint":[]}],"overview_polyline":{"points":"oaciHqmwL?gAKy@qAq@UI@QcIuJyA}ND_[a@e\\gIsJmNsK_HtRuLUwL}UwRoFgO{IwKcNaMiKqJaZaGyRiL{]oB{N}B}a@iA{TMiN|HaJzQA`N}S~NaAxNmDpFeb@xM{LxHmH`F_GjOuDfJiBvPmKhKiH|^}]nHoHjFcCvDyUnFg[fN[qBgOoE_SIBmAyEOUQw@YwA{@}Do@yC"},"summary":"","warnings":["Le calcul d'itinéraires piétons est en bêta. Faites attention – Cet itinéraire n'est peut-être pas complètement aménagé pour les piétons."],"waypoint_order":[]},{"bounds":{"northeast":{"lat":48.864814,"lng":2.3548511},"southwest":{"lat":48.836391,"lng":2.255127}},"copyrights":"Données cartographiques ©2016 Google","legs":[{"arrival_time":{"text":"11:03","time_zone":"Europe/Paris","value":1472720616},"departure_time":{"text":"10:03","time_zone":"Europe/Paris","value":1472716981},"distance":{"text":"10,9 km","value":10864},"duration":{"text":"1 heure 1 min","value":3635},"end_address":"73 Boulevard Saint-Marcel, 75005 Paris, France","end_location":{"lat":48.8377748,"lng":2.3548511},"start_address":"2 Avenue de la Porte Molitor, 75016 Paris, France","start_location":{"lat":48.8451953,"lng":2.255127},"steps":[{"distance":{"text":"0,2 km","value":213},"duration":{"text":"3 minutes","value":178},"end_location":{"lat":48.844931,"lng":2.25749},"html_instructions":"Marcher jusqu'à Porte Molitor","polyline":{"points":"oaciHqmwL?gAKy@W}ADiFp@JF@@?B?@?DCJW"},"start_location":{"lat":48.8451953,"lng":2.255127},"steps":[{"distance":{"text":"86 m","value":86},"duration":{"text":"1 minute","value":76},"end_location":{"lat":48.845377,"lng":2.2562531},"html_instructions":"Prendre la direction <b>est</b> sur <b>Avenue de la Porte Molitor</b> vers <b>Avenue du Général Sarrail</b>","polyline":{"points":"oaciHqmwL?gAKy@W}A"},"start_location":{"lat":48.8451953,"lng":2.255127},"travel_mode":"WALKING"},{"distance":{"text":"86 m","value":86},"duration":{"text":"1 minute","value":68},"end_location":{"lat":48.8453489,"lng":2.2574226},"html_instructions":"Continuer sur <b>Place de la Porte Molitor</b>","polyline":{"points":"sbciHqtwLDiF"},"start_location":{"lat":48.845377,"lng":2.2562531},"travel_mode":"WALKING"},{"distance":{"text":"41 m","value":41},"duration":{"text":"1 minute","value":34},"end_location":{"lat":48.844931,"lng":2.25749},"html_instructions":"Prendre <b>à droite</b> sur <b>Boulevard Murat</b>/<b>Boulevards des Maréchaux</b>","maneuver":"turn-right","polyline":{"points":"mbciH{{wLp@JF@@?B?@?DCJW"},"start_location":{"lat":48.8453489,"lng":2.2574226},"travel_mode":"WALKING"}],"travel_mode":"WALKING"},{"distance":{"text":"2,2 km","value":2201},"duration":{"text":"7 minutes","value":420},"end_location":{"lat":48.863245,"lng":2.26885},"html_instructions":"Bus vers Porte de Champerret","polyline":{"points":"y_ciHi|wLcOkGqPsHuNuHeY_PkVyMoNoJ"},"start_location":{"lat":48.844931,"lng":2.25749},"transit_details":{"arrival_stop":{"location":{"lat":48.863245,"lng":2.26885},"name":"Porte de la Muette"},"arrival_time":{"text":"10:13","time_zone":"Europe/Paris","value":1472717580},"departure_stop":{"location":{"lat":48.844931,"lng":2.25749},"name":"Porte Molitor"},"departure_time":{"text":"10:06","time_zone":"Europe/Paris","value":1472717160},"headsign":"Porte de Champerret","line":{"agencies":[{"name":"STIF","url":"http://www.vianavigo.com/"}],"color":"#640082","short_name":"PC1","text_color":"#ffffff","vehicle":{"icon":"//maps.gstatic.com/mapfiles/transit/iw2/6/bus2.png","name":"Bus","type":"BUS"}},"num_stops":6},"travel_mode":"TRANSIT"},{"distance":{"text":"52 m","value":52},"duration":{"text":"1 minute","value":52},"end_location":{"lat":48.862913,"lng":2.269355},"html_instructions":"Marcher jusqu'à Octave Feuillet","polyline":{"points":"grfiHiczL`AeB"},"start_location":{"lat":48.863245,"lng":2.26885},"steps":[{"distance":{"text":"52 m","value":52},"duration":{"text":"1 minute","value":52},"end_location":{"lat":48.862913,"lng":2.269355},"polyline":{"points":"grfiHiczL`AeB"},"start_location":{"lat":48.863245,"lng":2.26885},"travel_mode":"WALKING"}],"travel_mode":"WALKING"},{"distance":{"text":"6,3 km","value":6320},"duration":{"text":"26 minutes","value":1560},"end_location":{"lat":48.850601,"lng":2.346003},"html_instructions":"Bus vers Gare de Lyon","polyline":{"points":"epfiHofzLeFuVn@u^zAyXlA{TM_NwCkPkDmV]}b@nOsMMeRgAa`@_@_SpFeb@xM{LxHmHvG{HzHyXtE}YhDmUlBoMdEaXpBeM"},"start_location":{"lat":48.862913,"lng":2.269355},"transit_details":{"arrival_stop":{"location":{"lat":48.850601,"lng":2.346003},"name":"Dante"},"arrival_time":{"text":"10:49","time_zone":"Europe/Paris","value":1472719740},"departure_stop":{"location":{"lat":48.862913,"lng":2.269355},"name":"Octave Feuillet"},"departure_time":{"text":"10:23","time_zone":"Europe/Paris","value":1472718180},"headsign":"Gare de Lyon","line":{"agencies":[{"name":"STIF","url":"http://www.vianavigo.com/"}],"color":"#d2d200","short_name":"63","text_color":"#000000","vehicle":{"icon":"//maps.gstatic.com/mapfiles/transit/iw2/6/bus2.png","name":"Bus","type":"BUS"}},"num_stops":22},"travel_mode":"TRANSIT"},{"distance":{"text":"1,8 km","value":1792},"duration":{"text":"7 minutes","value":420},"end_location":{"lat":48.836391,"lng":2.351936},"html_instructions":"Bus vers Fort du Kremlin Bicêtre","polyline":{"points":"gcdiHoeiMlFoS~RyMtOyA`O`AxKtExNwF"},"start_location":{"lat":48.850601,"lng":2.346003},"transit_details":{"arrival_stop":{"location":{"lat":48.836391,"lng":2.351936},"name":"Les Gobelins"},"arrival_time":{"text":"11:00","time_zone":"Europe/Paris","value":1472720400},"departure_stop":{"location":{"lat":48.850601,"lng":2.346003},"name":"Dante"},"departure_time":{"text":"10:53","time_zone":"Europe/Paris","value":1472719980},"headsign":"Fort du Kremlin Bicêtre","line":{"agencies":[{"name":"STIF","url":"http://www.vianavigo.com/"}],"color":"#ff80ab","short_name":"47","text_color":"#000000","vehicle":{"icon":"//maps.gstatic.com/mapfiles/transit/iw2/6/bus2.png","name":"Bus","type":"BUS"}},"num_stops":6},"travel_mode":"TRANSIT"},{"distance":{"text":"0,3 km","value":286},"duration":{"text":"4 minutes","value":215},"end_location":{"lat":48.8377748,"lng":2.3548511},"html_instructions":"Marcher jusqu'à 73 Boulevard Saint-Marcel, 75005 Paris, France","polyline":{"points":"mjaiHsjjMI_@c@X[Ra@uAOUQw@S_AEWGWGYS}@WmAQ}@]{A"},"start_location":{"lat":48.836391,"lng":2.351936},"steps":[{"distance":{"text":"40 m","value":40},"duration":{"text":"1 minute","value":27},"end_location":{"lat":48.8367623,"lng":2.3518696},"html_instructions":"Prendre la direction <b>nord-ouest</b> sur <b>Avenue des Gobelins</b> vers <b>Boulevard Arago</b>","polyline":{"points":"mjaiHsjjMI_@c@X[R"},"start_location":{"lat":48.836391,"lng":2.351936},"travel_mode":"WALKING"},{"distance":{"text":"0,2 km","value":246},"duration":{"text":"3 minutes","value":188},"end_location":{"lat":48.8377748,"lng":2.3548511},"html_instructions":"Prendre <b>à droite</b> sur <b>Boulevard Saint-Marcel</b><div style=\"font-size:0.9em\">Votre destination se trouvera sur la droite.</div>","maneuver":"turn-right","polyline":{"points":"wlaiHejjMa@uAOUQw@S_AEWGWGYS}@WmAQ}@]{A"},"start_location":{"lat":48.8367623,"lng":2.3518696},"travel_mode":"WALKING"}],"travel_mode":"WALKING"}],"traffic_speed_entry":[],"via_waypoint":[]}],"overview_polyline":{"points":"oaciHqmwL?gAKy@W}ADiFx@LD?FCJWcOkGqPsHuNuHeY_PkVyMoNoJ`AeBeFuVn@u^hDun@M_NwCkPkDmV]}b@nOsMMeRgAa`@_@_SpFeb@xM{LxHmHvG{HzHyXtE}YvG}c@vHgf@lFoS~RyMtOyA`O`AxKtExNwFI_@c@X[Ra@uAOUQw@YwAOq@{AeH"},"summary":"","warnings":["Le calcul d'itinéraires piétons est en bêta. Faites attention – Cet itinéraire n'est peut-être pas complètement aménagé pour les piétons."],"waypoint_order":[]}],"status":"OK"}},null,{"origin":{"lat":2.2940954135785327,"lng":48.862159100863416},"taff":{"geocoded_waypoints":[{"geocoder_status":"OK","place_id":"ChIJeXcE--Nv5kcRYIWQG4qlJ9Y","types":["route"]},{"geocoder_status":"OK","place_id":"ChIJc5sm28pv5kcR0cpsawDOfSg","types":["street_address"]}],"routes":[{"bounds":{"northeast":{"lat":48.8751359,"lng":2.3229451},"southwest":{"lat":48.8622788,"lng":2.2939231}},"copyrights":"Données cartographiques ©2016 Google","legs":[{"arrival_time":{"text":"10:31","time_zone":"Europe/Paris","value":1472718685},"departure_time":{"text":"10:07","time_zone":"Europe/Paris","value":1472717228},"distance":{"text":"2,8 km","value":2803},"duration":{"text":"24 minutes","value":1457},"end_address":"73 Rue d'Anjou, 75008 Paris, France","end_location":{"lat":48.8748221,"lng":2.3228933},"start_address":"Port Debilly, 75016 Paris, France","start_location":{"lat":48.8622788,"lng":2.2939231},"steps":[{"distance":{"text":"0,2 km","value":151},"duration":{"text":"2 minutes","value":111},"end_location":{"lat":48.862889,"lng":2.295754},"html_instructions":"Marcher jusqu'à Musée d'Art Moderne - Palais de Tokyo","polyline":{"points":"glfiH_`_MCGQ_@Ww@U{@U_Ai@{BCMLG"},"start_location":{"lat":48.8622788,"lng":2.2939231},"steps":[{"distance":{"text":"0,2 km","value":151},"duration":{"text":"2 minutes","value":111},"end_location":{"lat":48.862889,"lng":2.295754},"html_instructions":"Prendre la direction <b>nord-est</b> sur <b>Port Debilly</b>","polyline":{"points":"glfiH_`_MCGQ_@Ww@U{@U_Ai@{BCMLG"},"start_location":{"lat":48.8622788,"lng":2.2939231},"travel_mode":"WALKING"}],"travel_mode":"WALKING"},{"distance":{"text":"0,4 km","value":384},"duration":{"text":"2 minutes","value":120},"end_location":{"lat":48.86396,"lng":2.300752},"html_instructions":"Bus vers Hôtel de Ville","polyline":{"points":"apfiHmk_MuEg^"},"start_location":{"lat":48.862889,"lng":2.295754},"transit_details":{"arrival_stop":{"location":{"lat":48.86396,"lng":2.300752},"name":"Alma - Marceau"},"arrival_time":{"text":"10:11","time_zone":"Europe/Paris","value":1472717460},"departure_stop":{"location":{"lat":48.862889,"lng":2.295754},"name":"Musée d'Art Moderne - Palais de Tokyo"},"departure_time":{"text":"10:09","time_zone":"Europe/Paris","value":1472717340},"headsign":"Hôtel de Ville","line":{"agencies":[{"name":"STIF","url":"http://www.vianavigo.com/"}],"color":"#f21300","short_name":"72","text_color":"#ffffff","vehicle":{"icon":"//maps.gstatic.com/mapfiles/transit/iw2/6/bus2.png","name":"Bus","type":"BUS"}},"num_stops":1},"travel_mode":"TRANSIT"},{"distance":{"text":"0,2 km","value":227},"duration":{"text":"4 minutes","value":227},"end_location":{"lat":48.865192,"lng":2.303231},"html_instructions":"Marcher jusqu'à Alma - Marceau","polyline":{"points":"wvfiHuj`MuFoN"},"start_location":{"lat":48.86396,"lng":2.300752},"steps":[{"distance":{"text":"0,2 km","value":227},"duration":{"text":"4 minutes","value":227},"end_location":{"lat":48.865192,"lng":2.303231},"polyline":{"points":"wvfiHuj`MuFoN"},"start_location":{"lat":48.86396,"lng":2.300752},"travel_mode":"WALKING"}],"travel_mode":"WALKING"},{"distance":{"text":"1,8 km","value":1848},"duration":{"text":"9 minutes","value":540},"end_location":{"lat":48.874866,"lng":2.320814},"html_instructions":"Bus vers Mairie du 18e - Jules Joffrin","polyline":{"points":"m~fiHez`McKwVaF}KqF{LwUkTqGd@mAcf@"},