[{"origin":{"lat":2.3562378743500636,"lng":48.79492224521151},"taff":{"geocoded_waypoints":[{"geocoder_status":"OK","place_id":"ChIJNW05Bl5x5kcRyog4e0d-mCY","types":["street_address"]},{"geocoder_status":"OK","place_id":"ChIJc5sm28pv5kcR0cpsawDOfSg","types":["street_address"]}],"routes":[{"bounds":{"northeast":{"lat":48.875442,"lng":2.3560963},"southwest":{"lat":48.79404,"lng":2.32026}},"copyrights":"Données cartographiques ©2016 Google","legs":[{"arrival_time":{"text":"11:17","time_zone":"Europe/Paris","value":1472721479},"departure_time":{"text":"10:22","time_zone":"Europe/Paris","value":1472718165},"distance":{"text":"12,1 km","value":12128},"duration":{"text":"55 minutes","value":3314},"end_address":"73 Rue d'Anjou, 75008 Paris, France","end_location":{"lat":48.8748221,"lng":2.3228933},"start_address":"50 Avenue Paul Vaillant Couturier, 94800 Villejuif, France","start_location":{"lat":48.79509909999999,"lng":2.3560963},"steps":[{"distance":{"text":"0,3 km","value":257},"duration":{"text":"3 minutes","value":195},"end_location":{"lat":48.79404,"lng":2.354278},"html_instructions":"Marcher jusqu'à Institut Gustave Roussy","polyline":{"points":"khyhHsdkM^zAZnA?@?@?@ABQbAERADC@UTBL@H@D?LJ@xD\\?K"},"start_location":{"lat":48.79509909999999,"lng":2.3560963},"steps":[{"distance":{"text":"0,1 km","value":129},"duration":{"text":"2 minutes","value":97},"end_location":{"lat":48.7950719,"lng":2.3545967},"html_instructions":"Prendre la direction <b>sud-ouest</b><div style=\"font-size:0.9em\">Voie à accès limité</div>","polyline":{"points":"khyhHsdkM^zAZnA?@?@?@ABQbAERADC@UT"},"start_location":{"lat":48.79509909999999,"lng":2.3560963},"travel_mode":"WALKING"},{"distance":{"text":"17 m","value":17},"duration":{"text":"1 minute","value":13},"end_location":{"lat":48.7950338,"lng":2.3543809},"html_instructions":"Tourner à <b>gauche</b> vers <b>Rue de Verdun</b>","maneuver":"turn-left","polyline":{"points":"ehyhHg{jMBL@H@D?L"},"start_location":{"lat":48.7950719,"lng":2.3545967},"travel_mode":"WALKING"},{"distance":{"text":"0,1 km","value":111},"duration":{"text":"1 minute","value":85},"end_location":{"lat":48.79404,"lng":2.354278},"html_instructions":"Prendre <b>à gauche</b> sur <b>Rue de Verdun</b><div style=\"font-size:0.9em\">Votre destination se trouvera sur la gauche.</div>","maneuver":"turn-left","polyline":{"points":"}gyhH{yjMJ@xD\\?K"},"start_location":{"lat":48.7950338,"lng":2.3543809},"travel_mode":"WALKING"}],"travel_mode":"WALKING"},{"distance":{"text":"2,3 km","value":2309},"duration":{"text":"9 minutes","value":540},"end_location":{"lat":48.808188,"lng":2.332796},"html_instructions":"Bus vers Vache Noire - Centre Commercial","polyline":{"points":"wayhHgyjM_W`g@kL~\\kQn\\kVtGiH~X"},"start_location":{"lat":48.79404,"lng":2.354278},"transit_details":{"arrival_stop":{"location":{"lat":48.808188,"lng":2.332796},"name":"Laplace RER"},"arrival_time":{"text":"10:35","time_zone":"Europe/Paris","value":1472718900},"departure_stop":{"location":{"lat":48.79404,"lng":2.354278},"name":"Institut Gustave Roussy"},"departure_time":{"text":"10:26","time_zone":"Europe/Paris","value":1472718360},"headsign":"Vache Noire - Centre Commercial","line":{"agencies":[{"name":"STIF","url":"http://www.vianavigo.com/"}],"color":"#81c784","short_name":"380","text_color":"#000000","vehicle":{"icon":"//maps.gstatic.com/mapfiles/transit/iw2/6/bus2.png","name":"Bus","type":"BUS"}},"num_stops":5},"travel_mode":"TRANSIT"},{"distance":{"text":"0,1 km","value":114},"duration":{"text":"2 minutes","value":114},"end_location":{"lat":48.808297,"lng":2.334354},"html_instructions":"Marcher jusqu'à Gare de Laplace","polyline":{"points":"ez{hH_sfMUuH"},"start_location":{"lat":48.808188,"lng":2.332796},"steps":[{"distance":{"text":"0,1 km","value":114},"duration":{"text":"2 minutes","value":114},"end_location":{"lat":48.808297,"lng":2.334354},"polyline":{"points":"ez{hH_sfMUuH"},"start_location":{"lat":48.808188,"lng":2.332796},"travel_mode":"WALKING"}],"travel_mode":"WALKING"},{"distance":{"text":"5,5 km","value":5525},"duration":{"text":"12 minutes","value":720},"end_location":{"lat":48.853336,"lng":2.346035},"html_instructions":"RER vers Aéroport CDG Terminal 2 TGV","polyline":{"points":"{z{hHu|fMgAaBaCoDm@y@s@eAeDwEw@kAi@w@oCcE_AgAwA}Aa@_@u@k@gAo@m@]WKm@Q_@GMCMCa@E[AS?c@?e@Da@DgARe@Ng@Lc@Pc@Pg@Tu@^{Az@{Az@eAj@c@P_@P_@HYHWF_ANi@Da@Bk@@gBMk@Ew@@_ABm@Jc@Jq@ZeAr@]RYPo@`@e@Ra@Pk@Rk@Rs@Rw@PqAXsCp@sDx@gDv@{B`@_B\\_ATq@Lk@Lo@No@Ro@Xm@Z]TYVi@j@WVc@h@e@h@a@b@i@l@_@Zm@b@ULs@VmAZeDv@o@PaAX]Jc@F]Di@B]?g@G_AYa@S[Sk@g@kAaAkAgA}@}@?AuAuAyA{Ao@s@gAiAcAaAw@k@cAg@}@Y{@YsA[iB[yA[SGWKQGuAq@wCqAiD}AqB{@kCmA}EuBmCkAyAs@oCuA_B{@oAs@_CoAsAq@qBy@u@WcA]gAe@w@i@iAeAq@aAmAuBiBqDsAkC?A"},"start_location":{"lat":48.808297,"lng":2.334354},"transit_details":{"arrival_stop":{"location":{"lat":48.853336,"lng":2.346035},"name":"Saint-Michel - Notre-Dame"},"arrival_time":{"text":"10:54","time_zone":"Europe/Paris","value":1472720040},"departure_stop":{"location":{"lat":48.808297,"lng":2.334354},"name":"Gare de Laplace"},"departure_time":{"text":"10:42","time_zone":"Europe/Paris","value":1472719320},"headsign":"Aéroport CDG Terminal 2 TGV","line":{"agencies":[{"name":"STIF","url":"http://www.vianavigo.com/"}],"color":"#5092c9","short_name":"RER B","text_color":"#ffffff","vehicle":{"icon":"//maps.gstatic.com/mapfiles/transit/iw2/6/rail2.png","local_icon":"//maps.gstatic.com/mapfiles/transit/iw2/6/fr-paris-rail.png","name":"RER","type":"COMMUTER_TRAIN"}},"num_stops":6},"travel_mode":"TRANSIT"},{"distance":{"text":"0,2 km","value":195},"duration":{"text":"2 minutes","value":93},"end_location":{"lat":48.85416,"lng":2.343661},"html_instructions":"Marcher jusqu'à Saint-Michel","polyline":{"points":"ktdiHweiMcCnK_@jA"},"start_location":{"lat":48.853336,"lng":2.346035},"steps":[{"distance":{"text":"0,2 km","value":163},"duration":{"text":"1 minute","value":61},"end_location":{"lat":48.854002,"lng":2.344037},"polyline":{"points":"ktdiHweiMcCnK"},"start_location":{"lat":48.853336,"lng":2.346035},"travel_mode":"WALKING"},{"distance":{"text":"32 m","value":32},"duration":{"text":"1 minute","value":32},"end_location":{"lat":48.85416,"lng":2.343661},"polyline":{"points":"oxdiHgyhM_@jA"},"start_location":{"lat":48.854002,"lng":2.344037},"travel_mode":"WALKING"}],"travel_mode":"WALKING"},{"distance":{"text":"3,6 km","value":3584},"duration":{"text":"14 minutes","value":840},"end_location":{"lat":48.875442,"lng":2.324207},"html_instructions":"Bus vers Gare Saint-Lazare","polyline":{"points":"oydiH{vhMoI|OqJxTsBhVgI~^uIb_@wD`SgZ_LcR}QkSqH{LxO"},"start_location":{"lat":48.85416,"lng":2.343661},"transit_details":{"arrival_stop":{"location":{"lat":48.875442,"lng":2.324207},"name":"Gare Saint-Lazare"},"arrival_time":{"text":"11:16","time_zone":"Europe/Paris","value":1472721360},"departure_stop":{"location":{"lat":48.85416,"lng":2.343661},"name":"Saint-Michel"},"departure_time":{"text":"11:02","time_zone":"Europe/Paris","value":1472720520},"headsign":"Gare Saint-Lazare","line":{"agencies":[{"name":"STIF","url":"http://www.vianavigo.com/"}],"color":"#a0006e","short_name":"24","text_color":"#ffffff","vehicle":{"icon":"//maps.gstatic.com/mapfiles/transit/iw2/6/bus2.png","name":"Bus","type":"BUS"}},"num_stops":10},"travel_mode":"TRANSIT"},{"distance":{"text":"0,1 km","value":144},"duration":{"text":"2 minutes","value":118},"end_location":{"lat":48.8748221,"lng":2.3228933},"html_instructions":"Marcher jusqu'à 73 Rue d'Anjou, 75008 Paris, France","polyline":{"points":"o~hiHi}dMFRLMHbAPFHjDRAf@HB@"},"start_location":{"lat":48.875442,"lng":2.324207},"steps":[{"distance":{"text":"10 m","value":10},"duration":{"text":"1 minute","value":6},"end_location":{"lat":48.8753272,"lng":2.3241783},"html_instructions":"Prendre la direction <b>sud-est</b> sur <b>Rue de Rome</b>","polyline":{"points":"o~hiHi}dMFRLM"},"start_location":{"lat":48.875442,"lng":2.324207},"travel_mode":"WALKING"},{"distance":{"text":"25 m","value":25},"duration":{"text":"1 minute","value":23},"end_location":{"lat":48.8752837,"lng":2.3238394},"html_instructions":"Tourner à <b>droite</b> vers <b>Rue de la Pépinière</b>","maneuver":"turn-right","polyline":{"points":"y}hiHc}dMHbA"},"start_location":{"lat":48.8753272,"lng":2.3241783},"travel_mode":"WALKING"},{"distance":{"text":"11 m","value":11},"duration":{"text":"1 minute","value":7},"end_location":{"lat":48.875186,"lng":2.3238002},"html_instructions":"Tourner à <b>gauche</b> vers <b>Rue de la Pépinière</b>","maneuver":"turn-left","polyline":{"points":"o}hiH_{dMPF"},"start_location":{"lat":48.8752837,"lng":2.3238394},"travel_mode":"WALKING"},{"distance":{"text":"63 m","value":63},"duration":{"text":"1 minute","value":50},"end_location":{"lat":48.8751359,"lng":2.3229397},"html_instructions":"Prendre <b>à droite</b> sur <b>Rue de la Pépinière</b>","maneuver":"turn-right","polyline":{"points":"}|hiHwzdMHjD"},"start_location":{"lat":48.875186,"lng":2.3238002},"travel_mode":"WALKING"},{"distance":{"text":"35 m","value":35},"duration":{"text":"1 minute","value":32},"end_location":{"lat":48.8748221,"lng":2.3228933},"html_instructions":"Prendre <b>à gauche</b> sur <b>Rue d'Anjou</b><div style=\"font-size:0.9em\">Votre destination se trouvera sur la droite.</div>","maneuver":"turn-left","polyline":{"points":"s|hiHkudMRAf@HB@"},"start_location":{"lat":48.8751359,"lng":2.3229397},"travel_mode":"WALKING"}],"travel_mode":"WALKING"}],"traffic_speed_entry":[],"via_waypoint":[]}],"overview_polyline":{"points":"khyhHsdkMz@nDY|AEFUTBLBN?LJ@xD\\?K_W`g@kL~\\kQn\\kVtGiH~XUuHgAaBoDiFyE}GaBcCoCcE_AgAyB}Bu@k@gAo@eAi@mAY[G}@Gw@?gAJgARmA\\gAb@}At@wDvBiB|@_AZq@PiBTmADsCSwBDqAVq@ZeAr@w@d@uAt@mAd@_Bf@qMvCcHxA_Dr@}AZ_Bb@}At@w@l@kCvCkApAmA~@iAd@sFrAqBj@aARgAH]?g@G_AY}@g@wBiBiCeC_FgFkCkCw@k@cAg@yBs@sA[cEw@k@SiLiF{M_GmCkAyAs@oFqCoEcCsAq@qBy@yBu@gAe@w@i@iAeAq@aAmAuBiBqDsAmCcCnK_@jAoI|OqJxTsBhVgI~^uIb_@wD`SgZ_LcR}QkSqH{LxOFRLMHbAPFHjDRAj@J"},"summary":"","warnings":["Le calcul d'itinéraires piétons est en bêta. Faites attention – Cet itinéraire n'est peut-être pas complètement aménagé pour les piétons."],"waypoint_order":[]},{"bounds":{"northeast":{"lat":48.875347,"lng":2.3560963},"southwest":{"lat":48.79404,"lng":2.3228933}},"copyrights":"Données cartographiques ©2016 Google","legs":[{"arrival_time":{"text":"11:17","time_zone":"Europe/Paris","value":1472721469},"departure_time":{"text":"10:09","time_zone":"Europe/Paris","value":1472717385},"distance":{"text":"11,5 km","value":11513},"duration":{"text":"1 heure 8 min","value":4084},"end_address":"73 Rue d'Anjou, 75008 Paris, France","end_location":{"lat":48.8748221,"lng":2.3228933},"start_address":"50 Avenue Paul Vaillant Couturier, 94800 Villejuif, France","start_location":{"lat":48.79509909999999,"lng":2.3560963},"steps":[{"distance":{"text":"0,3 km","value":257},"duration":{"text":"3 minutes","value":195},"end_location":{"lat":48.79404,"lng":2.354278},"html_instructions":"Marcher jusqu'à Institut Gustave Roussy","polyline":{"points":"khyhHsdkM^zAZnA?@?@?@ABQbAERADC@UTBL@H@D?LJ@xD\\?K"},"start_location":{"lat":48.79509909999999,"lng":2.3560963},"steps":[{"distance":{"text":"0,1 km","value":129},"duration":{"text":"2 minutes","value":97},"end_location":{"lat":48.7950719,"lng":2.3545967},"html_instructions":"Prendre la direction <b>sud-ouest</b><div style=\"font-size:0.9em\">Voie à accès limité</div>","polyline":{"points":"khyhHsdkM^zAZnA?@?@?@ABQbAERADC@UT"},"start_location":{"lat":48.79509909999999,"lng":2.3560963},"travel_mode":"WALKING"},{"distance":{"text":"17 m","value":17},"duration":{"text":"1 minute","value":13},"end_location":{"lat":48.7950338,"lng":2.3543809},"html_instructions":"Tourner à <b>gauche</b> vers <b>Rue de Verdun</b>","maneuver":"turn-left","polyline":{"points":"ehyhHg{jMBL@H@D?L"},"start_location":{"lat":48.7950719,"lng":2.3545967},"travel_mode":"WALKING"},{"distance":{"text":"0,1 km","value":111},"duration":{"text":"1 minute","value":85},"end_location":{"lat":48.79404,"lng":2.354278},"html_instructions":"Prendre <b>à gauche</b> sur <b>Rue de Verdun</b><div style=\"font-size:0.9em\">Votre destination se trouvera sur la gauche.</div>","maneuver":"turn-left","polyline":{"points":"}gyhH{yjMJ@xD\\?K"},"start_location":{"lat":48.7950338,"lng":2.3543809},"travel_mode":"WALKING"}],"travel_mode":"WALKING"},{"distance":{"text":"2,3 km","value":2309},"duration":{"text":"9 minutes","value":540},"end_location":{"lat":48.808188,"lng":2.332796},"html_instructions":"Bus vers Vache Noire - Centre Commercial","polyline":{"points":"wayhHgyjM_W`g@kL~\\kQn\\kVtGiH~X"},"start_location":{"lat":48.79404,"lng":2.354278},"transit_details":{"arrival_stop":{"location":{"lat":48.808188,"lng":2.332796},"name":"Laplace RER"},"arrival_time":{"text":"10:22","time_zone":"Europe/Paris","value":1472718120},"departure_stop":{"location":{"lat":48.79404,"lng":2.354278},"name":"Institut Gustave Roussy"},"departure_time":{"text":"10:13","time_zone":"Europe/Paris","value":1472717580},"headsign":"Vache Noire - Centre Commercial","line":{"agencies":[{"name":"STIF","url":"http://www.vianavigo.com/"}],"color":"#81c784","short_name":"380","text_color":"#000000","vehicle":{"icon":"//maps.gstatic.com/mapfiles/transit/iw2/6/bus2.png","name":"Bus","type":"BUS"}},"num_stops":5},"travel_mode":"TRANSIT"},{"distance":{"text":"0,1 km","value":114},"duration":{"text":"2 minutes","value":114},"end_location":{"lat":48.808297,"lng":2.334354},"html_instructions":"Marcher jusqu'à Gare de Laplace","polyline":{"points":"ez{hH_sfMUuH"},"start_location":{"lat":48.808188,"lng":2.332796},"steps":[{"distance":{"text":"0,1 km","value":114},"duration":{"text":"2 minutes","value":114},"end_location":{"lat":48.808297,"lng":2.334354},"polyline":{"points":"ez{hH_sfMUuH"},"start_location":{"lat":48.808188,"lng":2.332796},"travel_mode":"WALKING"}],"travel_mode":"WALKING"},{"distance":{"text":"4,6 km","value":4551},"duration":{"text":"9 minutes","value":540},"end_location":{"lat":48.845743,"lng":2.339928},"html_instructions":"RER vers Gare de Mitry Claye","polyline":{"points":"{z{hHu|fMgAaBaCoDm@y@s@eAeDwEw@kAi@w@oCcE_AgAwA}Aa@_@u@k@gAo@m@]WKm@Q_@GMCMCa@E[AS?c@?e@Da@DgARe@Ng@Lc@Pc@Pg@Tu@^{Az@{Az@eAj@c@P_@P_@HYHWF_ANi@Da@Bk@@gBMk@Ew@@_ABm@Jc@Jq@ZeAr@]RYPo@`@e@Ra@Pk@Rk@Rs@Rw@PqAXsCp@sDx@gDv@{B`@_B\\_ATq@Lk@Lo@No@Ro@Xm@Z]TYVi@j@WVc@h@e@h@a@b@i@l@_@Zm@b@ULs@VmAZeDv@o@PaAX]Jc@F]Di@B]?g@G_AYa@S[Sk@g@kAaAkAgA}@}@?AuAuAyA{Ao@s@gAiAcAaAw@k@cAg@}@Y{@YsA[iB[yA[SGWKQGuAq@wCqAiD}AqB{@kCmA}EuB"},"start_location":{"lat":48.808297,"lng":2.334354},"transit_details":{"arrival_stop":{"location":{"lat":48.845743,"lng":2.339928},"name":"Luxembourg"},"arrival_time":{"text":"10:45","time_zone":"Europe/Paris","value":1472719500},"departure_stop":{"location":{"lat":48.808297,"lng":2.334354},"name":"Gare de Laplace"},"departure_time":{"text":"10:36","time_zone":"Europe/Paris","value":1472718960},"headsign":"Gare de Mitry Claye","line":{"agencies":[{"name":"STIF","url":"http://www.vianavigo.com/"}],"color":"#5092c9","short_name":"RER B","text_color":"#ffffff","vehicle":{"icon":"//maps.gstatic.com/mapfiles/transit/iw2/6/rail2.png","local_icon":"//maps.gstatic.com/mapfiles/transit/iw2/6/fr-paris-rail.png","name":"RER","type":"COMMUTER_TRAIN"}},"num_stops":5},"travel_mode":"TRANSIT"},{"distance":{"text":"0,1 km","value":137},"duration":{"text":"2 minutes","value":116},"end_location":{"lat":48.846422,"lng":2.341141},"html_instructions":"Marcher jusqu'à Luxembourg","polyline":{"points":"{dciHq_hMoCqBF_C"},"start_location":{"lat":48.845743,"lng":2.339928},"steps":[{"distance":{"text":"90 m","value":90},"duration":{"text":"2 minutes","value":99},"end_location":{"lat":48.846462,"lng":2.340497},"polyline":{"points":"{dciHq_hMoCqB"},"start_location":{"lat":48.845743,"lng":2.339928},"travel_mode":"WALKING"},{"distance":{"text":"47 m","value":47},"duration":{"text":"1 minute","value":17},"end_location":{"lat":48.846422,"lng":2.341141},"polyline":{"points":"kiciHcchMF_C"},"start_location":{"lat":48.846462,"lng":2.340497},"travel_mode":"WALKING"}],"travel_mode":"WALKING"},{"distance":{"text":"3,9 km","value":3935},"duration":{"text":"23 minutes","value":1380},"end_location":{"lat":48.875055,"lng":2.324656},"html_instructions":"Bus vers Gare Saint-Lazare","polyline":{"points":"ciciHcghMyU}GeMuFkJZoI|OqJxTsBhV{VqFuLq@gKbDcKdD_IhCmH~EuDnIgGtMsH~Q"},"start_location":{"lat":48.846422,"lng":2.341141},"transit_details":{"arrival_stop":{"location":{"lat":48.875055,"lng":2.324656},"name":"Gare Saint-Lazare"},"arrival_time":{"text":"11:15","time_zone":"Europe/Paris","value":1472721300},"departure_stop":{"location":{"lat":48.846422,"lng":2.341141},"name":"Luxembourg"},"departure_time":{"text":"10:52","time_zone":"Europe/Paris","value":1472719920},"headsign":"Gare Saint-Lazare","line":{"agencies":[{"name":"STIF","url":"http://www.vianavigo.com/"}],"color":"#e65100","short_name":"27","text_color":"#000000","vehicle":{"icon":"//maps.gstatic.com/mapfiles/transit/iw2/6/bus2.png","name":"Bus","type":"BUS"}},"num_stops":15},"travel_mode":"TRANSIT"},{"distance":{"text":"0,2 km","value":210},"duration":{"text":"3 minutes","value":169},"end_location":{"lat":48.8748221,"lng":2.3228933},"html_instructions":"Marcher jusqu'à 73 Rue d'Anjou, 75008 Paris, France","polyline":{"points":"c|hiHc`eM?Dy@g@PpBLzAHjDRAf@HB@"},"start_location":{"lat":48.875055,"lng":2.324656},"steps":[{"distance":{"text":"35 m","value":35},"duration":{"text":"1 minute","value":26},"end_location":{"lat":48.875347,"lng":2.3248275},"html_instructions":"Prendre la direction <b>nord-est</b> sur <b>Place Gabriel Péri</b> vers <b>Rue Saint-Lazare</b>","polyline":{"points":"c|hiHc`eM?Dy@g@"},"start_location":{"lat":48.875055,"lng":2.324656},"travel_mode":"WALKING"},{"distance":{"text":"0,1 km","value":140},"duration":{"text":"2 minutes","value":111},"end_location":{"lat":48.8751359,"lng":2.3229397},"html_instructions":"Prendre <b>à gauche</b> sur <b>Rue de la Pépinière</b>/<b>Place Gabriel Péri</b><div style=\"font-size:0.9em\">Continuer de suivre Rue de la Pépinière</div>","maneuver":"turn-left","polyline":{"points":"}}hiHeaeMPpBLzAHjD"},"start_location":{"lat":48.875347,"lng":2.3248275},"travel_mode":"WALKING"},{"distance":{"text":"35 m","value":35},"duration":{"text":"1 minute","value":32},"end_location":{"lat":48.8748221,"lng":2.3228933},"html_instructions":"Prendre <b>à gauche</b> sur <b>Rue d'Anjou</b><div style=\"font-size:0.9em\">Votre destination se trouvera sur la droite.</div>","maneuver":"turn-left","polyline":{"points":"s|hiHkudMRAf@HB@"},"start_location":{"lat":48.8751359,"lng":2.3229397},"travel_mode":"WALKING"}],"travel_mode":"WALKING"}],"traffic_speed_entry":[],"via_waypoint":[]}],"overview_polyline":{"points":"khyhHsdkMz@nDY|AEFUTBLBN?LJ@xD\\?K_W`g@kL~\\kQn\\kVtGiH~XUuHgAaBoDiFyE}GaBcCoCcE_AgAyB}Bu@k@gAo@eAi@mAY[G}@Gw@?gAJgARmA\\gAb@}At@wDvBiB|@_AZq@PiBTmADsCSwBDqAVq@ZeAr@w@d@uAt@mAd@_Bf@qMvCcHxA_Dr@}AZ_Bb@}At@w@l@kCvCkApAmA~@iAd@sFrAqBj@aARgAH]?g@G_AY}@g@wBiBiCeC_FgFkCkCw@k@cAg@yBs@sA[cEw@k@SiLiF{M_GoCqBF_CyU}GeMuFkJZoI|OqJxTsBhV{VqFuLq@gKbDcUnHmH~EuDnIgGtMsH~Q?Dy@g@^lEHjDRAj@J"},"summary":"","warnings":["Le calcul d'itinéraires piétons est en bêta. Faites attention – Cet itinéraire n'est peut-être pas complètement aménagé pour les piétons."],"waypoint_order":[]},{"bounds":{"northeast":{"lat":48.875442,"lng":2.3560963},"southwest":{"lat":48.79404,"lng":2.32026}},"copyrights":"Données cartographiques ©2016 Google","legs":[{"arrival_time":{"text":"11:29","time_zone":"Europe/Paris","value":1472722199},"departure_time":{"text":"10:36","time_zone":"Europe/Paris","value":1472719005},"distance":{"text":"12,1 km","value":12128},"duration":{"text":"53 minutes","value":3194},"end_address":"73 Rue d'Anjou, 75008 Paris, France","end_location":{"lat":48.8748221,"lng":2.3228933},"start_address":"50 Avenue Paul Vaillant Couturier, 94800 Villejuif, France","start_location":{"lat":48.79509909999999,"lng":2.3560963},"steps":[{"distance":{"text":"0,3 km","value":257},"duration":{"text":"3 minutes","value":195},"end_location":{"lat":48.79404,"lng":2.354278},"html_instructions":"Marcher jusqu'à Institut Gustave Roussy","polyline":{"points":"khyhHsdkM^zAZnA?@?@?@ABQbAERADC@UTBL@H@D?LJ@xD\\?K"},"start_location":{"lat":48.79509909999999,"lng":2.3560963},"steps":[{"distance":{"text":"0,1 km","value":129},"duration":{"text":"2 minutes","value":97},"end_location":{"lat":48.7950719,"lng":2.3545967},"html_instructions":"Prendre la direction <b>sud-ouest</b><div style=\"font-size:0.9em\">Voie à accès limité</div>","polyline":{"points":"khyhHsdkM^zAZnA?@?@?@ABQbAERADC@UT"},"start_location":{"lat":48.79509909999999,"lng":2.3560963},"travel_mode":"WALKING"},{"distance":{"text":"17 m","value":17},"duration":{"text":"1 minute","value":13},"end_location":{"lat":48.7950338,"lng":2.3543809},"html_instructions":"Tourner à <b>gauche</b> vers <b>Rue de Verdun</b>","maneuver":"turn-left","polyline":{"points":"ehyhHg{jMBL@H@D?L"},"start_location":{"lat":48.7950719,"lng":2.3545967},"travel_mode":"WALKING"},{"distance":{"text":"0,1 km","value":111},"duration":{"text":"1 minute","value":85},"end_location":{"lat":48.79404,"lng":2.354278},"html_instructions":"Prendre <b>à gauche</b> sur <b>Rue de Verdun</b><div style=\"font-size:0.9em\">Votre destination se trouvera sur la gauche.</div>","maneuver":"turn-left","polyline":{"points":"}gyhH{yjMJ@xD\\?K"},"start_location":{"lat":48.7950338,"lng":2.3543809},"travel_mode":"WALKING"}],"travel_mode":"WALKING"},{"distance":{"text":"2,3 km","value":2309},"duration":{"text":"9 minutes","value":540},"end_location":{"lat":48.808188,"lng":2.332796},"html_instructions":"Bus vers Vache Noire - Centre Commercial","polyline":{"points":"wayhHgyjM_W`g@kL~\\kQn\\kVtGiH~X"},"start_location":{"lat":48.79404,"lng":2.354278},"transit_details":{"arrival_stop":{"location":{"lat":48.808188,"lng":2.332796},"name":"Laplace RER"},"arrival_time":{"text":"10:49","time_zone":"Europe/Paris","value":1472719740},"departure_stop":{"location":{"lat":48.79404,"lng":2.354278},"name":"Institut Gustave Roussy"},"departure_time":{"text":"10:40","time_zone":"Europe/Paris","value":1472719200},"headsign":"Vache Noire - Centre Commercial","line":{"agencies":[{"name":"STIF","url":"http://www.vianavigo.com/"}],"color":"#81c784","short_name":"380","text_color":"#000000","vehicle":{"icon":"//maps.gstatic.com/mapfiles/transit/iw2/6/bus2.png","name":"Bus","type":"BUS"}},"num_stops":5},"travel_mode":"TRANSIT"},{"distance":{"text":"0,1 km","value":114},"duration":{"text":"2 minutes","value":114},"end_location":{"lat":48.808297,"lng":2.334354},"html_instructions":"Marcher jusqu'à Gare de Laplace","polyline":{"points":"ez{hH_sfMUuH"},"start_location":{"lat":48.808188,"lng":2.332796},"steps":[{"distance":{"text":"0,1 km","value":114},"duration":{"text":"2 minutes","value":114},"end_location":{"lat":48.808297,"lng":2.334354},"polyline":{"points":"ez{hH_sfMUuH"},"start_location":{"lat":48.808188,"lng":2.332796},"travel_mode":"WALKING"}],"travel_mode":"WALKING"},{"distance":{"text":"5,5 km","value":5525},"duration":{"text":"12 minutes","value":720},"end_location":{"lat":48.853336,"lng":2.346035},"html_instructions":"RER vers Gare de Mitry Claye","polyline":{"points":"{z{hHu|fMgAaBaCoDm@y@s@eAeDwEw@kAi@w@oCcE_AgAwA}Aa@_@u@k@gAo@m@]WKm@Q_@GMCMCa@E[AS?c@?e@Da@DgARe@Ng@Lc@Pc@Pg@Tu@^{Az@{Az@eAj@c@P_@P_@HYHWF_ANi@Da@Bk@@gBMk@Ew@@_ABm@Jc@Jq@ZeAr@]RYPo@`@e@Ra@Pk@Rk@Rs@Rw@PqAXsCp@sDx@gDv@{B`@_B\\_ATq@Lk@Lo@No@Ro@Xm@Z]TYVi@j@WVc@h@e@h@a@b@i@l@_@Zm@b@ULs@VmAZeDv@o@PaAX]Jc@F]Di@B]?g@G_AYa@S[Sk@g@kAaAkAgA}@}@?AuAuAyA{Ao@s@gAiAcAaAw@k@cAg@}@Y{@YsA[iB[yA[SGWKQGuAq@wCqAiD}AqB{@kCmA}EuBmCkAyAs@oCuA_B{@oAs@_CoAsAq@qBy@u@WcA]gAe@w@i@iAeAq@aAmAuBiBqDsAkC?A"},"start_location":{"lat":48.808297,"lng":2.334354},"transit_details":{"arrival_stop":{"location":{"lat":48.853336,"lng":2.346035},"name":"Saint-Michel - Notre-Dame"},"arrival_time":{"text":"11:09","time_zone":"Europe/Paris","value":1472720940},"departure_stop":{"location":{"lat":48.808297,"lng":2.334354},"name":"Gare de Laplace"},"departure_time":{"text":"10:57","time_zone":"Europe/Paris","value":1472720220},"headsign":"Gare de Mitry Claye","line":{"agencies":[{"name":"STIF","url":"http://www.vianavigo.com/"}],"color":"#5092c9","short_name":"RER B","text_color":"#ffffff","vehicle":{"icon":"//maps.gstatic.com/mapfiles/transit/iw2/6/rail2.png","local_icon":"//maps.gstatic.com/mapfiles/transit/iw2/6/fr-paris-rail.png","name":"RER","type":"COMMUTER_TRAIN"}},"num_stops":6},"travel_mode":"TRANSIT"},{"distance":{"text":"0,2 km","value":195},"duration":{"text":"2 minutes","value":93},"end_location":{"lat":48.85416,"lng":2.343661},"html_instructions":"Marcher jusqu'à Saint-Michel","polyline":{"points":"ktdiHweiMcCnK_@jA"},"start_location":{"lat":48.853336,"lng":2.346035},"steps":[{"distance":{"text":"0,2 km","value":163},"duration":{"text":"1 minute","value":61},"end_location":{"lat":48.854002,"lng":2.344037},"polyline":{"points":"ktdiHweiMcCnK"},"start_location":{"lat":48.853336,"lng":2.346035},"travel_mode":"WALKING"},{"distance":{"text":"32 m","value":32},"duration":{"text":"1 minute","value":32},"end_location":{"lat":48.85416,"lng":2.343661},"polyline":{"points":"oxdiHgyhM_@jA"},"start_location":{"lat":48.854002,"lng":2.344037},"travel_mode":"WALKING"}],"travel_mode":"WALKING"},{"distance":{"text":"3,6 km","value":3584},"duration":{"text":"14 minutes","value":840},"end_location":{"lat":48.875442,"lng":2.324207},"html_instructions":"Bus vers Gare Saint-Lazare","polyline":{"points":"oydiH{vhMoI|OqJxTsBhVgI~^uIb_@wD`SgZ_LcR}QkSqH{LxO"},"start_location":{"lat":48.85416,"lng":2.343661},"transit_details":{"arrival_stop":{"location":{"lat":48.875442,"lng":2.324207},"name":"Gare Saint-Lazare"},"arrival_time":{"text":"11:28","time_zone":"Europe/Paris","value":1472722080},"departure_stop":{"location":{"lat":48.85416,"lng":2.343661},"name":"Saint-Michel"},"departure_time":{"text":"11:14","time_zone":"Europe/Paris","value":1472721240},"headsign":"Gare Saint-Lazare","line":{"agencies":[{"name":"STIF","url":"http://www.vianavigo.com/"}],"color":"#a0006e","short_name":"24","text_color":"#ffffff","vehicle":{"icon":"//maps.gstatic.com/mapfiles/transit/iw2/6/bus2.png","name":"Bus","type":"BUS"}},"num_stops":10},"travel_mode":"TRANSIT"},{"distance":{"text":"0,1 km","value":144},"duration":{"text":"2 minutes","value":118},"end_location":{"lat":48.8748221,"lng":2.3228933},"html_instructions":"Marcher jusqu'à 73 Rue d'Anjou, 75008 Paris, France","polyline":{"points":"o~hiHi}dMFRLMHbAPFHjDRAf@HB@"},"start_location":{"lat":48.875442,"lng":2.324207},"steps":[{"distance":{"text":"10 m","value":10},"duration":{"text":"1 minute","value":6},"end_location":{"lat":48.8753272,"lng":2.3241783},"html_instructions":"Prendre la direction <b>sud-est</b> sur <b>Rue de Rome</b>","polyline":{"points":"o~hiHi}dMFRLM"},"start_location":{"lat":48.875442,"lng":2.324207},"travel_mode":"WALKING"},{"distance":{"text":"25 m","value":25},"duration":{"text":"1 minute","value":23},"end_location":{"lat":48.8752837,"lng":2.3238394},"html_instructions":"Tourner à <b>droite</b> vers <b>Rue de la Pépinière</b>","maneuver":"turn-right","polyline":{"points":"y}hiHc}dMHbA"},"start_location":{"lat":48.8753272,"lng":2.3241783},"travel_mode":"WALKING"},{"distance":{"text":"11 m","value":11},"duration":{"text":"1 minute","value":7},"end_location":{"lat":48.875186,"lng":2.3238002},"html_instructions":"Tourner à <b>gauche</b> vers <b>Rue de la Pépinière</b>","maneuver":"turn-left","polyline":{"points":"o}hiH_{dMPF"},"start_location":{"lat":48.8752837,"lng":2.3238394},"travel_mode":"WALKING"},{"distance":{"text":"63 m","value":63},"duration":{"text":"1 minute","value":50},"end_location":{"lat":48.8751359,"lng":2.3229397},"html_instructions":"Prendre <b>à droite</b> sur <b>Rue de la Pépinière</b>","maneuver":"turn-right","polyline":{"points":"}|hiHwzdMHjD"},"start_location":{"lat":48.875186,"lng":2.3238002},"travel_mode":"WALKING"},{"distance":{"text":"35 m","value":35},"duration":{"text":"1 minute","value":32},"end_location":{"lat":48.8748221,"lng":2.3228933},"html_instructions":"Prendre <b>à gauche</b> sur <b>Rue d'Anjou</b><div style=\"font-size:0.9em\">Votre destination se trouvera sur la droite.</div>","maneuver":"turn-left","polyline":{"points":"s|hiHkudMRAf@HB@"},"start_location":{"lat":48.8751359,"lng":2.3229397},"travel_mode":"WALKING"}],"travel_mode":"WALKING"}],"traffic_speed_entry":[],"via_waypoint":[]}],"overview_polyline":{"points":"khyhHsdkMz@nDY|AEFUTBLBN?LJ@xD\\?K_W`g@kL~\\kQn\\kVtGiH~XUuHgAaBoDiFyE}GaBcCoCcE_AgAyB}Bu@k@gAo@eAi@mAY[G}@Gw@?gAJgARmA\\gAb@}At@wDvBiB|@_AZq@PiBTmADsCSwBDqAVq@ZeAr@w@d@uAt@mAd@_Bf@qMvCcHxA_Dr@}AZ_Bb@}At@w@l@kCvCkApAmA~@iAd@sFrAqBj@aARgAH]?g@G_AY}@g@wBiBiCeC_FgFkCkCw@k@cAg@yBs@sA[cEw@k@SiLiF{M_GmCkAyAs@oFqCoEcCsAq@qBy@yBu@gAe@w@i@iAeAq@aAmAuBiBqDsAmCcCnK_@jAoI|OqJxTsBhVgI~^uIb_@wD`SgZ_LcR}QkSqH{LxOFRLMHbAPFHjDRAj@J"},"summary":"","warnings":["Le calcul d'itinéraires piétons est en bêta. Faites attention – Cet itinéraire n'est peut-être pas complètement aménagé pour les piétons."],"waypoint_order":[]},{"bounds":{"northeast":{"lat":48.875442,"lng":2.3560963},"southwest":{"lat":48.7948005,"lng":2.32026}},"copyrights":"Données cartographiques ©2016 Google","legs":[{"arrival_time":{"text":"11:53","time_zone":"Europe/Paris","value":1472723639},"departure_time":{"text":"10:54","time_zone":"Europe/Paris","value":1472720088},"distance":{"text":"12,6 km","value":12587},"duration":{"text":"59 minutes","value":3551},"end_address":"73 Rue d'Anjou, 75008 Paris, France","end_location":{"lat":48.8748221,"lng":2.3228933},"start_address":"50 Avenue Paul Vaillant Couturier, 94800 Villejuif, France","start_location":{"lat":48.79509909999999,"lng":2.3560963},"steps":[{"distance":{"text":"0,3 km","value":264},"duration":{"text":"3 minutes","value":192},"end_location":{"lat":48.796098,"lng":2.354469},"html_instructions":"Marcher jusqu'à Verdun - Grosmenil","polyline":{"points":"khyhHsdkM^zAZnA?@?@?@ABQbAERADC@UTBL@H@D?LcCUoAOAR"},"start_location":{"lat":48.79509909999999,"lng":2.3560963},"steps":[{"distance":{"text":"0,1 km","value":129},"duration":{"text":"2 minutes","value":97},"end_location":{"lat":48.7950719,"lng":2.3545967},"html_instructions":"Prendre la direction <b>sud-ouest</b><div style=\"font-size:0.9em\">Voie à accès limité</div>","polyline":{"points":"khyhHsdkM^zAZnA?@?@?@ABQbAERADC@UT"},"start_location":{"lat":48.79509909999999,"lng":2.3560963},"travel_mode":"WALKING"},{"distance":{"text":"17 m","value":17},"duration":{"text":"1 minute","value":13},"end_location":{"lat":48.7950338,"lng":2.3543809},"html_instructions":"Tourner à <b>gauche</b> vers <b>Rue Marcel Grosmenil</b>","maneuver":"turn-left","polyline":{"points":"ehyhHg{jMBL@H@D?L"},"start_location":{"lat":48.7950719,"lng":2.3545967},"travel_mode":"WALKING"},{"distance":{"text":"0,1 km","value":118},"duration":{"text":"1 minute","value":82},"end_location":{"lat":48.796098,"lng":2.354469},"html_instructions":"Prendre <b>à droite</b> sur <b>Rue Marcel Grosmenil</b><div style=\"font-size:0.9em\">Votre destination se trouvera sur la gauche.</div>","maneuver":"turn-right","polyline":{"points":"}gyhH{yjMcCUoAOAR"},"start_location":{"lat":48.7950338,"lng":2.3543809},"travel_mode":"WALKING"}],"travel_mode":"WALKING"},{"distance":{"text":"2,8 km","value":2807},"duration":{"text":"13 minutes","value":780},"end_location":{"lat":48.80887999999999,"lng":2.334674},"html_instructions":"Bus vers Mairie de l'Hay-les-Roses","polyline":{"points":"snyhHmzjMcJfh@kL~\\kQn\\kVtGaYmI[xRhL|C"},"start_location":{"lat":48.796098,"lng":2.354469},"transit_details":{"arrival_stop":{"location":{"lat":48.80887999999999,"lng":2.334674},"name":"Laplace RER"},"arrival_time":{"text":"11:11","time_zone":"Europe/Paris","value":1472721060},"departure_stop":{"location":{"lat":48.796098,"lng":2.354469},"name":"Verdun - Grosmenil"},"departure_time":{"text":"10:58","time_zone":"Europe/Paris","value":1472720280},"headsign":"Mairie de l'Hay-les-Roses","line":{"agencies":[{"name":"STIF","url":"http://www.vianavigo.com/"}],"color":"#ffb300","name":"542","short_name":"V1","text_color":"#000000","vehicle":{"icon":"//maps.gstatic.com/mapfiles/transit/iw2/6/bus2.png","name":"Bus","type":"BUS"}},"num_stops":7},"travel_mode":"TRANSIT"},{"distance":{"text":"68 m","value":68},"duration":{"text":"1 minute","value":68},"end_location":{"lat":48.808297,"lng":2.334354},"html_instructions":"Marcher jusqu'à Gare de Laplace","polyline":{"points":"o~{hHu~fMrB~@"},"start_location":{"lat":48.80887999999999,"lng":2.334674},"steps":[{"distance":{"text":"68 m","value":68},"duration":{"text":"1 minute","value":68},"end_location":{"lat":48.808297,"lng":2.334354},"polyline":{"points":"o~{hHu~fMrB~@"},"start_location":{"lat":48.80887999999999,"lng":2.334674},"travel_mode":"WALKING"}],"travel_mode":"WALKING"},{"distance":{"text":"5,5 km","value":5525},"duration":{"text":"12 minutes","value":720},"end_location":{"lat":48.853336,"lng":2.346035},"html_instructions":"RER vers Gare de Mitry Claye","polyline":{"points":"{z{hHu|fMgAaBaCoDm@y@s@eAeDwEw@kAi@w@oCcE_AgAwA}Aa@_@u@k@gAo@m@]WKm@Q_@GMCMCa@E[AS?c@?e@Da@DgARe@Ng@Lc@Pc@Pg@Tu@^{Az@{Az@eAj@c@P_@P_@HYHWF_ANi@Da@Bk@@gBMk@Ew@@_ABm@Jc@Jq@ZeAr@]RYPo@`@e@Ra@Pk@Rk@Rs@Rw@PqAXsCp@sDx@gDv@{B`@_B\\_ATq@Lk@Lo@No@Ro@Xm@Z]TYVi@j@WVc@h@e@h@a@b@i@l@_@Zm@b@ULs@VmAZeDv@o@PaAX]Jc@F]Di@B]?g@G_AYa@S[Sk@g@kAaAkAgA}@}@?AuAuAyA{Ao@s@gAiAcAaAw@k@cAg@}@Y{@YsA[iB[yA[SGWKQGuAq@wCqAiD}AqB{@kCmA}EuBmCkAyAs@oCuA_B{@oAs@_CoAsAq@qBy@u@WcA]gAe@w@i@iAeAq@aAmAuBiBqDsAkC?A"},"start_location":{"lat":48.808297,"lng":2.334354},"transit_details":{"arrival_stop":{"location":{"lat":48.853336,"lng":2.346035},"name":"Saint-Michel - Notre-Dame"},"arrival_time":{"text":"11:30","time_zone":"Europe/Paris","value":1472722200},"departure_stop":{"location":{"lat":48.808297,"lng":2.334354},"name":"Gare de Laplace"},"departure_time":{"text":"11:18","time_zone":"Europe/Paris","value":1472721480},"headsign":"Gare de Mitry Claye","line":{"agencies":[{"name":"STIF","url":"http://www.vianavigo.com/"}],"color":"#5092c9","short_name":"RER B","text_color":"#ffffff","vehicle":{"icon":"//maps.gstatic.com/mapfiles/transit/iw2/6/rail2.png","local_icon":"//maps.gstatic.com/mapfiles/transit/iw2/6/fr-paris-rail.png","name":"RER","type":"COMMUTER_TRAIN"}},"num_stops":6},"travel_mode":"TRANSIT"},{"distance":{"text":"0,2 km","value":195},"duration":{"text":"2 minutes","value":93},"end_location":{"lat":48.85416,"lng":2.343661},"html_instructions":"Marcher jusqu'à Saint-Michel","polyline":{"points":"ktdiHweiMcCnK_@jA"},"start_location":{"lat":48.853336,"lng":2.346035},"steps":[{"distance":{"text":"0,2 km","value":163},"duration":{"text":"1 minute","value":61},"end_location":{"lat":48.854002,"lng":2.344037},"polyline":{"points":"ktdiHweiMcCnK"},"start_location":{"lat":48.853336,"lng":2.346035},"travel_mode":"WALKING"},{"distance":{"text":"32 m","value":32},"duration":{"text":"1 minute","value":32},"end_location":{"lat":48.85416,"lng":2.343661},"polyline":{"points":"oxdiHgyhM_@jA"},"start_location":{"lat":48.854002,"lng":2.344037},"travel_mode":"WALKING"}],"travel_mode":"WALKING"},{"distance":{"text":"3,6 km","value":3584},"duration":{"text":"14 minutes","value":840},"end_location":{"lat":48.875442,"lng":2.324207},"html_instructions":"Bus vers Gare Saint-Lazare","polyline":{"points":"oydiH{vhMoI|OqJxTsBhVgI~^uIb_@wD`SgZ_LcR}QkSqH{LxO"},"start_location":{"lat":48.85416,"lng":2.343661},"transit_details":{"arrival_stop":{"location":{"lat":48.875442,"lng":2.324207},"name":"Gare Saint-Lazare"},"arrival_time":{"text":"11:52","time_zone":"Europe/Paris","value":1472723520},"departure_stop":{"location":{"lat":48.85416,"lng":2.343661},"name":"Saint-Michel"},"departure_time":{"text":"11:38","time_zone":"Europe/Paris","value":1472722680},"headsign":"Gare Saint-Lazare","line":{"agencies":[{"name":"STIF","url":"http://www.vianavigo.com/"}],"color":"#a0006e","short_name":"24","text_color":"#ffffff","vehicle":{"icon":"//maps.gstatic.com/mapfiles/transit/iw2/6/bus2.png","name":"Bus","type":"BUS"}},"num_stops":10},"travel_mode":"TRANSIT"},{"distance":{"text":"0,1 km","value":144},"duration":{"text":"2 minutes","value":118},"end_location":{"lat":48.8748221,"lng":2.3228933},"html_instructions":"Marcher jusqu'à 73 Rue d'Anjou, 75008 Paris, France","polyline":{"points":"o~hiHi}dMFRLMHbAPFHjDRAf@HB@"},"start_location":{"lat":48.875442,"lng":2.324207},"steps":[{"distance":{"text":"10 m","value":10},"duration":{"text":"1 minute","value":6},"end_location":{"lat":48.8753272,"lng":2.3241783},"html_instructions":"Prendre la direction <b>sud-est</b> sur <b>Rue de Rome</b>","polyline":{"points":"o~hiHi}dMFRLM"},"start_location":{"lat":48.875442,"lng":2.324207},"travel_mode":"WALKING"},{"distance":{"text":"25 m","value":25},"duration":{"text":"1 minute","value":23},"end_location":{"lat":48.8752837,"lng":2.3238394},"html_instructions":"Tourner à <b>droite</b> vers <b>Rue de la Pépinière</b>","maneuver":"turn-right","polyline":{"points":"y}hiHc}dMHbA"},"start_location":{"lat":48.8753272,"lng":2.3241783},"travel_mode":"WALKING"},{"distance":{"text":"11 m","value":11},"duration":{"text":"1 minute","value":7},"end_location":{"lat":48.875186,"lng":2.3238002},"html_instructions":"Tourner à <b>gauche</b> vers <b>Rue de la Pépinière</b>","maneuver":"turn-left","polyline":{"points":"o}hiH_{dMPF"},"start_location":{"lat":48.8752837,"lng":2.3238394},"travel_mode":"WALKING"},{"distance":{"text":"63 m","value":63},"duration":{"text":"1 minute","value":50},"end_location":{"lat":48.8751359,"lng":2.3229397},"html_instructions":"Prendre <b>à droite</b> sur <b>Rue de la Pépinière</b>","maneuver":"turn-right","polyline":{"points":"}|hiHwzdMHjD"},"start_location":{"lat":48.875186,"lng":2.3238002},"travel_mode":"WALKING"},{"distance":{"text":"35 m","value":35},"duration":{"text":"1 minute","value":32},"end_location":{"lat":48.8748221,"lng":2.3228933},"html_instructions":"Prendre <b>à gauche</b> sur <b>Rue d'Anjou</b><div style=\"font-size:0.9em\">Votre destination se trouvera sur la droite.</div>","maneuver":"turn-left","polyline":{"points":"s|hiHkudMRAf@HB@"},"start_location":{"lat":48.8751359,"lng":2.3229397},"travel_mode":"WALKING"}],"travel_mode":"WALKING"}],"traffic_speed_entry":[],"via_waypoint":[]}],"overview_polyline":{"points":"khyhHsdkMz@nDY|AEFUTBLBN?LcCUoAOARcJfh@kL~\\kQn\\kVtGaYmI[xRhL|CrB~@gAaBiKgOaBcCoCcE_AgAyB}Bu@k@gAo@eAi@mAY[G}@Gw@?gAJgARmA\\gAb@}At@wDvBiB|@_AZq@PiBTmADsCSwBDqAVq@ZeAr@w@d@uAt@mAd@_Bf@iCj@gIjBcHxA}FnA_Bb@}At@w@l@aAbAuCdDmA~@iAd@sFrAqBj@aARgAH]?g@G_AY}@g@wBiB_F}EuG{Gw@k@cAg@yBs@sA[cEw@k@SgBy@_QyH}EuBmCkAyAs@oFqCoEcCsAq@qBy@yBu@gAe@w@i@iAeAq@aAmAuBiBqDsAmCcCnK_@jAoI|OqJxTsBhVgI~^uIb_@wD`SgZ_LcR}QkSqH{LxOFRLMHbAPFHjDRAj@J"},"summary":"","warnings":["Le calcul d'itinéraires piétons est en bêta. Faites attention – Cet itinéraire n'est peut-être pas complètement aménagé pour les piétons."],"waypoint_order":[]}],"status":"OK"},"gobs":{"geocoded_waypoints":[{"geocoder_status":"OK","place_id":"ChIJNW05Bl5x5kcRyog4e0d-mCY","types":["street_address"]},{"geocoder_status":"OK","place_id":"ChIJS8pekPJx5kcRxS0S3NXQsW4","types":["street_address"]}],"routes":[{"bounds":{"northeast":{"lat":48.8377748,"lng":2.362339},"southwest":{"lat":48.79404,"lng":2.3515647}},"copyrights":"Données cartographiques ©2016 Google","legs":[{"arrival_time":{"text":"10:46","time_zone":"Europe/Paris","value":1472719602},"departure_time":{"text":"10:03","time_zone":"Europe/Paris","value":1472717025},"distance":{"text":"5,7 km","value":5723},"duration":{"text":"43 minutes","value":2577},"end_address":"73 Boulevard Saint-Marcel, 75005 Paris, France","end_location":{"lat":48.8377748,"lng":2.3548511},"start_address":"50 Avenue Paul Vaillant Couturier, 94800 Villejuif, France","start_location":{"lat":48.79509909999999,"lng":2.3560963},"steps":[{"distance":{"text":"0,3 km","value":257},"duration":{"text":"3 minutes","value":195},"end_location":{"lat":48.79404,"lng":2.354278},"html_instructions":"Marcher jusqu'à Institut Gustave Roussy","polyline":{"points":"khyhHsdkM^zAZnA?@?@?@ABQbAERADC@UTBL@H@D?LJ@xD\\?K"},"start_location":{"lat":48.79509909999999,"lng":2.3560963},"steps":[{"distance":{"text":"0,1 km","value":129},"duration":{"text":"2 minutes","value":97},"end_location":{"lat":48.7950719,"lng":2.3545967},"html_instructions":"Prendre la direction <b>sud-ouest</b><div style=\"font-size:0.9em\">Voie à accès limité</div>","polyline":{"points":"khyhHsdkM^zAZnA?@?@?@ABQbAERADC@UT"},"start_location":{"lat":48.79509909999999,"lng":2.3560963},"travel_mode":"WALKING"},{"distance":{"text":"17 m","value":17},"duration":{"text":"1 minute","value":13},"end_location":{"lat":48.7950338,"lng":2.3543809},"html_instructions":"Tourner à <b>gauche</b> vers <b>Rue de Verdun</b>","maneuver":"turn-left","polyline":{"points":"ehyhHg{jMBL@H@D?L"},"start_location":{"lat":48.7950719,"lng":2.3545967},"travel_mode":"WALKING"},{"distance":{"text":"0,1 km","value":111},"duration":{"text":"1 minute","value":85},"end_location":{"lat":48.79404,"lng":2.354278},"html_instructions":"Prendre <b>à gauche</b> sur <b>Rue de Verdun</b><div style=\"font-size:0.9em\">Votre destination se trouvera sur la gauche.</div>","maneuver":"turn-left","polyline":{"points":"}gyhH{yjMJ@xD\\?K"},"start_location":{"lat":48.7950338,"lng":2.3543809},"travel_mode":"WALKING"}],"travel_mode":"WALKING"},{"distance":{"text":"2,1 km","value":2088},"duration":{"text":"8 minutes","value":480},"end_location":{"lat":48.81050399999999,"lng":2.362339},"html_instructions":"Bus vers Porte d'Italie-Metro","polyline":{"points":"wayhHgyjMyY}CyLkA_QgRcPhBoScCsE_V"},"start_location":{"lat":48.79404,"lng":2.354278},"transit_details":{"arrival_stop":{"location":{"lat":48.81050399999999,"lng":2.362339},"name":"Le Kremlin-Bicêtre-Metro"},"arrival_time":{"text":"10:15","time_zone":"Europe/Paris","value":1472717700},"departure_stop":{"location":{"lat":48.79404,"lng":2.354278},"name":"Institut Gustave Roussy"},"departure_time":{"text":"10:07","time_zone":"Europe/Paris","value":1472717220},"headsign":"Porte d'Italie-Metro","line":{"agencies":[{"name":"STIF","url":"http://www.vianavigo.com/"}],"color":"#5a230a","short_name":"131","text_color":"#ffffff","vehicle":{"icon":"//maps.gstatic.com/mapfiles/transit/iw2/6/bus2.png","name":"Bus","type":"BUS"}},"num_stops":6},"travel_mode":"TRANSIT"},{"distance":{"text":"3,1 km","value":3087},"duration":{"text":"18 minutes","value":1080},"end_location":{"lat":48.83725399999999,"lng":2.351692},"html_instructions":"Bus vers Gare de l'Est","polyline":{"points":"sh|hHsklM}GnAwPvDmVpF}Dr@yQ|DqWjF_JpBuXpIiKnGwQdL"},"start_location":{"lat":48.81050399999999,"lng":2.362339},"transit_details":{"arrival_stop":{"location":{"lat":48.83725399999999,"lng":2.351692},"name":"Les Gobelins"},"arrival_time":{"text":"10:43","time_zone":"Europe/Paris","value":1472719380},"departure_stop":{"location":{"lat":48.81050399999999,"lng":2.362339},"name":"Le Kremlin-Bicêtre-Metro"},"departure_time":{"text":"10:25","time_zone":"Europe/Paris","value":1472718300},"headsign":"Gare de l'Est","line":{"agencies":[{"name":"STIF","url":"http://www.vianavigo.com/"}],"color":"#ff80ab","short_name":"47","text_color":"#000000","vehicle":{"icon":"//maps.gstatic.com/mapfiles/transit/iw2/6/bus2.png","name":"Bus","type":"BUS"}},"num_stops":10},"travel_mode":"TRANSIT"},{"distance":{"text":"0,3 km","value":291},"duration":{"text":"4 minutes","value":222},"end_location":{"lat":48.8377748,"lng":2.3548511},"html_instructions":"Marcher jusqu'à 73 Boulevard Saint-Marcel, 75005 Paris, France","polyline":{"points":"yoaiHaijMDXjAs@Mg@Mi@AGC[Qw@S_AEWGWGYS}@WmAQ}@]{A"},"start_location":{"lat":48.83725399999999,"lng":2.351692},"steps":[{"distance":{"text":"46 m","value":46},"duration":{"text":"1 minute","value":34},"end_location":{"lat":48.8368428,"lng":2.3518209},"html_instructions":"Prendre la direction <b>sud-est</b> sur <b>Avenue des Gobelins</b> vers <b>Boulevard Saint-Marcel</b>","polyline":{"points":"yoaiHaijMDXjAs@"},"start_location":{"lat":48.83725399999999,"lng":2.351692},"travel_mode":"WALKING"},{"distance":{"text":"0,2 km","value":245},"duration":{"text":"3 minutes","value":188},"end_location":{"lat":48.8377748,"lng":2.3548511},"html_instructions":"Prendre <b>à gauche</b> sur <b>Boulevard Saint-Marcel</b><div style=\"font-size:0.9em\">Votre destination se trouvera sur la droite.</div>","maneuver":"turn-left","polyline":{"points":"gmaiH{ijMMg@Mi@AGC[Qw@S_AEWGWGYS}@WmAQ}@]{A"},"start_location":{"lat":48.8368428,"lng":2.3518209},"travel_mode":"WALKING"}],"travel_mode":"WALKING"}],"traffic_speed_entry":[],"via_waypoint":[]}],"overview_polyline":{"points":"khyhHsdkMz@nDY|AEFUTBLBN?LJ@xD\\?KyY}CyLkA_QgRcPhBoScCsE_V}GnAwPvDmVpF}Dr@yQ|DqWjF_JpBuXpIa^tTDXjAs@[qAEc@s@gDeAcF]{A"},"summary":"","warnings":["Le calcul d'itinéraires piétons est en bêta. Faites attention – Cet itinéraire n'est peut-être pas complètement aménagé pour les piétons."],"waypoint_order":[]},{"bounds":{"northeast":{"lat":48.8377748,"lng":2.362339},"southwest":{"lat":48.79509909999999,"lng":2.3515647}},"copyrights":"Données cartographiques ©2016 Google","legs":[{"arrival_time":{"text":"10:46","time_zone":"Europe/Paris","value":1472719602},"departure_time":{"text":"10:02","time_zone":"Europe/Paris","value":1472716930},"distance":{"text":"5,5 km","value":5543},"duration":{"text":"45 minutes","value":2672},"end_address":"73 Boulevard Saint-Marcel, 75005 Paris, France","end_location":{"lat":48.8377748,"lng":2.3548511},"start_address":"50 Avenue Paul Vaillant Couturier, 94800 Villejuif, France","start_location":{"lat":48.79509909999999,"lng":2.3560963},"steps":[{"distance":{"text":"1,9 km","value":1871},"duration":{"text":"22 minutes","value":1310},"end_location":{"lat":48.809436,"lng":2.358664},"html_instructions":"Marcher jusqu'à Hôpital du Kremlin-Bicêtre","polyline":{"points":"khyhHsdkMMi@oAx@a@gB_@yACIEOEMYRIJIJMR}@`Bq@nAGLINGHKJIDyA|@_Af@OFKH[V_@CWA}AOg@E_E_@w@ICAYEUIICe@GKA?A?A?AAA?A?A?AA??A?AA??AAAAAA??AA??AA?A?A?A?A?A?A??@A?A@A@A@A@i@UGCKEICWMIGECUQUSAA[]UYOSMUU_@MUMWUe@Qi@Um@O_@KWIQGKGKKQIKSSMKKISMUKOGQEQCKAMAU?c@DkBRo@H_@DUDKBSFOHUJSLQJWNGDaAp@eAr@OHOFWHWHQBC@MBM@M@O?S?[COAS@MLEFCL[a@OOMMQOGGY[Y]q@s@u@u@UWOSFO"},"start_location":{"lat":48.79509909999999,"lng":2.3560963},"steps":[{"distance":{"text":"18 m","value":18},"duration":{"text":"1 minute","value":13},"end_location":{"lat":48.795174,"lng":2.356312},"html_instructions":"Prendre la direction <b>nord-est</b><div style=\"font-size:0.9em\">Voie à accès limité</div>","polyline":{"points":"khyhHsdkMMi@"},"start_location":{"lat":48.79509909999999,"lng":2.3560963},"travel_mode":"WALKING"},{"distance":{"text":"49 m","value":49},"duration":{"text":"1 minute","value":35},"end_location":{"lat":48.7955665,"lng":2.3560232},"html_instructions":"Tourner à <b>gauche</b> vers <b>Rue Jean Baptiste Baudin</b><div style=\"font-size:0.9em\">Voie à accès limité</div>","maneuver":"turn-left","polyline":{"points":"yhyhH}ekMoAx@"},"start_location":{"lat":48.795174,"lng":2.356312},"travel_mode":"WALKING"},{"distance":{"text":"0,1 km","value":97},"duration":{"text":"1 minute","value":68},"end_location":{"lat":48.7959813,"lng":2.3571879},"html_instructions":"Tourner à <b>droite</b> vers <b>Rue Jean Baptiste Baudin</b><div style=\"font-size:0.9em\">Voie à accès limité</div>","maneuver":"turn-right","polyline":{"points":"ikyhHcdkMa@gB_@yACIEOEM"},"start_location":{"lat":48.7955665,"lng":2.3560232},"travel_mode":"WALKING"},{"distance":{"text":"0,3 km","value":294},"duration":{"text":"4 minutes","value":214},"end_location":{"lat":48.7981302,"lng":2.3549707},"html_instructions":"Prendre <b>à gauche</b> sur <b>Rue Jean Baptiste Baudin</b>","maneuver":"turn-left","polyline":{"points":"{myhHmkkMYRIJIJMR}@`Bq@nAGLINGHKJIDyA|@_Af@OFKH[V"},"start_location":{"lat":48.7959813,"lng":2.3571879},"travel_mode":"WALKING"},{"distance":{"text":"0,2 km","value":214},"duration":{"text":"2 minutes","value":148},"end_location":{"lat":48.8000413,"lng":2.355273},"html_instructions":"Prendre légèrement <b>à droite</b> sur <b>Rue Marcel Grosmenil</b>","maneuver":"turn-slight-right","polyline":{"points":"i{yhHq}jM_@CWA}AOg@E_E_@"},"start_location":{"lat":48.7981302,"lng":2.3549707},"travel_mode":"WALKING"},{"distance":{"text":"48 m","value":48},"duration":{"text":"1 minute","value":33},"end_location":{"lat":48.8004674,"lng":2.3553584},"html_instructions":"Continuer sur <b>Boulevard Chastenet de Géry</b>","polyline":{"points":"ggzhHm_kMw@ICAYE"},"start_location":{"lat":48.8000413,"lng":2.355273},"travel_mode":"WALKING"},{"distance":{"text":"1,0 km","value":963},"duration":{"text":"11 minutes","value":674},"end_location":{"lat":48.808094,"lng":2.3571047},"html_instructions":"Tourner légèrement à <b>droite</b> pour continuer sur <b>Boulevard Chastenet de Géry</b><div style=\"font-size:0.9em\">Traverser le rond-point</div>","maneuver":"turn-slight-right","polyline":{"points":"}izhH_`kMUIICe@GKA?A?A?AAA?A?A?AA??A?AA??AAAAAA??AA??AA?A?A?A?A?A?A??@A?A@A@A@A@i@UGCKEICWMIGECUQUSAA[]UYOSMUU_@MUMWUe@Qi@Um@O_@KWIQGKGKKQIKSSMKKISMUKOGQEQCKAMAU?c@DkBRo@H_@DUDKBSFOHUJSLQJWNGDaAp@eAr@OHOFWHWHQBC@MBM@M@O?S?[COAS@MLEFCL"},"start_location":{"lat":48.8004674,"lng":2.3553584},"travel_mode":"WALKING"},{"distance":{"text":"0,2 km","value":188},"duration":{"text":"2 minutes","value":125},"end_location":{"lat":48.809436,"lng":2.358664},"html_instructions":"Prendre <b>à droite</b> sur <b>Rue de Verdun-Lazare Ponticelli</b>/<b>D154</b><div style=\"font-size:0.9em\">Votre destination se trouvera sur la droite.</div>","maneuver":"turn-right","polyline":{"points":"qy{hH{jkM[a@OOMMQOGGY[Y]q@s@u@u@UWOSFO"},"start_location":{"lat":48.808094,"lng":2.3571047},"travel_mode":"WALKING"}],"travel_mode":"WALKING"},{"distance":{"text":"3,4 km","value":3381},"duration":{"text":"19 minutes","value":1140},"end_location":{"lat":48.83725399999999,"lng":2.351692},"html_instructions":"Bus vers Gare de l'Est","polyline":{"points":"_b|hHstkMsE_V}GnAwPvDmVpF}Dr@yQ|DqWjF_JpBuXpIiKnGwQdL"},"start_location":{"lat":48.809436,"lng":2.358664},"transit_details":{"arrival_stop":{"location":{"lat":48.83725399999999,"lng":2.351692},"name":"Les Gobelins"},"arrival_time":{"text":"10:43","time_zone":"Europe/Paris","value":1472719380},"departure_stop":{"location":{"lat":48.809436,"lng":2.358664},"name":"Hôpital du Kremlin-Bicêtre"},"departure_time":{"text":"10:24","time_zone":"Europe/Paris","value":1472718240},"headsign":"Gare de l'Est","line":{"agencies":[{"name":"STIF","url":"http://www.vianavigo.com/"}],"color":"#ff80ab","short_name":"47","text_color":"#000000","vehicle":{"icon":"//maps.gstatic.com/mapfiles/transit/iw2/6/bus2.png","name":"Bus","type":"BUS"}},"num_stops":11},"travel_mode":"TRANSIT"},{"distance":{"text":"0,3 km","value":291},"duration":{"text":"4 minutes","value":222},"end_location":{"lat":48.8377748,"lng":2.3548511},"html_instructions":"Marcher jusqu'à 73 Boulevard Saint-Marcel, 75005 Paris, France","polyline":{"points":"yoaiHaijMDXjAs@Mg@Mi@AGC[Qw@S_AEWGWGYS}@WmAQ}@]{A"},"start_location":{"lat":48.83725399999999,"lng":2.351692},"steps":[{"distance":{"text":"46 m","value":46},"duration":{"text":"1 minute","value":34},"end_location":{"lat":48.8368428,"lng":2.3518209},"html_instructions":"Prendre la direction <b>sud-est</b> sur <b>Avenue des Gobelins</b> vers <b>Boulevard Saint-Marcel</b>","polyline":{"points":"yoaiHaijMDXjAs@"},"start_location":{"lat":48.83725399999999,"lng":2.351692},"travel_mode":"WALKING"},{"distance":{"text":"0,2 km","value":245},"duration":{"text":"3 minutes","value":188},"end_location":{"lat":48.8377748,"lng":2.3548511},"html_instructions":"Prendre <b>à gauche</b> sur <b>Boulevard Saint-Marcel</b><div style=\"font-size:0.9em\">Votre destination se trouvera sur la droite.</div>","maneuver":"turn-left","polyline":{"points":"gmaiH{ijMMg@Mi@AGC[Qw@S_AEWGWGYS}@WmAQ}@]{A"},"start_location":{"lat":48.8368428,"lng":2.3518209},"travel_mode":"WALKING"}],"travel_mode":"WALKING"}],"traffic_speed_entry":[],"via_waypoint":[]}],"overview_polyline":{"points":"khyhHsdkMMi@oAx@aAaEIYEMYRSVkAtBkAvBUPyCdB[P[V_@CuBQgFe@{@Ko@O{@OAECIEGGAI@ED_A]a@QOKiAeAiAcB[m@g@oA{@wBe@u@a@_@_@We@Sc@IYCy@D{C\\u@J_@Je@TeAn@gCdB_@PeAXy@FsACSTCL[a@]]YWs@y@gBiBe@k@FOsE_V}GnAwPvDmVpF}Dr@yQ|DqWjF_JpBuXpIa^tTDXjAs@[qAEc@s@gDcB_I"},"summary":"","warnings":["Le calcul d'itinéraires piétons est en bêta. Faites attention – Cet itinéraire n'est peut-être pas complètement aménagé pour les piétons."],"waypoint_order":[]},{"bounds":{"northeast":{"lat":48.8384846,"lng":2.3592856},"southwest":{"lat":48.79404,"lng":2.332796}},"copyrights":"Données cartographiques ©2016 Google","legs":[{"arrival_time":{"text":"10:55","time_zone":"Europe/Paris","value":1472720135},"departure_time":{"text":"10:09","time_zone":"Europe/Paris","value":1472717385},"distance":{"text":"7,3 km","value":7336},"duration":{"text":"46 minutes","value":2750},"end_address":"73 Boulevard Saint-Marcel, 75005 Paris, France","end_location":{"lat":48.8377748,"lng":2.3548511},"start_address":"50 Avenue Paul Vaillant Couturier, 94800 Villejuif, France","start_location":{"lat":48.79509909999999,"lng":2.3560963},"steps":[{"distance":{"text":"0,3 km","value":257},"duration":{"text":"3 minutes","value":195},"end_location":{"lat":48.79404,"lng":2.354278},"html_instructions":"Marcher jusqu'à Institut Gustave Roussy","polyline":{"points":"khyhHsdkM^zAZnA?@?@?@ABQbAERADC@UTBL@H@D?LJ@xD\\?K"},"start_location":{"lat":48.79509909999999,"lng":2.3560963},"steps":[{"distance":{"text":"0,1 km","value":129},"duration":{"text":"2 minutes","value":97},"end_location":{"lat":48.7950719,"lng":2.3545967},"html_instructions":"Prendre la direction <b>sud-ouest</b><div style=\"font-size:0.9em\">Voie à accès limité</div>","polyline":{"points":"khyhHsdkM^zAZnA?@?@?@ABQbAERADC@UT"},"start_location":{"lat":48.79509909999999,"lng":2.3560963},"travel_mode":"WALKING"},{"distance":{"text":"17 m","value":17},"duration":{"text":"1 minute","value":13},"end_location":{"lat":48.7950338,"lng":2.3543809},"html_instructions":"Tourner à <b>gauche</b> vers <b>Rue de Verdun</b>","maneuver":"turn-left","polyline":{"points":"ehyhHg{jMBL@H@D?L"},"start_location":{"lat":48.7950719,"lng":2.3545967},"travel_mode":"WALKING"},{"distance":{"text":"0,1 km","value":111},"duration":{"text":"1 minute","value":85},"end_location":{"lat":48.79404,"lng":2.354278},"html_instructions":"Prendre <b>à gauche</b> sur <b>Rue de Verdun</b><div style=\"font-size:0.9em\">Votre destination se trouvera sur la gauche.</div>","maneuver":"turn-left","polyline":{"points":"}gyhH{yjMJ@xD\\?K"},"start_location":{"lat":48.7950338,"lng":2.3543809},"travel_mode":"WALKING"}],"travel_mode":"WALKING"},{"distance":{"text":"2,3 km","value":2309},"duration":{"text":"9 minutes","value":540},"end_location":{"lat":48.808188,"lng":2.332796},"html_instructions":"Bus vers Vache Noire - Centre Commercial","polyline":{"points":"wayhHgyjM_W`g@kL~\\kQn\\kVtGiH~X"},"start_location":{"lat":48.79404,"lng":2.354278},"transit_details":{"arrival_stop":{"location":{"lat":48.808188,"lng":2.332796},"name":"Laplace RER"},"arrival_time":{"text":"10:22","time_zone":"Europe/Paris","value":1472718120},"departure_stop":{"location":{"lat":48.79404,"lng":2.354278},"name":"Institut Gustave Roussy"},"departure_time":{"text":"10:13","time_zone":"Europe/Paris","value":1472717580},"headsign":"Vache Noire - Centre Commercial","line":{"agencies":[{"name":"STIF","url":"http://www.vianavigo.com/"}],"color":"#81c784","short_name":"380","text_color":"#000000","vehicle":{"icon":"//maps.gstatic.com/mapfiles/transit/iw2/6/bus2.png","name":"Bus","type":"BUS"}},"num_stops":5},"travel_mode":"TRANSIT"},{"distance":{"text":"4,3 km","value":4296},"duration":{"text":"21 minutes","value":1260},"end_location":{"lat":48.836336,"lng":2.359275},"html_instructions":"Bus vers Porte de Bagnolet - Louis Ganne","polyline":{"points":"ez{hH_sfMcPySJwGxCyf@kIsLwJcJwA}HqPeXeRjAeYsAmKUsLfCsM_KsHkGsLeIgK}G"},"start_location":{"lat":48.808188,"lng":2.332796},"transit_details":{"arrival_stop":{"location":{"lat":48.836336,"lng":2.359275},"name":"Jenner - Jeanne d'Arc"},"arrival_time":{"text":"10:50","time_zone":"Europe/Paris","value":1472719800},"departure_stop":{"location":{"lat":48.808188,"lng":2.332796},"name":"Laplace RER"},"departure_time":{"text":"10:29","time_zone":"Europe/Paris","value":1472718540},"headsign":"Porte de Bagnolet - Louis Ganne","line":{"agencies":[{"name":"STIF","url":"http://www.vianavigo.com/"}],"color":"#6e6e00","short_name":"57","text_color":"#ffffff","vehicle":{"icon":"//maps.gstatic.com/mapfiles/transit/iw2/6/bus2.png","name":"Bus","type":"BUS"}},"num_stops":15},"travel_mode":"TRANSIT"},{"distance":{"text":"0,5 km","value":474},"duration":{"text":"6 minutes","value":334},"end_location":{"lat":48.8377748,"lng":2.3548511},"html_instructions":"Marcher jusqu'à 73 Boulevard Saint-Marcel, 75005 Paris, France","polyline":{"points":"cjaiHmxkMGVa@[O\\GJCBIHOHaAlAiA~AaBbCk@x@GDEBEBMDO@dAxEh@~B\\xA"},"start_location":{"lat":48.836336,"lng":2.359275},"steps":[{"distance":{"text":"21 m","value":21},"duration":{"text":"1 minute","value":15},"end_location":{"lat":48.8365472,"lng":2.3592856},"html_instructions":"Prendre la direction <b>nord-est</b> sur <b>Boulevard de l'Hôpital</b> vers <b>Rue Jeanne d'Arc</b>","polyline":{"points":"cjaiHmxkMGVa@["},"start_location":{"lat":48.836336,"lng":2.359275},"travel_mode":"WALKING"},{"distance":{"text":"0,3 km","value":275},"duration":{"text":"3 minutes","value":182},"end_location":{"lat":48.8384846,"lng":2.3570328},"html_instructions":"Prendre <b>à gauche</b> sur <b>Rue Jeanne d'Arc</b>","maneuver":"turn-left","polyline":{"points":"mkaiHqxkMO\\GJCBIHOHaAlAiA~AaBbCk@x@GDEBEBMDO@"},"start_location":{"lat":48.8365472,"lng":2.3592856},"travel_mode":"WALKING"},{"distance":{"text":"0,2 km","value":178},"duration":{"text":"2 minutes","value":137},"end_location":{"lat":48.8377748,"lng":2.3548511},"html_instructions":"Prendre <b>à gauche</b> sur <b>Boulevard Saint-Marcel</b><div style=\"font-size:0.9em\">Votre destination se trouvera sur la gauche.</div>","maneuver":"turn-left","polyline":{"points":"owaiHmjkMdAxEh@~B\\xA"},"start_location":{"lat":48.8384846,"lng":2.3570328},"travel_mode":"WALKING"}],"travel_mode":"WALKING"}],"traffic_speed_entry":[],"via_waypoint":[]}],"overview_polyline":{"points":"khyhHsdkMz@nDY|AEFUTBLBN?LJ@xD\\?K_W`g@kL~\\kQn\\kVtGiH~XcPySJwGxCyf@kIsLwJcJwA}HqPeXeRjAeYsAmKUsLfCsM_KsHkGsLeIgK}GGVa@[Wh@MLOHaAlAkDbFs@~@KF]FnBxI\\xA"},"summary":"","warnings":["Le calcul d'itinéraires piétons est en bêta. Faites attention – Cet itinéraire n'est peut-être pas complètement aménagé pour les piétons."],"waypoint_order":[]},{"bounds":{"northeast":{"lat":48.840034,"lng":2.3560963},"southwest":{"lat":48.79404,"lng":2.332796}},"copyrights":"Données cartographiques ©2016 Google","legs":[{"arrival_time":{"text":"10:57","time_zone":"Europe/Paris","value":1472720244},"departure_time":{"text":"10:09","time_zone":"Europe/Paris","value":1472717385},"distance":{"text":"8,0 km","value":8002},"duration":{"text":"48 minutes","value":2859},"end_address":"73 Boulevard Saint-Marcel, 75005 Paris, France","end_location":{"lat":48.8377748,"lng":2.3548511},"start_address":"50 Avenue Paul Vaillant Couturier, 94800 Villejuif, France","start_location":{"lat":48.79509909999999,"lng":2.3560963},"steps":[{"distance":{"text":"0,3 km","value":257},"duration":{"text":"3 minutes","value":195},"end_location":{"lat":48.79404,"lng":2.354278},"html_instructions":"Marcher jusqu'à Institut Gustave Roussy","polyline":{"points":"khyhHsdkM^zAZnA?@?@?@ABQbAERADC@UTBL@H@D?LJ@xD\\?K"},"start_location":{"lat":48.79509909999999,"lng":2.3560963},"steps":[{"distance":{"text":"0,1 km","value":129},"duration":{"text":"2 minutes","value":97},"end_location":{"lat":48.7950719,"lng":2.3545967},"html_instructions":"Prendre la direction <b>sud-ouest</b><div style=\"font-size:0.9em\">Voie à accès limité</div>","polyline":{"points":"khyhHsdkM^zAZnA?@?@?@ABQbAERADC@UT"},"start_location":{"lat":48.79509909999999,"lng":2.3560963},"travel_mode":"WALKING"},{"distance":{"text":"17 m","value":17},"duration":{"text":"1 minute","value":13},"end_location":{"lat":48.7950338,"lng":2.3543809},"html_instructions":"Tourner à <b>gauche</b> vers <b>Rue de Verdun</b>","maneuver":"turn-left","polyline":{"points":"ehyhHg{jMBL@H@D?L"},"start_location":{"lat":48.7950719,"lng":2.3545967},"travel_mode":"WALKING"},{"distance":{"text":"0,1 km","value":111},"duration":{"text":"1 minute","value":85},"end_location":{"lat":48.79404,"lng":2.354278},"html_instructions":"Prendre <b>à gauche</b> sur <b>Rue de Verdun</b><div style=\"font-size:0.9em\">Votre destination se trouvera sur la gauche.</div>","maneuver":"turn-left","polyline":{"points":"}gyhH{yjMJ@xD\\?K"},"start_location":{"lat":48.7950338,"lng":2.3543809},"travel_mode":"WALKING"}],"travel_mode":"WALKING"},{"distance":{"text":"2,3 km","value":2309},"duration":{"text":"9 minutes","value":540},"end_location":{"lat":48.808188,"lng":2.332796},"html_instructions":"Bus vers Vache Noire - Centre Commercial","polyline":{"points":"wayhHgyjM_W`g@kL~\\kQn\\kVtGiH~X"},"start_location":{"lat":48.79404,"lng":2.354278},"transit_details":{"arrival_stop":{"location":{"lat":48.808188,"lng":2.332796},"name":"Laplace RER"},"arrival_time":{"text":"10:22","time_zone":"Europe/Paris","value":1472718120},"departure_stop":{"location":{"lat":48.79404,"lng":2.354278},"name":"Institut Gustave Roussy"},"departure_time":{"text":"10:13","time_zone":"Europe/Paris","value":1472717580},"headsign":"Vache Noire - Centre Commercial","line":{"agencies":[{"name":"STIF","url":"http://www.vianavigo.com/"}],"color":"#81c784","short_name":"380","text_color":"#000000","vehicle":{"icon":"//maps.gstatic.com/mapfiles/transit/iw2/6/bus2.png","name":"Bus","type":"BUS"}},"num_stops":5},"travel_mode":"TRANSIT"},{"distance":{"text":"0,1 km","value":114},"duration":{"text":"2 minutes","value":114},"end_location":{"lat":48.808297,"lng":2.334354},"html_instructions":"Marcher jusqu'à Gare de Laplace","polyline":{"points":"ez{hH_sfMUuH"},"start_location":{"lat":48.808188,"lng":2.332796},"steps":[{"distance":{"text":"0,1 km","value":114},"duration":{"text":"2 minutes","value":114},"end_location":{"lat":48.808297,"lng":2.334354},"polyline":{"points":"ez{hH_sfMUuH"},"start_location":{"lat":48.808188,"lng":2.332796},"travel_mode":"WALKING"}],"travel_mode":"WALKING"},{"distance":{"text":"3,9 km","value":3882},"duration":{"text":"8 minutes","value":480},"end_location":{"lat":48.840034,"lng":2.337096},"html_instructions":"RER vers Gare de Mitry Claye","polyline":{"points":"{z{hHu|fMgAaBaCoDm@y@s@eAeDwEw@kAi@w@oCcE_AgAwA}Aa@_@u@k@gAo@m@]WKm@Q_@GMCMCa@E[AS?c@?e@Da@DgARe@Ng@Lc@Pc@Pg@Tu@^{Az@{Az@eAj@c@P_@P_@HYHWF_ANi@Da@Bk@@gBMk@Ew@@_ABm@Jc@Jq@ZeAr@]RYPo@`@e@Ra@Pk@Rk@Rs@Rw@PqAXsCp@sDx@gDv@{B`@_B\\_ATq@Lk@Lo@No@Ro@Xm@Z]TYVi@j@WVc@h@e@h@a@b@i@l@_@Zm@b@ULs@VmAZeDv@o@PaAX]Jc@F]Di@B]?g@G_AYa@S[Sk@g@kAaAkAgA}@}@?AuAuAyA{Ao@s@gAiAcAaAw@k@cAg@}@Y{@YsA["},"start_location":{"lat":48.808297,"lng":2.334354},"transit_details":{"arrival_stop":{"location":{"lat":48.840034,"lng":2.337096},"name":"Port-Royal"},"arrival_time":{"text":"10:44","time_zone":"Europe/Paris","value":1472719440},"departure_stop":{"location":{"lat":48.808297,"lng":2.334354},"name":"Gare de Laplace"},"departure_time":{"text":"10:36","time_zone":"Europe/Paris","value":1472718960},"headsign":"Gare de Mitry Claye","line":{"agencies":[{"name":"STIF","url":"http://www.vianavigo.com/"}],"color":"#5092c9","short_name":"RER B","text_color":"#ffffff","vehicle":{"icon":"//maps.gstatic.com/mapfiles/transit/iw2/6/rail2.png","local_icon":"//maps.gstatic.com/mapfiles/transit/iw2/6/fr-paris-rail.png","name":"RER","type":"COMMUTER_TRAIN"}},"num_stops":4},"travel_mode":"TRANSIT"},{"distance":{"text":"66 m","value":66},"duration":{"text":"1 minute","value":65},"end_location":{"lat":48.839439,"lng":2.337123},"html_instructions":"Marcher jusqu'à Observatoire - Port Royal","polyline":{"points":"eabiH{mgMx@Bz@G"},"start_location":{"lat":48.840034,"lng":2.337096},"steps":[{"distance":{"text":"32 m","value":32},"duration":{"text":"1 minute","value":31},"end_location":{"lat":48.839744,"lng":2.33708},"polyline":{"points":"eabiH{mgMx@B"},"start_location":{"lat":48.840034,"lng":2.337096},"travel_mode":"WALKING"},{"distance":{"text":"34 m","value":34},"duration":{"text":"1 minute","value":34},"end_location":{"lat":48.839439,"lng":2.337123},"polyline":{"points":"k_biHwmgMz@G"},"start_location":{"lat":48.839744,"lng":2.33708},"travel_mode":"WALKING"}],"travel_mode":"WALKING"},{"distance":{"text":"1,2 km","value":1175},"duration":{"text":"5 minutes","value":300},"end_location":{"lat":48.836921,"lng":2.352631},"html_instructions":"Bus vers Bastille","polyline":{"points":"o}aiH_ngMvDyUvDmZfCum@"},"start_location":{"lat":48.839439,"lng":2.337123},"transit_details":{"arrival_stop":{"location":{"lat":48.836921,"lng":2.352631},"name":"Les Gobelins"},"arrival_time":{"text":"10:55","time_zone":"Europe/Paris","value":1472720100},"departure_stop":{"location":{"lat":48.839439,"lng":2.337123},"name":"Observatoire - Port Royal"},"departure_time":{"text":"10:50","time_zone":"Europe/Paris","value":1472719800},"headsign":"Bastille","line":{"agencies":[{"name":"STIF","url":"http://www.vianavigo.com/"}],"color":"#dc9600","short_name":"91","text_color":"#000000","vehicle":{"icon":"//maps.gstatic.com/mapfiles/transit/iw2/6/bus2.png","name":"Bus","type":"BUS"}},"num_stops":3},"travel_mode":"TRANSIT"},{"distance":{"text":"0,2 km","value":199},"duration":{"text":"2 minutes","value":144},"end_location":{"lat":48.8377748,"lng":2.3548511},"html_instructions":"Marcher jusqu'à 73 Boulevard Saint-Marcel, 75005 Paris, France","polyline":{"points":"wmaiH}njMEBQ_AK[SJEWGWGYS}@WmAQ}@]{A"},"start_location":{"lat":48.836921,"lng":2.352631},"steps":[{"distance":{"text":"38 m","value":38},"duration":{"text":"1 minute","value":27},"end_location":{"lat":48.8371013,"lng":2.3530677},"html_instructions":"Prendre la direction <b>nord-est</b> vers <b>Rue Michel Peter</b>","polyline":{"points":"wmaiH}njMEBQ_AK["},"start_location":{"lat":48.836921,"lng":2.352631},"travel_mode":"WALKING"},{"distance":{"text":"11 m","value":11},"duration":{"text":"1 minute","value":8},"end_location":{"lat":48.8371962,"lng":2.3530073},"html_instructions":"Prendre <b>à gauche</b> sur <b>Rue Michel Peter</b>","maneuver":"turn-left","polyline":{"points":"{naiHuqjMSJ"},"start_location":{"lat":48.8371013,"lng":2.3530677},"travel_mode":"WALKING"},{"distance":{"text":"0,2 km","value":150},"duration":{"text":"2 minutes","value":109},"end_location":{"lat":48.8377748,"lng":2.3548511},"html_instructions":"Prendre <b>à droite</b> sur <b>Boulevard Saint-Marcel</b><div style=\"font-size:0.9em\">Votre destination se trouvera sur la droite.</div>","maneuver":"turn-right","polyline":{"points":"ooaiHiqjMEWGWGYS}@WmAQ}@]{A"},"start_location":{"lat":48.8371962,"lng":2.3530073},"travel_mode":"WALKING"}],"travel_mode":"WALKING"}],"traffic_speed_entry":[],"via_waypoint":[]}],"overview_polyline":{"points":"khyhHsdkMz@nDY|AEFUTBLBN?LJ@xD\\?K_W`g@kL~\\kQn\\kVtGiH~XUuHgAaBoDiFyE}GaBcCoCcE_AgAyB}Bu@k@gAo@eAi@mAY[G}@Gw@?gAJgARmA\\gAb@}At@wDvBiB|@_AZq@PiBTmADsCSwBDqAVq@ZeAr@w@d@uAt@mAd@_Bf@qMvCcHxA_Dr@}AZ_Bb@}At@w@l@kCvCkApAmA~@iAd@sFrAqBj@aARgAH]?g@G_AY}@g@wBiBiCeC_FgFkCkCw@k@cAg@yBs@sA[x@Bz@GvDyUvDmZfCum@EB]{ASJEWOq@{AeH"},"summary":"","warnings":["Le calcul d'itinéraires piétons est en bêta. Faites attention – Cet itinéraire n'est peut-être pas complètement aménagé pour les piétons."],"waypoint_order":[]}],"status":"OK"}},null,{"origin":{"lat":2.380248141207897,"lng":48.86420817470464},"taff":{"geocoded_waypoints":[{"geocoder_status":"OK","place_id":"ChIJW9cabPBt5kcRvtkcGP2Zhw4","types":["street_address"]},{"geocoder_status":"OK","place_id":"ChIJc5sm28pv5kcR0cpsawDOfSg","types":["street_address"]}],"routes":[{"bounds":{"northeast":{"lat":48.8752566,"lng":2.3802446},"southwest":{"lat":48.8609864,"lng":2.3228933}},"copyrights":"Données cartographiques ©2016 Google","legs":[{"arrival_time":{"text":"10:43","time_zone":"Europe/Paris","value":1472719380},"departure_time":{"text":"10:04","time_zone":"Europe/Paris","value":1472717072},"distance":{"text":"5,0 km","value":4988},"duration":{"text":"38 minutes","value":2308},"end_address":"73 Rue d'Anjou, 75008 Paris, France","end_location":{"lat":48.8748221,"lng":2.3228933},"start_address":"86 Avenue de la République, 75011 Paris, France","start_location":{"lat":48.8641768,"lng":2.3802446},"steps":[{"distance":{"text":"0,6 km","value":629},"duration":{"text":"7 minutes","value":447},"end_location":{"lat":48.861299,"lng":2.374487},"html_instructions":"Marcher jusqu'à Saint-Ambroise","polyline":{"points":"cxfiHo{oMXH@@@?B@@B?@BDrAnFf@Y|@s@t@tBv@zB`BrEFNnCzH^fARl@m@nAOU"},"start_location":{"lat":48.8641768,"lng":2.3802446},"steps":[{"distance":{"text":"0,1 km","value":124},"duration":{"text":"1 minute","value":84},"end_location":{"lat":48.86356170000001,"lng":2.3789072},"html_instructions":"Prendre la direction <b>sud</b> sur <b>Rue Saint-Hubert</b> vers <b>Rue Saint-Maur</b>","polyline":{"points":"cxfiHo{oMXH@@@?B@@B?@BDrAnF"},"start_location":{"lat":48.8641768,"lng":2.3802446},"travel_mode":"WALKING"},{"distance":{"text":"63 m","value":63},"duration":{"text":"1 minute","value":43},"end_location":{"lat":48.86305369999999,"lng":2.3793018},"html_instructions":"Prendre <b>à gauche</b> sur <b>Rue Saint-Maur</b>","maneuver":"turn-left","polyline":{"points":"gtfiHesoMf@Y|@s@"},"start_location":{"lat":48.86356170000001,"lng":2.3789072},"travel_mode":"WALKING"},{"distance":{"text":"0,4 km","value":403},"duration":{"text":"5 minutes","value":292},"end_location":{"lat":48.8609864,"lng":2.3747751},"html_instructions":"Prendre <b>à droite</b> sur <b>Rue Saint-Ambroise</b>","maneuver":"turn-right","polyline":{"points":"aqfiHsuoMt@tBv@zB`BrEFNnCzH^fARl@"},"start_location":{"lat":48.86305369999999,"lng":2.3793018},"travel_mode":"WALKING"},{"distance":{"text":"39 m","value":39},"duration":{"text":"1 minute","value":28},"end_location":{"lat":48.861299,"lng":2.374487},"html_instructions":"Prendre <b>à droite</b> sur <b>Boulevard Voltaire</b><div style=\"font-size:0.9em\">Votre destination se trouvera sur la droite.</div>","maneuver":"turn-right","polyline":{"points":"edfiHkynMm@nAOU"},"start_location":{"lat":48.8609864,"lng":2.3747751},"travel_mode":"WALKING"}],"travel_mode":"WALKING"},{"distance":{"text":"0,8 km","value":850},"duration":{"text":"5 minutes","value":300},"end_location":{"lat":48.866433,"lng":2.365867},"html_instructions":"Bus vers Porte de Clignancourt","polyline":{"points":"cffiHqwnMsMrWuIzPwEjJ"},"start_location":{"lat":48.861299,"lng":2.374487},"transit_details":{"arrival_stop":{"location":{"lat":48.866433,"lng":2.365867},"name":"République - Voltaire"},"arrival_time":{"text":"10:17","time_zone":"Europe/Paris","value":1472717820},"departure_stop":{"location":{"lat":48.861299,"lng":2.374487},"name":"Saint-Ambroise"},"departure_time":{"text":"10:12","time_zone":"Europe/Paris","value":1472717520},"headsign":"Porte de Clignancourt","line":{"agencies":[{"name":"STIF","url":"http://www.vianavigo.com/"}],"color":"#a0006e","short_name":"56","text_color":"#ffffff","vehicle":{"icon":"//maps.gstatic.com/mapfiles/transit/iw2/6/bus2.png","name":"Bus","type":"BUS"}},"num_stops":3},"travel_mode":"TRANSIT"},{"distance":{"text":"66 m","value":66},"duration":{"text":"1 minute","value":66},"end_location":{"lat":48.866128,"lng":2.365091},"html_instructions":"Marcher jusqu'à République - Temple","polyline":{"points":"efgiHuamMz@zC"},"start_location":{"lat":48.866433,"lng":2.365867},"steps":[{"distance":{"text":"66 m","value":66},"duration":{"text":"1 minute","value":66},"end_location":{"lat":48.866128,"lng":2.365091},"polyline":{"points":"efgiHuamMz@zC"},"start_location":{"lat":48.866433,"lng":2.365867},"travel_mode":"WALKING"}],"travel_mode":"WALKING"},{"distance":{"text":"3,2 km","value":3209},"duration":{"text":"21 minutes","value":1260},"end_location":{"lat":48.874624,"lng":2.325256},"html_instructions":"Bus vers Gare Saint-Lazare","polyline":{"points":"idgiHy|lMwKjTgDja@_BlNoGte@iCxXsAvXhBzQjB|ReGvQgGtM{EfN"},"start_location":{"lat":48.866128,"lng":2.365091},"transit_details":{"arrival_stop":{"location":{"lat":48.874624,"lng":2.325256},"name":"Gare Saint-Lazare"},"arrival_time":{"text":"10:40","time_zone":"Europe/Paris","value":1472719200},"departure_stop":{"location":{"lat":48.866128,"lng":2.365091},"name":"République - Temple"},"departure_time":{"text":"10:19","time_zone":"Europe/Paris","value":1472717940},"headsign":"Gare Saint-Lazare","line":{"agencies":[{"name":"STIF","url":"http://www.vianavigo.com/"}],"color":"#e65100","short_name":"20","text_color":"#000000","vehicle":{"icon":"//maps.gstatic.com/mapfiles/transit/iw2/6/bus2.png","name":"Bus","type":"BUS"}},"num_stops":11},"travel_mode":"TRANSIT"},{"distance":{"text":"0,2 km","value":234},"duration":{"text":"3 minutes","value":180},"end_location":{"lat":48.8748221,"lng":2.3228933},"html_instructions":"Marcher jusqu'à 73 Rue d'Anjou, 75008 Paris, France","polyline":{"points":"kyhiH{ceMFNi@x@g@|@MNg@n@LzAHjDRAf@HB@"},"start_location":{"lat":48.874624,"lng":2.325256},"steps":[{"distance":{"text":"0,1 km","value":101},"duration":{"text":"1 minute","value":73},"end_location":{"lat":48.8752566,"lng":2.3242588},"html_instructions":"Prendre la direction <b>nord-ouest</b> sur <b>Rue de Rome</b> vers <b>Rue de l'Isly</b>","polyline":{"points":"kyhiH{ceMFNi@x@g@|@MNg@n@"},"start_location":{"lat":48.874624,"lng":2.325256},"travel_mode":"WALKING"},{"distance":{"text":"0,1 km","value":98},"duration":{"text":"1 minute","value":75},"end_location":{"lat":48.8751359,"lng":2.3229397},"html_instructions":"Prendre <b>à gauche</b> sur <b>Rue de la Pépinière</b>/<b>Place Gabriel Péri</b><div style=\"font-size:0.9em\">Continuer de suivre Rue de la Pépinière</div>","maneuver":"turn-left","polyline":{"points":"k}hiHs}dMLzAHjD"},"start_location":{"lat":48.8752566,"lng":2.3242588},"travel_mode":"WALKING"},{"distance":{"text":"35 m","value":35},"duration":{"text":"1 minute","value":32},"end_location":{"lat":48.8748221,"lng":2.3228933},"html_instructions":"Prendre <b>à gauche</b> sur <b>Rue d'Anjou</b><div style=\"font-size:0.9em\">Votre destination se trouvera sur la droite.</div>","maneuver":"turn-left","polyline":{"points":"s|hiHkudMRAf@HB@"},"start_location":{"lat":48.8751359,"lng":2.3229397},"travel_mode":"WALKING"}],"travel_mode":"WALKING"}],"traffic_speed_entry":[],"via_waypoint":[]}],"overview_polyline":{"points":"cxfiHo{oM`@LxAzFdBmAlBpFxGfRRl@m@nAOUsMrWmPf\\z@zCwKjTgDja@_BlNoGte@iCxXsAvXhBzQjB|ReGvQgGtM{EfNFNi@x@u@lAg@n@LzAHjDRAj@J"},"summary":"","warnings":["Le calcul d'itinéraires piétons est en bêta. Faites attention – Cet itinéraire n'est peut-être pas complètement aménagé pour les piétons."],"waypoint_order":[]},{"bounds":{"northeast":{"lat":48.8752566,"lng":2.3802446},"southwest":{"lat":48.8641768,"lng":2.3228933}},"copyrights":"Données cartographiques ©2016 Google","legs":[{"arrival_time":{"text":"10:43","time_zone":"Europe/Paris","value":1472719380},"departure_time":{"text":"10:01","time_zone":"Europe/Paris","value":1472716866},"distance":{"text":"4,8 km","value":4783},"duration":{"text":"42 minutes","value":2514},"end_address":"73 Rue d'Anjou, 75008 Paris, France","end_location":{"lat":48.8748221,"lng":2.3228933},"start_address":"86 Avenue de la République, 75011 Paris, France","start_location":{"lat":48.8641768,"lng":2.3802446},"steps":[{"distance":{"text":"0,6 km","value":630},"duration":{"text":"8 minutes","value":473},"end_location":{"lat":48.866647,"lng":2.373183},"html_instructions":"Marcher jusqu'à Parmentier","polyline":{"points":"cxfiHo{oMuA`MMdAaAdJIPADU~@QdCEb@o@d@A@GNwExCDLF^BJMF"},"start_location":{"lat":48.8641768,"lng":2.3802446},"steps":[{"distance":{"text":"0,3 km","value":335},"duration":{"text":"4 minutes","value":242},"end_location":{"lat":48.8650124,"lng":2.3758514},"html_instructions":"Prendre la direction <b>ouest</b> sur <b>Avenue de la République</b> vers <b>Rue Saint-Maur</b>","polyline":{"points":"cxfiHo{oMuA`MMdAaAdJ"},"start_location":{"lat":48.8641768,"lng":2.3802446},"travel_mode":"WALKING"},{"distance":{"text":"0,1 km","value":101},"duration":{"text":"1 minute","value":84},"end_location":{"lat":48.8653009,"lng":2.3745615},"html_instructions":"Tourner légèrement à <b>droite</b> pour continuer sur <b>Avenue de la République</b>","maneuver":"turn-slight-right","polyline":{"points":"i}fiHa`oMIPADU~@QdCEb@"},"start_location":{"lat":48.8650124,"lng":2.3758514},"travel_mode":"WALKING"},{"distance":{"text":"0,2 km","value":171},"duration":{"text":"2 minutes","value":126},"end_location":{"lat":48.8666705,"lng":2.3735078},"html_instructions":"Prendre <b>à droite</b> sur <b>Avenue Parmentier</b>","maneuver":"turn-right","polyline":{"points":"c_giH_xnMo@d@A@GNwExC"},"start_location":{"lat":48.8653009,"lng":2.3745615},"travel_mode":"WALKING"},{"distance":{"text":"23 m","value":23},"duration":{"text":"1 minute","value":21},"end_location":{"lat":48.866647,"lng":2.373183},"html_instructions":"Prendre <b>à gauche</b> sur <b>Rue Jean-Pierre Timbaud</b><div style=\"font-size:0.9em\">Votre destination se trouvera sur la droite.</div>","maneuver":"turn-left","polyline":{"points":"uggiHmqnMDLF^BJMF"},"start_location":{"lat":48.8666705,"lng":2.3735078},"travel_mode":"WALKING"}],"travel_mode":"WALKING"},{"distance":{"text":"0,3 km","value":277},"duration":{"text":"1 minute","value":60},"end_location":{"lat":48.865731,"lng":2.369654},"html_instructions":"Bus vers Gare Montparnasse","polyline":{"points":"qggiHkonMvD`U"},"start_location":{"lat":48.866647,"lng":2.373183},"transit_details":{"arrival_stop":{"location":{"lat":48.865731,"lng":2.369654},"name":"Jean-Pierre Timbaud - Richard Lenoir"},"arrival_time":{"text":"10:10","time_zone":"Europe/Paris","value":1472717400},"departure_stop":{"location":{"lat":48.866647,"lng":2.373183},"name":"Parmentier"},"departure_time":{"text":"10:09","time_zone":"Europe/Paris","value":1472717340},"headsign":"Gare Montparnasse","line":{"agencies":[{"name":"STIF","url":"http://www.vianavigo.com/"}],"color":"#dc9600","short_name":"96","text_color":"#000000","vehicle":{"icon":"//maps.gstatic.com/mapfiles/transit/iw2/6/bus2.png","name":"Bus","type":"BUS"}},"num_stops":1},"travel_mode":"TRANSIT"},{"distance":{"text":"0,3 km","value":296},"duration":{"text":"5 minutes","value":296},"end_location":{"lat":48.864977,"lng":2.365771},"html_instructions":"Marcher jusqu'à Jean-Pierre Timbaud","polyline":{"points":"yagiHiymMtCfW"},"start_location":{"lat":48.865731,"lng":2.369654},"steps":[{"distance":{"text":"0,3 km","value":296},"duration":{"text":"5 minutes","value":296},"end_location":{"lat":48.864977,"lng":2.365771},"polyline":{"points":"yagiHiymMtCfW"},"start_location":{"lat":48.865731,"lng":2.369654},"travel_mode":"WALKING"}],"travel_mode":"WALKING"},{"distance":{"text":"3,3 km","value":3346},"duration":{"text":"21 minutes","value":1260},"end_location":{"lat":48.874624,"lng":2.325256},"html_instructions":"Bus vers Gare Saint-Lazare","polyline":{"points":"c}fiHaamMeFfCwKjTgDja@_BlNoGte@iCxXsAvXhBzQjB|ReGvQgGtM{EfN"},"start_location":{"lat":48.864977,"lng":2.365771},"transit_details":{"arrival_stop":{"location":{"lat":48.874624,"lng":2.325256},"name":"Gare Saint-Lazare"},"arrival_time":{"text":"10:40","time_zone":"Europe/Paris","value":1472719200},"departure_stop":{"location":{"lat":48.864977,"lng":2.365771},"name":"Jean-Pierre Timbaud"},"departure_time":{"text":"10:19","time_zone":"Europe/Paris","value":1472717940},"headsign":"Gare Saint-Lazare","line":{"agencies":[{"name":"STIF","url":"http://www.vianavigo.com/"}],"color":"#e65100","short_name":"20","text_color":"#000000","vehicle":{"icon":"//maps.gstatic.com/mapfiles/transit/iw2/6/bus2.png","name":"Bus","type":"BUS"}},"num_stops":12},"travel_mode":"TRANSIT"},{"distance":{"text":"0,2 km","value":234},"duration":{"text":"3 minutes","value":180},"end_location":{"lat":48.8748221,"lng":2.3228933},"html_instructions":"Marcher jusqu'à 73 Rue d'Anjou, 75008 Paris, France","polyline":{"points":"kyhiH{ceMFNi@x@g@|@MNg@n@LzAHjDRAf@HB@"},"start_location":{"lat":48.874624,"lng":2.325256},"steps":[{"distance":{"text":"0,1 km","value":101},"duration":{"text":"1 minute","value":73},"end_location":{"lat":48.8752566,"lng":2.3242588},"html_instructions":"Prendre la direction <b>nord-ouest</b> sur <b>Rue de Rome</b> vers <b>Rue de l'Isly</b>","polyline":{"points":"kyhiH{ceMFNi@x@g@|@MNg@n@"},"start_location":{"lat":48.874624,"lng":2.325256},"travel_mode":"WALKING"},{"distance":{"text":"0,1 km","value":98},"duration":{"text":"1 minute","value":75},"end_location":{"lat":48.8751359,"lng":2.3229397},"html_instructions":"Prendre <b>à gauche</b> sur <b>Rue de la Pépinière</b>/<b>Place Gabriel Péri</b><div style=\"font-size:0.9em\">Continuer de suivre Rue de la Pépinière</div>","maneuver":"turn-left","polyline":{"points":"k}hiHs}dMLzAHjD"},"start_location":{"lat":48.8752566,"lng":2.3242588},"travel_mode":"WALKING"},{"distance":{"text":"35 m","value":35},"duration":{"text":"1 minute","value":32},"end_location":{"lat":48.8748221,"lng":2.3228933},"html_instructions":"Prendre <b>à gauche</b> sur <b>Rue d'Anjou</b><div style=\"font-size:0.9em\">Votre destination se trouvera sur la droite.</div>","maneuver":"turn-left","polyline":{"points":"s|hiHkudMRAf@HB@"},"start_location":{"lat":48.8751359,"lng":2.3229397},"travel_mode":"WALKING"}],"travel_mode":"WALKING"}],"traffic_speed_entry":[],"via_waypoint":[]}],"overview_polyline":{"points":"cxfiHo{oMcBfOaAdJIPWdAWhDq@f@GNwExCLl@BJMFvD`UtCfWeFfCwKjTgDja@_BlNoGte@iCxXsAvXhBzQjB|ReGvQgGtM{EfNFNi@x@u@lAg@n@LzAHjDRAj@J"},"summary":"","warnings":["Le calcul d'itinéraires piétons est en bêta. Faites attention – Cet itinéraire n'est peut-être pas complètement aménagé pour les piétons."],"waypoint_order":[]},{"bounds":{"northeast":{"lat":48.881741,"lng":2.3802446},"southwest":{"lat":48.8641768,"lng":2.3227511}},"copyrights":"Données cartographiques ©2016 Google","legs":[{"arrival_time":{"text":"10:51","time_zone":"Europe/Paris","value":1472719898},"departure_time":{"text":"10:00","time_zone":"Europe/Paris","value":1472716809},"distance":{"text":"6,9 km","value":6881},"duration":{"text":"51 minutes","value":3089},"end_address":"73 Rue d'Anjou, 75008 Paris, France","end_location":{"lat":48.8748221,"lng":2.3228933},"start_address":"86 Avenue de la République, 75011 Paris, France","start_location":{"lat":48.8641768,"lng":2.3802446},"steps":[{"distance":{"text":"0,5 km","value":460},"duration":{"text":"6 minutes","value":349},"end_location":{"lat":48.864732,"lng":2.375116},"html_instructions":"Marcher jusqu'à Parmentier - République","polyline":{"points":"cxfiHo{oMuA`MMdAaAdJ?V?BE`@Kj@El@CTLh@v@a@NAAa@"},"start_location":{"lat":48.8641768,"lng":2.3802446},"steps":[{"distance":{"text":"0,4 km","value":400},"duration":{"text":"5 minutes","value":298},"end_location":{"lat":48.8651488,"lng":2.374982},"html_instructions":"Prendre la direction <b>ouest</b> sur <b>Avenue de la République</b> vers <b>Rue Saint-Maur</b>","polyline":{"points":"cxfiHo{oMuA`MMdAaAdJ?V?BE`@Kj@El@CT"},"start_location":{"lat":48.8641768,"lng":2.3802446},"travel_mode":"WALKING"},{"distance":{"text":"18 m","value":18},"duration":{"text":"1 minute","value":16},"end_location":{"lat":48.86507710000001,"lng":2.3747687},"html_instructions":"Prendre légèrement <b>à gauche</b> sur <b>Rue Oberkampf</b>","maneuver":"turn-slight-left","polyline":{"points":"e~fiHsznMLh@"},"start_location":{"lat":48.8651488,"lng":2.374982},"travel_mode":"WALKING"},{"distance":{"text":"42 m","value":42},"duration":{"text":"1 minute","value":35},"end_location":{"lat":48.864732,"lng":2.375116},"html_instructions":"Prendre <b>à gauche</b> sur <b>Avenue Parmentier</b><div style=\"font-size:0.9em\">Votre destination se trouvera sur la gauche.</div>","maneuver":"turn-left","polyline":{"points":"w}fiHiynMv@a@NAAa@"},"start_location":{"lat":48.86507710000001,"lng":2.3747687},"travel_mode":"WALKING"}],"travel_mode":"WALKING"},{"distance":{"text":"3,4 km","value":3435},"duration":{"text":"17 minutes","value":1020},"end_location":{"lat":48.88097699999999,"lng":2.3574},"html_instructions":"Bus vers Gare du Nord","polyline":{"points":"q{fiHo{nMkPvK_QnL}KfEcSiBaOsA_LfYkApLnM`PzIlEhAzOsHpHwRqD"},"start_location":{"lat":48.864732,"lng":2.375116},"transit_details":{"arrival_stop":{"location":{"lat":48.88097699999999,"lng":2.3574},"name":"Gare du Nord"},"arrival_time":{"text":"10:23","time_zone":"Europe/Paris","value":1472718180},"departure_stop":{"location":{"lat":48.864732,"lng":2.375116},"name":"Parmentier - République"},"departure_time":{"text":"10:06","time_zone":"Europe/Paris","value":1472717160},"headsign":"Gare du Nord","line":{"agencies":[{"name":"STIF","url":"http://www.vianavigo.com/"}],"color":"#d2d200","short_name":"46","text_color":"#000000","vehicle":{"icon":"//maps.gstatic.com/mapfiles/transit/iw2/6/bus2.png","name":"Bus","type":"BUS"}},"num_stops":12},"travel_mode":"TRANSIT"},{"distance":{"text":"89 m","value":89},"duration":{"text":"1 minute","value":89},"end_location":{"lat":48.881741,"lng":2.357782},"html_instructions":"Marcher jusqu'à Gare du Nord","polyline":{"points":"cajiHwlkMwCkA"},"start_location":{"lat":48.88097699999999,"lng":2.3574},"steps":[{"distance":{"text":"89 m","value":89},"duration":{"text":"1 minute","value":89},"end_location":{"lat":48.881741,"lng":2.357782},"polyline":{"points":"cajiHwlkMwCkA"},"start_location":{"lat":48.88097699999999,"lng":2.3574},"travel_mode":"WALKING"}],"travel_mode":"WALKING"},{"distance":{"text":"2,7 km","value":2744},"duration":{"text":"18 minutes","value":1080},"end_location":{"lat":48.874264,"lng":2.324166},"html_instructions":"Bus vers Bagatelle","polyline":{"points":"{ejiHcokMnIfPaAtTrExTvEvTtH`SdCvKe@jQe@v\\hCtZvDjCjBpM"},"start_location":{"lat":48.881741,"lng":2.357782},"transit_details":{"arrival_stop":{"location":{"lat":48.874264,"lng":2.324166},"name":"Pasquier - Anjou"},"arrival_time":{"text":"10:50","time_zone":"Europe/Paris","value":1472719800},"departure_stop":{"location":{"lat":48.881741,"lng":2.357782},"name":"Gare du Nord"},"departure_time":{"text":"10:32","time_zone":"Europe/Paris","value":1472718720},"headsign":"Bagatelle","line":{"agencies":[{"name":"STIF","url":"http://www.vianavigo.com/"}],"color":"#f21300","short_name":"43","text_color":"#ffffff","vehicle":{"icon":"//maps.gstatic.com/mapfiles/transit/iw2/6/bus2.png","name":"Bus","type":"BUS"}},"num_stops":11},"travel_mode":"TRANSIT"},{"distance":{"text":"0,2 km","value":153},"duration":{"text":"2 minutes","value":117},"end_location":{"lat":48.8748221,"lng":2.3228933},"html_instructions":"Marcher jusqu'à 73 Rue d'Anjou, 75008 Paris, France","polyline":{"points":"cwhiHa}dMLDGd@_@nFuA["},"start_location":{"lat":48.874264,"lng":2.324166},"steps":[{"distance":{"text":"0,1 km","value":104},"duration":{"text":"1 minute","value":76},"end_location":{"lat":48.8743906,"lng":2.3227511},"html_instructions":"Prendre la direction <b>ouest</b> sur <b>Boulevard Haussmann</b> vers <b>Rue Pasquier</b>","polyline":{"points":"cwhiHa}dMLDGd@_@nF"},"start_location":{"lat":48.874264,"lng":2.324166},"travel_mode":"WALKING"},{"distance":{"text":"49 m","value":49},"duration":{"text":"1 minute","value":41},"end_location":{"lat":48.8748221,"lng":2.3228933},"html_instructions":"Prendre <b>à droite</b> sur <b>Rue d'Anjou</b><div style=\"font-size:0.9em\">Votre destination se trouvera sur la gauche.</div>","maneuver":"turn-right","polyline":{"points":"}whiHetdMuA["},"start_location":{"lat":48.8743906,"lng":2.3227511},"travel_mode":"WALKING"}],"travel_mode":"WALKING"}],"traffic_speed_entry":[],"via_waypoint":[]}],"overview_polyline":{"points":"cxfiHo{oMcBfOaAdJ?VEd@QxACTLh@v@a@NAAa@kPvK_QnL}KfEec@}D_LfYkApLnM`PzIlEhAzOsHpHwRqDwCkAnIfPaAtTjLpj@tH`SdCvKe@jQe@v\\hCtZvDjCjBpMLDg@tGuA["},"summary":"","warnings":["Le calcul d'itinéraires piétons est en bêta. Faites attention – Cet itinéraire n'est peut-être pas complètement aménagé pour les piétons."],"waypoint_order":[]},{"bounds":{"northeast":{"lat":48.875442,"lng":2.386568},"southwest":{"lat":48.8449,"lng":2.32026}},"copyrights":"Données cartographiques ©2016 Google","legs":[{"arrival_time":{"text":"10:52","time_zone":"Europe/Paris","value":1472719979},"departure_time":{"text":"10:01","time_zone":"Europe/Paris","value":1472716919},"distance":{"text":"8,9 km","value":8904},"duration":{"text":"51 minutes","value":3060},"end_address":"73 Rue d'Anjou, 75008 Paris, France","end_location":{"lat":48.8748221,"lng":2.3228933},"start_address":"86 Avenue de la République, 75011 Paris, France","start_location":{"lat":48.8641768,"lng":2.3802446},"steps":[{"distance":{"text":"0,6 km","value":555},"duration":{"text":"7 minutes","value":421},"end_location":{"lat":48.861709,"lng":2.385425},"html_instructions":"Marcher jusqu'à Folie Regnault - Chemin Vert","polyline":{"points":"cxfiHo{oM^uDDYFi@\\{Ch@{E^uDDKBKDOToBNHB@B@D?B?BADCfCoADd@n@YbAe@BT"},"start_location":{"lat":48.8641768,"lng":2.3802446},"steps":[{"distance":{"text":"0,3 km","value":307},"duration":{"text":"4 minutes","value":235},"end_location":{"lat":48.863426,"lng":2.3842792},"html_instructions":"Prendre la direction <b>est</b> sur <b>Avenue de la République</b> vers <b>Rue Guillaume Bertrand</b>","polyline":{"points":"cxfiHo{oM^uDDYFi@\\{Ch@{E^uD"},"start_location":{"lat":48.8641768,"lng":2.3802446},"travel_mode":"WALKING"},{"distance":{"text":"60 m","value":60},"duration":{"text":"1 minute","value":50},"end_location":{"lat":48.8632362,"lng":2.3850375},"html_instructions":"Tourner légèrement à <b>droite</b> pour continuer sur <b>Avenue de la République</b>","maneuver":"turn-slight-right","polyline":{"points":"msfiHwtpMDKBKDOToB"},"start_location":{"lat":48.863426,"lng":2.3842792},"travel_mode":"WALKING"},{"distance":{"text":"0,1 km","value":106},"duration":{"text":"1 minute","value":76},"end_location":{"lat":48.8623446,"lng":2.3853967},"html_instructions":"Prendre <b>à droite</b> sur <b>Rue Plichon</b>","maneuver":"turn-right","polyline":{"points":"grfiHoypMNHB@B@D?B?BADCfCoA"},"start_location":{"lat":48.8632362,"lng":2.3850375},"travel_mode":"WALKING"},{"distance":{"text":"14 m","value":14},"duration":{"text":"1 minute","value":9},"end_location":{"lat":48.86230570000001,"lng":2.3852148},"html_instructions":"Prendre <b>à droite</b> sur <b>Rue du Chemin Vert</b>","maneuver":"turn-right","polyline":{"points":"slfiHw{pMDd@"},"start_location":{"lat":48.8623446,"lng":2.3853967},"travel_mode":"WALKING"},{"distance":{"text":"68 m","value":68},"duration":{"text":"1 minute","value":51},"end_location":{"lat":48.861709,"lng":2.385425},"html_instructions":"Prendre <b>à gauche</b> sur <b>Rue de la Folie-Regnault</b><div style=\"font-size:0.9em\">Votre destination se trouvera sur la droite.</div>","maneuver":"turn-left","polyline":{"points":"mlfiHqzpMn@YbAe@BT"},"start_location":{"lat":48.86230570000001,"lng":2.3852148},"travel_mode":"WALKING"}],"travel_mode":"WALKING"},{"distance":{"text":"2,5 km","value":2457},"duration":{"text":"12 minutes","value":720},"end_location":{"lat":48.845402,"lng":2.368661},"html_instructions":"Bus vers Gare d'Austerlitz","polyline":{"points":"uhfiH{{pMxKeFnCnIhDbXxMhMfK`FjPhJfLzPzRpHv@dO"},"start_location":{"lat":48.861709,"lng":2.385425},"transit_details":{"arrival_stop":{"location":{"lat":48.845402,"lng":2.368661},"name":"Pont d'Austerlitz - Quai de la Rapee"},"arrival_time":{"text":"10:21","time_zone":"Europe/Paris","value":1472718060},"departure_stop":{"location":{"lat":48.861709,"lng":2.385425},"name":"Folie Regnault - Chemin Vert"},"departure_time":{"text":"10:09","time_zone":"Europe/Paris","value":1472717340},"headsign":"Gare d'Austerlitz","line":{"agencies":[{"name":"STIF","url":"http://www.vianavigo.com/"}],"color":"#004d40","short_name":"61","text_color":"#ffffff","vehicle":{"icon":"//maps.gstatic.com/mapfiles/transit/iw2/6/bus2.png","name":"Bus","type":"BUS"}},"num_stops":9},"travel_mode":"TRANSIT"},{"distance":{"text":"5,7 km","value":5748},"duration":{"text":"25 minutes","value":1500},"end_location":{"lat":48.875442,"lng":2.324207},"html_instructions":"Bus vers Gare Saint-Lazare","polyline":{"points":"wbciHcsmMbBlXaLlUuK|QaDrL}FxXiHvUyHfZoI|OqJxTsBhVgI~^uIb_@wD`SgZ_LcR}QkSqH{LxO"},"start_location":{"lat":48.845402,"lng":2.368661},"transit_details":{"arrival_stop":{"location":{"lat":48.875442,"lng":2.324207},"name":"Gare Saint-Lazare"},"arrival_time":{"text":"10:51","time_zone":"Europe/Paris","value":1472719860},"departure_stop":{"location":{"lat":48.845402,"lng":2.368661},"name":"Pont d'Austerlitz - Quai de la Rapee"},"departure_time":{"text":"10:26","time_zone":"Europe/Paris","value":1472718360},"headsign":"Gare Saint-Lazare","line":{"agencies":[{"name":"STIF","url":"http://www.vianavigo.com/"}],"color":"#a0006e","short_name":"24","text_color":"#ffffff","vehicle":{"icon":"//maps.gstatic.com/mapfiles/transit/iw2/6/bus2.png","name":"Bus","type":"BUS"}},"num_stops":17},"travel_mode":"TRANSIT"},{"distance":{"text":"0,1 km","value":144},"duration":{"text":"2 minutes","value":118},"end_location":{"lat":48.8748221,"lng":2.3228933},"html_instructions":"Marcher jusqu'à 73 Rue d'Anjou, 75008 Paris, France","polyline":{"points":"o~hiHi}dMFRLMHbAPFHjDRAf@HB@"},"start_location":{"lat":48.875442,"lng":2.324207},"steps":[{"distance":{"text":"10 m","value":10},"duration":{"text":"1 minute","value":6},"end_location":{"lat":48.8753272,"lng":2.3241783},"html_instructions":"Prendre la direction <b>sud-est</b> sur <b>Rue de Rome</b>","polyline":{"points":"o~hiHi}dMFRLM"},"start_location":{"lat":48.875442,"lng":2.324207},"travel_mode":"WALKING"},{"distance":{"text":"25 m","value":25},"duration":{"text":"1 minute","value":23},"end_location":{"lat":48.8752837,"lng":2.3238394},"html_instructions":"Tourner à <b>droite</b> vers <b>Rue de la Pépinière</b>","maneuver":"turn-right","polyline":{"points":"y}hiHc}dMHbA"},"start_location":{"lat":48.8753272,"lng":2.3241783},"travel_mode":"WALKING"},{"distance":{"text":"11 m","value":11},"duration":{"text":"1 minute","value":7},"end_location":{"lat":48.875186,"lng":2.3238002},"html_instructions":"Tourner à <b>gauche</b> vers <b>Rue de la Pépinière</b>","maneuver":"turn-left","polyline":{"points":"o}hiH_{dMPF"},"start_location":{"lat":48.8752837,"lng":2.3238394},"travel_mode":"WALKING"},{"distance":{"text":"63 m","value":63},"duration":{"text":"1 minute","value":50},"end_location":{"lat":48.8751359,"lng":2.3229397},"html_instructions":"Prendre <b>à droite</b> sur <b>Rue de la Pépinière</b>","maneuver":"turn-right","polyline":{"points":"}|hiHwzdMHjD"},"start_location":{"lat":48.875186,"lng":2.3238002},"travel_mode":"WALKING"},{"distance":{"text":"35 m","value":35},"duration":{"text":"1 minute","value":32},"end_location":{"lat":48.8748221,"lng":2.3228933},"html_instructions":"Prendre <b>à gauche</b> sur <b>Rue d'Anjou</b><div style=\"font-size:0.9em\">Votre destination se trouvera sur la droite.</div>","maneuver":"turn-left","polyline":{"points":"s|hiHkudMRAf@HB@"},"start_location":{"lat":48.8751359,"lng":2.3229397},"travel_mode":"WALKING"}],"travel_mode":"WALKING"}],"traffic_speed_entry":[],"via_waypoint":[]}],"overview_polyline":{"points":"cxfiHo{oMjAuKhAqKHWZ_CRJP?lCsADd@n@YbAe@BTxKeFnCnIhDbXxMhMfK`FjPhJfLzPzRpHv@dObBlXaLlUuK|QaDrL}FxXiHvUyHfZoI|OqJxTsBhVgI~^uIb_@wD`SgZ_LcR}QkSqH{LxOFRLMHbAPFHjDRAj@J"},"summary":"","warnings":["Le calcul d'itinéraires piétons est en bêta. Faites attention – Cet itinéraire n'est peut-être pas complètement aménagé pour les piétons."],"waypoint_order":[]}],"status":"OK"},"gobs":{"geocoded_waypoints":[{"geocoder_status":"OK","place_id":"ChIJW9cabPBt5kcRvtkcGP2Zhw4","types":["street_address"]},{"geocoder_status":"OK","place_id":"ChIJS8pekPJx5kcRxS0S3NXQsW4","types":["street_address"]}],"routes":[{"bounds":{"northeast":{"lat":48.8641768,"lng":2.386568},"southwest":{"lat":48.8377748,"lng":2.3548511}},"copyrights":"Données cartographiques ©2016 Google","legs":[{"arrival_time":{"text":"10:34","time_zone":"Europe/Paris","value":1472718871},"departure_time":{"text":"10:01","time_zone":"Europe/Paris","value":1472716919},"distance":{"text":"4,4 km","value":4374},"duration":{"text":"33 minutes","value":1952},"end_address":"73 Boulevard Saint-Marcel, 75005 Paris, France","end_location":{"lat":48.8377748,"lng":2.3548511},"start_address":"86 Avenue de la République, 75011 Paris, France","start_location":{"lat":48.8641768,"lng":2.3802446},"steps":[{"distance":{"text":"0,6 km","value":555},"duration":{"text":"7 minutes","value":421},"end_location":{"lat":48.861709,"lng":2.385425},"html_instructions":"Marcher jusqu'à Folie Regnault - Chemin Vert","polyline":{"points":"cxfiHo{oM^uDDYFi@\\{Ch@{E^uDDKBKDOToBNHB@B@D?B?BADCfCoADd@n@YbAe@BT"},"start_location":{"lat":48.8641768,"lng":2.3802446},"steps":[{"distance":{"text":"0,3 km","value":307},"duration":{"text":"4 minutes","value":235},"end_location":{"lat":48.863426,"lng":2.3842792},"html_instructions":"Prendre la direction <b>est</b> sur <b>Avenue de la République</b> vers <b>Rue Guillaume Bertrand</b>","polyline":{"points":"cxfiHo{oM^uDDYFi@\\{Ch@{E^uD"},"start_location":{"lat":48.8641768,"lng":2.3802446},"travel_mode":"WALKING"},{"distance":{"text":"60 m","value":60},"duration":{"text":"1 minute","value":50},"end_location":{"lat":48.8632362,"lng":2.3850375},"html_instructions":"Tourner légèrement à <b>droite</b> pour continuer sur <b>Avenue de la République</b>","maneuver":"turn-slight-right","polyline":{"points":"msfiHwtpMDKBKDOToB"},"start_location":{"lat":48.863426,"lng":2.3842792},"travel_mode":"WALKING"},{"distance":{"text":"0,1 km","value":106},"duration":{"text":"1 minute","value":76},"end_location":{"lat":48.8623446,"lng":2.3853967},"html_instructions":"Prendre <b>à droite</b> sur <b>Rue Plichon</b>","maneuver":"turn-right","polyline":{"points":"grfiHoypMNHB@B@D?B?BADCfCoA"},"start_location":{"lat":48.8632362,"lng":2.3850375},"travel_mode":"WALKING"},{"distance":{"text":"14 m","value":14},"duration":{"text":"1 minute","value":9},"end_location":{"lat":48.86230570000001,"lng":2.3852148},"html_instructions":"Prendre <b>à droite</b> sur <b>Rue du Chemin Vert</b>","maneuver":"turn-right","polyline":{"points":"slfiHw{pMDd@"},"start_location":{"lat":48.8623446,"lng":2.3853967},"travel_mode":"WALKING"},{"distance":{"text":"68 m","value":68},"duration":{"text":"1 minute","value":51},"end_location":{"lat":48.861709,"lng":2.385425},"html_instructions":"Prendre <b>à gauche</b> sur <b>Rue de la Folie-Regnault</b><div style=\"font-size:0.9em\">Votre destination se trouvera sur la droite.</div>","maneuver":"turn-left","polyline":{"points":"mlfiHqzpMn@YbAe@BT"},"start_location":{"lat":48.86230570000001,"lng":2.3852148},"travel_mode":"WALKING"}],"travel_mode":"WALKING"},{"distance":{"text":"2,5 km","value":2457},"duration":{"text":"12 minutes","value":720},"end_location":{"lat":48.845402,"lng":2.368661},"html_instructions":"Bus vers Gare d'Austerlitz","polyline":{"points":"uhfiH{{pMxKeFnCnIhDbXxMhMfK`FjPhJfLzPzRpHv@dO"},"start_location":{"lat":48.861709,"lng":2.385425},"transit_details":{"arrival_stop":{"location":{"lat":48.845402,"lng":2.368661},"name":"Pont d'Austerlitz - Quai de la Rapee"},"arrival_time":{"text":"10:21","time_zone":"Europe/Paris","value":1472718060},"departure_stop":{"location":{"lat":48.861709,"lng":2.385425},"name":"Folie Regnault - Chemin Vert"},"departure_time":{"text":"10:09","time_zone":"Europe/Paris","value":1472717340},"headsign":"Gare d'Austerlitz","line":{"agencies":[{"name":"STIF","url":"http://www.vianavigo.com/"}],"color":"#004d40","short_name":"61","text_color":"#ffffff","vehicle":{"icon":"//maps.gstatic.com/mapfiles/transit/iw2/6/bus2.png","name":"Bus","type":"BUS"}},"num_stops":9},"travel_mode":"TRANSIT"},{"distance":{"text":"1,2 km","value":1243},"duration":{"text":"8 minutes","value":480},"end_location":{"lat":48.838269,"lng":2.356185},"html_instructions":"Bus vers Montparnasse 2 - Gare TGV","polyline":{"points":"wbciHcsmMfM~[xSrRnHj\\"},"start_location":{"lat":48.845402,"lng":2.368661},